$GPRMC,014033.00,A,3522.2180,N,13902.5201,E,51.632187,276.235229,020818,,*04
$GPGGA,014033.00,3522.2180,N,13902.5201,E,1,00,0.0,278.313141,M,0.0,M,,*63
$GPGLL,3522.2180,N,13902.5201,E,014033.00,A,*2F
$GPGSA,A,3,,,,,,,,,,,,,0.0,0.0,0.0*32
$GPRMC,014038.00,A,3522.2347,N,13902.4410,E,48.758599,284.484451,020818,,*07
$GPGGA,014038.00,3522.2347,N,13902.4410,E,1,00,0.0,268.935547,M,0.0,M,,*6B
$GPGLL,3522.2347,N,13902.4410,E,014038.00,A,*2A
$GPGSA,A,3,,,,,,,,,,,,,0.0,0.0,0.0*32
$GPRMC,014043.00,A,3522.2564,N,13902.3633,E,48.004653,288.906164,020818,,*0B
$GPGGA,014043.00,3522.2564,N,13902.3633,E,1,00,0.0,264.936340,M,0.0,M,,*6A
$GPGLL,3522.2564,N,13902.3633,E,014043.00,A,*25
$GPGSA,A,3,,,,,,,,,,,,,0.0,0.0,0.0*32
$GPRMC,014048.00,A,3522.2674,N,13902.2818,E,49.232285,279.402946,020818,,*02
$GPGGA,014048.00,3522.2674,N,13902.2818,E,1,00,0.0,262.946198,M,0.0,M,,*63
$GPGLL,3522.2674,N,13902.2818,E,014048.00,A,*2A
$GPGSA,A,3,,,,,,,,,,,,,0.0,0.0,0.0*32
$GPRMC,014053.00,A,3522.2557,N,13902.1974,E,50.957472,260.339092,020818,,*0B
$GPGGA,014053.00,3522.2557,N,13902.1974,E,1,00,0.0,263.383728,M,0.0,M,,*6C
$GPGLL,3522.2557,N,13902.1974,E,014053.00,A,*2A
$GPGSA,A,3,,,,,,,,,,,,,0.0,0.0,0.0*32
$GPRMC,014058.00,A,3522.2218,N,13902.1197,E,52.634056,241.855325,020818,,*0E
$GPGGA,014058.00,3522.2218,N,13902.1197,E,1,00,0.0,262.439850,M,0.0,M,,*69
$GPGLL,3522.2218,N,13902.1197,E,014058.00,A,*28
$GPGSA,A,3,,,,,,,,,,,,,0.0,0.0,0.0*32
$GPRMC,014103.00,A,3522.1765,N,13902.0486,E,52.974223,231.998502,020818,,*06
$GPGGA,014103.00,3522.1765,N,13902.0486,E,1,00,0.0,260.634521,M,0.0,M,,*68
$GPGLL,3522.1765,N,13902.0486,E,014103.00,A,*2F
$GPGSA,A,3,,,,,,,,,,,,,0.0,0.0,0.0*32
$GPRMC,014108.00,A,3522.1420,N,13901.9696,E,51.756783,241.840300,020818,,*03
$GPGGA,014108.00,3522.1420,N,13901.9696,E,1,00,0.0,260.564148,M,0.0,M,,*65
$GPGLL,3522.1420,N,13901.9696,E,014108.00,A,*2F
$GPGSA,A,3,,,,,,,,,,,,,0.0,0.0,0.0*32
$GPRMC,014113.00,A,3522.1302,N,13901.8846,E,50.291671,260.353296,020818,,*0B
$GPGGA,014113.00,3522.1302,N,13901.8846,E,1,00,0.0,260.921082,M,0.0,M,,*60
$GPGLL,3522.1302,N,13901.8846,E,014113.00,A,*20
$GPGSA,A,3,,,,,,,,,,,,,0.0,0.0,0.0*32
$GPRMC,014118.00,A,3522.1406,N,13901.8010,E,49.485637,278.647245,020818,,*06
$GPGGA,014118.00,3522.1406,N,13901.8010,E,1,00,0.0,262.345032,M,0.0,M,,*62
$GPGLL,3522.1406,N,13901.8010,E,014118.00,A,*23
$GPGSA,A,3,,,,,,,,,,,,,0.0,0.0,0.0*32
$GPRMC,014123.00,A,3522.1599,N,13901.7208,E,48.597060,286.492546,020818,,*05
$GPGGA,014123.00,3522.1599,N,13901.7208,E,1,00,0.0,265.826355,M,0.0,M,,*62
$GPGLL,3522.1599,N,13901.7208,E,014123.00,A,*28
$GPGSA,A,3,,,,,,,,,,,,,0.0,0.0,0.0*32
$GPRMC,014128.00,A,3522.1662,N,13901.6398,E,47.818297,275.446036,020818,,*08
$GPGGA,014128.00,3522.1662,N,13901.6398,E,1,00,0.0,268.533997,M,0.0,M,,*67
$GPGLL,3522.1662,N,13901.6398,E,014128.00,A,*2D
$GPGSA,A,3,,,,,,,,,,,,,0.0,0.0,0.0*32
$GPRMC,014133.00,A,3522.1477,N,13901.5631,E,47.450270,253.456270,020818,,*0D
$GPGGA,014133.00,3522.1477,N,13901.5631,E,1,00,0.0,271.133728,M,0.0,M,,*68
$GPGLL,3522.1477,N,13901.5631,E,014133.00,A,*24
$GPGSA,A,3,,,,,,,,,,,,,0.0,0.0,0.0*32
$GPRMC,014138.00,A,3522.1059,N,13901.5018,E,47.393848,230.111109,020818,,*04
$GPGGA,014138.00,3522.1059,N,13901.5018,E,1,00,0.0,273.678894,M,0.0,M,,*64
$GPGLL,3522.1059,N,13901.5018,E,014138.00,A,*2A
$GPGSA,A,3,,,,,,,,,,,,,0.0,0.0,0.0*32
$GPRMC,014143.00,A,3522.0476,N,13901.4620,E,48.387387,209.122620,020818,,*08
$GPGGA,014143.00,3522.0476,N,13901.4620,E,1,00,0.0,274.936890,M,0.0,M,,*6A
$GPGLL,3522.0476,N,13901.4620,E,014143.00,A,*22
$GPGSA,A,3,,,,,,,,,,,,,0.0,0.0,0.0*32
$GPRMC,014148.00,A,3521.9813,N,13901.4374,E,49.582582,196.874046,020818,,*0A
$GPGGA,014148.00,3521.9813,N,13901.4374,E,1,00,0.0,275.294647,M,0.0,M,,*66
$GPGLL,3521.9813,N,13901.4374,E,014148.00,A,*28
$GPGSA,A,3,,,,,,,,,,,,,0.0,0.0,0.0*32
$GPRMC,014153.00,A,3521.9137,N,13901.4131,E,50.700610,196.326956,020818,,*00
$GPGGA,014153.00,3521.9137,N,13901.4131,E,1,00,0.0,277.325806,M,0.0,M,,*62
$GPGLL,3521.9137,N,13901.4131,E,014153.00,A,*2E
$GPGSA,A,3,,,,,,,,,,,,,0.0,0.0,0.0*32
$GPRMC,014158.00,A,3521.8493,N,13901.3757,E,51.651850,205.321846,020818,,*00
$GPGGA,014158.00,3521.8493,N,13901.3757,E,1,00,0.0,278.407562,M,0.0,M,,*65
$GPGLL,3521.8493,N,13901.3757,E,014158.00,A,*2E
$GPGSA,A,3,,,,,,,,,,,,,0.0,0.0,0.0*32
$GPRMC,014203.00,A,3521.7891,N,13901.3248,E,52.613598,214.617246,020818,,*01
$GPGGA,014203.00,3521.7891,N,13901.3248,E,1,00,0.0,278.382904,M,0.0,M,,*64
$GPGLL,3521.7891,N,13901.3248,E,014203.00,A,*29
$GPGSA,A,3,,,,,,,,,,,,,0.0,0.0,0.0*32
$GPRMC,014208.00,A,3521.7339,N,13901.2657,E,53.198779,221.080344,020818,,*0D
$GPGGA,014208.00,3521.7339,N,13901.2657,E,1,00,0.0,279.346069,M,0.0,M,,*66
$GPGLL,3521.7339,N,13901.2657,E,014208.00,A,*20
$GPGSA,A,3,,,,,,,,,,,,,0.0,0.0,0.0*32
$GPRMC,014213.00,A,3521.6812,N,13901.2019,E,53.670269,224.695467,020818,,*0C
$GPGGA,014213.00,3521.6812,N,13901.2019,E,1,00,0.0,281.420227,M,0.0,M,,*6B
$GPGLL,3521.6812,N,13901.2019,E,014213.00,A,*25
$GPGSA,A,3,,,,,,,,,,,,,0.0,0.0,0.0*32
$GPRMC,014218.00,A,3521.6317,N,13901.1336,E,53.381905,228.337420,020818,,*0C
$GPGGA,014218.00,3521.6317,N,13901.1336,E,1,00,0.0,282.794159,M,0.0,M,,*66
$GPGLL,3521.6317,N,13901.1336,E,014218.00,A,*2D
$GPGSA,A,3,,,,,,,,,,,,,0.0,0.0,0.0*32
$GPRMC,014223.00,A,3521.5864,N,13901.0618,E,53.019719,232.281937,020818,,*0D
$GPGGA,014223.00,3521.5864,N,13901.0618,E,1,00,0.0,284.679504,M,0.0,M,,*62
$GPGLL,3521.5864,N,13901.0618,E,014223.00,A,*21
$GPGSA,A,3,,,,,,,,,,,,,0.0,0.0,0.0*32
$GPRMC,014228.00,A,3521.5452,N,13900.9877,E,52.183081,235.673909,020818,,*06
$GPGGA,014228.00,3521.5452,N,13900.9877,E,1,00,0.0,287.351959,M,0.0,M,,*67
$GPGLL,3521.5452,N,13900.9877,E,014228.00,A,*2C
$GPGSA,A,3,,,,,,,,,,,,,0.0,0.0,0.0*32
$GPRMC,014233.00,A,3521.5093,N,13900.9121,E,50.996249,239.809778,020818,,*00
$GPGGA,014233.00,3521.5093,N,13900.9121,E,1,00,0.0,291.174622,M,0.0,M,,*6F
$GPGLL,3521.5093,N,13900.9121,E,014233.00,A,*25
$GPGSA,A,3,,,,,,,,,,,,,0.0,0.0,0.0*32
$GPRMC,014238.00,A,3521.4805,N,13900.8345,E,50.022916,245.516805,020818,,*06
$GPGGA,014238.00,3521.4805,N,13900.8345,E,1,00,0.0,295.155457,M,0.0,M,,*64
$GPGLL,3521.4805,N,13900.8345,E,014238.00,A,*29
$GPGSA,A,3,,,,,,,,,,,,,0.0,0.0,0.0*32
$GPRMC,014243.00,A,3521.4583,N,13900.7549,E,49.098243,251.133064,020818,,*07
$GPGGA,014243.00,3521.4583,N,13900.7549,E,1,00,0.0,299.142792,M,0.0,M,,*6E
$GPGLL,3521.4583,N,13900.7549,E,014243.00,A,*23
$GPGSA,A,3,,,,,,,,,,,,,0.0,0.0,0.0*32
$GPRMC,014248.00,A,3521.4361,N,13900.6757,E,49.005269,251.042901,020818,,*0B
$GPGGA,014248.00,3521.4361,N,13900.6757,E,1,00,0.0,302.288239,M,0.0,M,,*61
$GPGLL,3521.4361,N,13900.6757,E,014248.00,A,*2E
$GPGSA,A,3,,,,,,,,,,,,,0.0,0.0,0.0*32
$GPRMC,014253.00,A,3521.4068,N,13900.6015,E,47.440189,244.129950,020818,,*00
$GPGGA,014253.00,3521.4068,N,13900.6015,E,1,00,0.0,305.040710,M,0.0,M,,*6F
$GPGLL,3521.4068,N,13900.6015,E,014253.00,A,*2F
$GPGSA,A,3,,,,,,,,,,,,,0.0,0.0,0.0*32
$GPRMC,014258.00,A,3521.3674,N,13900.5387,E,46.340926,232.470266,020818,,*01
$GPGGA,014258.00,3521.3674,N,13900.5387,E,1,00,0.0,306.444336,M,0.0,M,,*60
$GPGLL,3521.3674,N,13900.5387,E,014258.00,A,*23
$GPGSA,A,3,,,,,,,,,,,,,0.0,0.0,0.0*32
$GPRMC,014303.00,A,3521.3228,N,13900.4817,E,46.814599,226.188186,020818,,*08
$GPGGA,014303.00,3521.3228,N,13900.4817,E,1,00,0.0,308.650757,M,0.0,M,,*6B
$GPGLL,3521.3228,N,13900.4817,E,014303.00,A,*22
$GPGSA,A,3,,,,,,,,,,,,,0.0,0.0,0.0*32
$GPRMC,014308.00,A,3521.2866,N,13900.4154,E,47.130902,236.152924,020818,,*0A
$GPGGA,014308.00,3521.2866,N,13900.4154,E,1,00,0.0,310.814178,M,0.0,M,,*63
$GPGLL,3521.2866,N,13900.4154,E,014308.00,A,*26
$GPGSA,A,3,,,,,,,,,,,,,0.0,0.0,0.0*32
$GPRMC,014313.00,A,3521.2746,N,13900.3362,E,47.689829,259.494400,020818,,*0D
$GPGGA,014313.00,3521.2746,N,13900.3362,E,1,00,0.0,311.730438,M,0.0,M,,*6D
$GPGLL,3521.2746,N,13900.3362,E,014313.00,A,*21
$GPGSA,A,3,,,,,,,,,,,,,0.0,0.0,0.0*32
$GPRMC,014318.00,A,3521.2898,N,13900.2571,E,48.132429,283.284950,020818,,*03
$GPGGA,014318.00,3521.2898,N,13900.2571,E,1,00,0.0,313.825348,M,0.0,M,,*66
$GPGLL,3521.2898,N,13900.2571,E,014318.00,A,*23
$GPGSA,A,3,,,,,,,,,,,,,0.0,0.0,0.0*32
$GPRMC,014323.00,A,3521.3303,N,13900.1917,E,48.629423,307.201346,020818,,*06
$GPGGA,014323.00,3521.3303,N,13900.1917,E,1,00,0.0,315.415161,M,0.0,M,,*69
$GPGLL,3521.3303,N,13900.1917,E,014323.00,A,*2C
$GPGSA,A,3,,,,,,,,,,,,,0.0,0.0,0.0*32
$GPRMC,014328.00,A,3521.3851,N,13900.1405,E,48.961981,322.719732,020818,,*05
$GPGGA,014328.00,3521.3851,N,13900.1405,E,1,00,0.0,316.542847,M,0.0,M,,*6D
$GPGLL,3521.3851,N,13900.1405,E,014328.00,A,*25
$GPGSA,A,3,,,,,,,,,,,,,0.0,0.0,0.0*32
$GPRMC,014333.00,A,3521.4353,N,13900.0849,E,47.901224,317.897797,020818,,*09
$GPGGA,014333.00,3521.4353,N,13900.0849,E,1,00,0.0,317.971558,M,0.0,M,,*62
$GPGLL,3521.4353,N,13900.0849,E,014333.00,A,*24
$GPGSA,A,3,,,,,,,,,,,,,0.0,0.0,0.0*32
$GPRMC,014338.00,A,3521.4659,N,13900.0130,E,47.971886,297.583649,020818,,*0C
$GPGGA,014338.00,3521.4659,N,13900.0130,E,1,00,0.0,319.723511,M,0.0,M,,*6B
$GPGLL,3521.4659,N,13900.0130,E,014338.00,A,*27
$GPGSA,A,3,,,,,,,,,,,,,0.0,0.0,0.0*32
$GPRMC,014343.00,A,3521.4715,N,13859.9317,E,48.098261,274.858358,020818,,*0B
$GPGGA,014343.00,3521.4715,N,13859.9317,E,1,00,0.0,322.091248,M,0.0,M,,*60
$GPGLL,3521.4715,N,13859.9317,E,014343.00,A,*21
$GPGSA,A,3,,,,,,,,,,,,,0.0,0.0,0.0*32
$GPRMC,014348.00,A,3521.4644,N,13859.8484,E,49.151933,263.989262,020818,,*03
$GPGGA,014348.00,3521.4644,N,13859.8484,E,1,00,0.0,325.154724,M,0.0,M,,*62
$GPGLL,3521.4644,N,13859.8484,E,014348.00,A,*23
$GPGSA,A,3,,,,,,,,,,,,,0.0,0.0,0.0*32
$GPRMC,014353.00,A,3521.4725,N,13859.7659,E,49.416338,276.897719,020818,,*06
$GPGGA,014353.00,3521.4725,N,13859.7659,E,1,00,0.0,328.840485,M,0.0,M,,*6A
$GPGLL,3521.4725,N,13859.7659,E,014353.00,A,*22
$GPGSA,A,3,,,,,,,,,,,,,0.0,0.0,0.0*32
$GPRMC,014358.00,A,3521.5009,N,13859.6898,E,49.191296,294.541670,020818,,*0C
$GPGGA,014358.00,3521.5009,N,13859.6898,E,1,00,0.0,332.462769,M,0.0,M,,*6D
$GPGLL,3521.5009,N,13859.6898,E,014358.00,A,*23
$GPGSA,A,3,,,,,,,,,,,,,0.0,0.0,0.0*32
$GPRMC,014403.00,A,3521.5226,N,13859.6113,E,48.808063,288.769017,020818,,*02
$GPGGA,014403.00,3521.5226,N,13859.6113,E,1,00,0.0,336.103485,M,0.0,M,,*66
$GPGLL,3521.5226,N,13859.6113,E,014403.00,A,*2F
$GPGSA,A,3,,,,,,,,,,,,,0.0,0.0,0.0*32
$GPRMC,014408.00,A,3521.5330,N,13859.5293,E,48.599828,278.809150,020818,,*01
$GPGGA,014408.00,3521.5330,N,13859.5293,E,1,00,0.0,339.954773,M,0.0,M,,*6C
$GPGLL,3521.5330,N,13859.5293,E,014408.00,A,*2A
$GPGSA,A,3,,,,,,,,,,,,,0.0,0.0,0.0*32
$GPRMC,014413.00,A,3521.5365,N,13859.4483,E,47.517307,273.020851,020818,,*02
$GPGGA,014413.00,3521.5365,N,13859.4483,E,1,00,0.0,343.248138,M,0.0,M,,*62
$GPGLL,3521.5365,N,13859.4483,E,014413.00,A,*26
$GPGSA,A,3,,,,,,,,,,,,,0.0,0.0,0.0*32
$GPRMC,014418.00,A,3521.5250,N,13859.3693,E,46.796271,259.897312,020818,,*00
$GPGGA,014418.00,3521.5250,N,13859.3693,E,1,00,0.0,345.992889,M,0.0,M,,*63
$GPGLL,3521.5250,N,13859.3693,E,014418.00,A,*2E
$GPGSA,A,3,,,,,,,,,,,,,0.0,0.0,0.0*32
$GPRMC,014423.00,A,3521.4934,N,13859.3003,E,46.304423,240.657005,020818,,*0E
$GPGGA,014423.00,3521.4934,N,13859.3003,E,1,00,0.0,348.333618,M,0.0,M,,*66
$GPGLL,3521.4934,N,13859.3003,E,014423.00,A,*21
$GPGSA,A,3,,,,,,,,,,,,,0.0,0.0,0.0*32
$GPRMC,014428.00,A,3521.4443,N,13859.2489,E,46.838414,220.559590,020818,,*0D
$GPGGA,014428.00,3521.4443,N,13859.2489,E,1,00,0.0,350.345062,M,0.0,M,,*64
$GPGLL,3521.4443,N,13859.2489,E,014428.00,A,*20
$GPGSA,A,3,,,,,,,,,,,,,0.0,0.0,0.0*32
$GPRMC,014433.00,A,3521.3868,N,13859.2073,E,48.379762,210.507947,020818,,*08
$GPGGA,014433.00,3521.3868,N,13859.2073,E,1,00,0.0,351.608185,M,0.0,M,,*68
$GPGLL,3521.3868,N,13859.2073,E,014433.00,A,*29
$GPGSA,A,3,,,,,,,,,,,,,0.0,0.0,0.0*32
$GPRMC,014438.00,A,3521.3288,N,13859.1627,E,49.519479,212.067509,020818,,*0C
$GPGGA,014438.00,3521.3288,N,13859.1627,E,1,00,0.0,353.218933,M,0.0,M,,*61
$GPGLL,3521.3288,N,13859.1627,E,014438.00,A,*22
$GPGSA,A,3,,,,,,,,,,,,,0.0,0.0,0.0*32
$GPRMC,014443.00,A,3521.2767,N,13859.1057,E,50.937055,221.730642,020818,,*0F
$GPGGA,014443.00,3521.2767,N,13859.1057,E,1,00,0.0,354.750854,M,0.0,M,,*67
$GPGLL,3521.2767,N,13859.1057,E,014443.00,A,*2A
$GPGSA,A,3,,,,,,,,,,,,,0.0,0.0,0.0*32
$GPRMC,014448.00,A,3521.2249,N,13859.0445,E,51.858321,224.012588,020818,,*05
$GPGGA,014448.00,3521.2249,N,13859.0445,E,1,00,0.0,355.994446,M,0.0,M,,*6B
$GPGLL,3521.2249,N,13859.0445,E,014448.00,A,*2E
$GPGSA,A,3,,,,,,,,,,,,,0.0,0.0,0.0*32
$GPRMC,014453.00,A,3521.1642,N,13858.9953,E,52.995950,213.430306,020818,,*0E
$GPGGA,014453.00,3521.1642,N,13858.9953,E,1,00,0.0,355.799347,M,0.0,M,,*6A
$GPGLL,3521.1642,N,13858.9953,E,014453.00,A,*2A
$GPGSA,A,3,,,,,,,,,,,,,0.0,0.0,0.0*32
$GPRMC,014458.00,A,3521.0935,N,13858.9686,E,52.851831,197.113308,020818,,*06
$GPGGA,014458.00,3521.0935,N,13858.9686,E,1,00,0.0,353.950256,M,0.0,M,,*64
$GPGLL,3521.0935,N,13858.9686,E,014458.00,A,*28
$GPGSA,A,3,,,,,,,,,,,,,0.0,0.0,0.0*32
$GPRMC,014503.00,A,3521.0196,N,13858.9536,E,54.226865,189.368621,020818,,*02
$GPGGA,014503.00,3521.0196,N,13858.9536,E,1,00,0.0,353.763733,M,0.0,M,,*6A
$GPGLL,3521.0196,N,13858.9536,E,014503.00,A,*2E
$GPGSA,A,3,,,,,,,,,,,,,0.0,0.0,0.0*32
$GPRMC,014508.00,A,3520.9467,N,13858.9360,E,52.980991,191.158643,020818,,*08
$GPGGA,014508.00,3520.9467,N,13858.9360,E,1,00,0.0,352.432861,M,0.0,M,,*69
$GPGLL,3520.9467,N,13858.9360,E,014508.00,A,*23
$GPGSA,A,3,,,,,,,,,,,,,0.0,0.0,0.0*32
$GPRMC,014513.00,A,3520.8767,N,13858.9065,E,53.200184,198.987751,020818,,*09
$GPGGA,014513.00,3520.8767,N,13858.9065,E,1,00,0.0,351.536560,M,0.0,M,,*6D
$GPGLL,3520.8767,N,13858.9065,E,014513.00,A,*2D
$GPGSA,A,3,,,,,,,,,,,,,0.0,0.0,0.0*32
$GPRMC,014518.00,A,3520.8113,N,13858.8648,E,53.223208,207.481366,020818,,*07
$GPGGA,014518.00,3520.8113,N,13858.8648,E,1,00,0.0,351.373199,M,0.0,M,,*6E
$GPGLL,3520.8113,N,13858.8648,E,014518.00,A,*2B
$GPGSA,A,3,,,,,,,,,,,,,0.0,0.0,0.0*32
$GPRMC,014523.00,A,3520.7494,N,13858.8157,E,52.674901,212.903998,020818,,*0E
$GPGGA,014523.00,3520.7494,N,13858.8157,E,1,00,0.0,352.645813,M,0.0,M,,*62
$GPGLL,3520.7494,N,13858.8157,E,014523.00,A,*2F
$GPGSA,A,3,,,,,,,,,,,,,0.0,0.0,0.0*32
$GPRMC,014528.00,A,3520.6875,N,13858.7698,E,51.744976,211.148522,020818,,*04
$GPGGA,014528.00,3520.6875,N,13858.7698,E,1,00,0.0,354.932404,M,0.0,M,,*63
$GPGLL,3520.6875,N,13858.7698,E,014528.00,A,*2D
$GPGSA,A,3,,,,,,,,,,,,,0.0,0.0,0.0*32
$GPRMC,014533.00,A,3520.6217,N,13858.7352,E,50.619237,203.259075,020818,,*02
$GPGGA,014533.00,3520.6217,N,13858.7352,E,1,00,0.0,358.239929,M,0.0,M,,*6A
$GPGLL,3520.6217,N,13858.7352,E,014533.00,A,*2A
$GPGSA,A,3,,,,,,,,,,,,,0.0,0.0,0.0*32
$GPRMC,014538.00,A,3520.5547,N,13858.7116,E,49.733885,196.019509,020818,,*0F
$GPGGA,014538.00,3520.5547,N,13858.7116,E,1,00,0.0,362.603363,M,0.0,M,,*62
$GPGLL,3520.5547,N,13858.7116,E,014538.00,A,*22
$GPGSA,A,3,,,,,,,,,,,,,0.0,0.0,0.0*32
$GPRMC,014543.00,A,3520.4878,N,13858.6925,E,48.388520,193.092159,020818,,*0A
$GPGGA,014543.00,3520.4878,N,13858.6925,E,1,00,0.0,367.624756,M,0.0,M,,*65
$GPGLL,3520.4878,N,13858.6925,E,014543.00,A,*27
$GPGSA,A,3,,,,,,,,,,,,,0.0,0.0,0.0*32
$GPRMC,014548.00,A,3520.4241,N,13858.6610,E,49.153660,201.958012,020818,,*03
$GPGGA,014548.00,3520.4241,N,13858.6610,E,1,00,0.0,372.059235,M,0.0,M,,*6F
$GPGLL,3520.4241,N,13858.6610,E,014548.00,A,*25
$GPGSA,A,3,,,,,,,,,,,,,0.0,0.0,0.0*32
$GPRMC,014553.00,A,3520.3696,N,13858.6114,E,48.912806,216.579642,020818,,*0B
$GPGGA,014553.00,3520.3696,N,13858.6114,E,1,00,0.0,377.874481,M,0.0,M,,*64
$GPGLL,3520.3696,N,13858.6114,E,014553.00,A,*25
$GPGSA,A,3,,,,,,,,,,,,,0.0,0.0,0.0*32
$GPRMC,014558.00,A,3520.3260,N,13858.5475,E,48.961244,230.117610,020818,,*0B
$GPGGA,014558.00,3520.3260,N,13858.5475,E,1,00,0.0,382.697388,M,0.0,M,,*64
$GPGLL,3520.3260,N,13858.5475,E,014558.00,A,*22
$GPGSA,A,3,,,,,,,,,,,,,0.0,0.0,0.0*32
$GPRMC,014603.00,A,3520.2839,N,13858.4822,E,48.758859,231.666832,020818,,*02
$GPGGA,014603.00,3520.2839,N,13858.4822,E,1,00,0.0,388.166565,M,0.0,M,,*67
$GPGLL,3520.2839,N,13858.4822,E,014603.00,A,*27
$GPGSA,A,3,,,,,,,,,,,,,0.0,0.0,0.0*32
$GPRMC,014608.00,A,3520.2333,N,13858.4271,E,49.076249,221.596926,020818,,*0C
$GPGGA,014608.00,3520.2333,N,13858.4271,E,1,00,0.0,393.875122,M,0.0,M,,*67
$GPGLL,3520.2333,N,13858.4271,E,014608.00,A,*21
$GPGSA,A,3,,,,,,,,,,,,,0.0,0.0,0.0*32
$GPRMC,014613.00,A,3520.1745,N,13858.3854,E,48.851380,210.078294,020818,,*07
$GPGGA,014613.00,3520.1745,N,13858.3854,E,1,00,0.0,399.368652,M,0.0,M,,*6C
$GPGLL,3520.1745,N,13858.3854,E,014613.00,A,*27
$GPGSA,A,3,,,,,,,,,,,,,0.0,0.0,0.0*32
$GPRMC,014618.00,A,3520.1103,N,13858.3572,E,48.666116,199.680070,020818,,*0D
$GPGGA,014618.00,3520.1103,N,13858.3572,E,1,00,0.0,404.055084,M,0.0,M,,*69
$GPGLL,3520.1103,N,13858.3572,E,014618.00,A,*21
$GPGSA,A,3,,,,,,,,,,,,,0.0,0.0,0.0*32
$GPRMC,014623.00,A,3520.0464,N,13858.3405,E,45.315761,192.066730,020818,,*0D
$GPGGA,014623.00,3520.0464,N,13858.3405,E,1,00,0.0,408.586853,M,0.0,M,,*60
$GPGLL,3520.0464,N,13858.3405,E,014623.00,A,*2D
$GPGSA,A,3,,,,,,,,,,,,,0.0,0.0,0.0*32
$GPRMC,014628.00,A,3519.9860,N,13858.3319,E,42.731188,186.580052,020818,,*08
$GPGGA,014628.00,3519.9860,N,13858.3319,E,1,00,0.0,413.319824,M,0.0,M,,*60
$GPGLL,3519.9860,N,13858.3319,E,014628.00,A,*27
$GPGSA,A,3,,,,,,,,,,,,,0.0,0.0,0.0*32
$GPRMC,014633.00,A,3519.9271,N,13858.3285,E,42.054471,182.758485,020818,,*06
$GPGGA,014633.00,3519.9271,N,13858.3285,E,1,00,0.0,417.119965,M,0.0,M,,*66
$GPGLL,3519.9271,N,13858.3285,E,014633.00,A,*23
$GPGSA,A,3,,,,,,,,,,,,,0.0,0.0,0.0*32
$GPRMC,014638.00,A,3519.8691,N,13858.3280,E,41.029269,180.397437,020818,,*09
$GPGGA,014638.00,3519.8691,N,13858.3280,E,1,00,0.0,420.738373,M,0.0,M,,*6F
$GPGLL,3519.8691,N,13858.3280,E,014638.00,A,*26
$GPGSA,A,3,,,,,,,,,,,,,0.0,0.0,0.0*32
$GPRMC,014643.00,A,3519.8139,N,13858.3296,E,38.882336,178.580088,020818,,*0C
$GPGGA,014643.00,3519.8139,N,13858.3296,E,1,00,0.0,423.999908,M,0.0,M,,*61
$GPGLL,3519.8139,N,13858.3296,E,014643.00,A,*28
$GPGSA,A,3,,,,,,,,,,,,,0.0,0.0,0.0*32
$GPRMC,014648.00,A,3519.7609,N,13858.3341,E,38.083449,176.098757,020818,,*06
$GPGGA,014648.00,3519.7609,N,13858.3341,E,1,00,0.0,426.912811,M,0.0,M,,*65
$GPGLL,3519.7609,N,13858.3341,E,014648.00,A,*23
$GPGSA,A,3,,,,,,,,,,,,,0.0,0.0,0.0*32
$GPRMC,014653.00,A,3519.7076,N,13858.3392,E,39.199895,175.538816,020818,,*0C
$GPGGA,014653.00,3519.7076,N,13858.3392,E,1,00,0.0,429.997162,M,0.0,M,,*60
$GPGLL,3519.7076,N,13858.3392,E,014653.00,A,*29
$GPGSA,A,3,,,,,,,,,,,,,0.0,0.0,0.0*32
$GPRMC,014658.00,A,3519.6526,N,13858.3445,E,40.107999,175.450191,020818,,*06
$GPGGA,014658.00,3519.6526,N,13858.3445,E,1,00,0.0,432.668610,M,0.0,M,,*60
$GPGLL,3519.6526,N,13858.3445,E,014658.00,A,*2E
$GPGSA,A,3,,,,,,,,,,,,,0.0,0.0,0.0*32
$GPRMC,014703.00,A,3519.5962,N,13858.3498,E,41.341872,175.653678,020818,,*02
$GPGGA,014703.00,3519.5962,N,13858.3498,E,1,00,0.0,435.047272,M,0.0,M,,*6C
$GPGLL,3519.5962,N,13858.3498,E,014703.00,A,*2E
$GPGSA,A,3,,,,,,,,,,,,,0.0,0.0,0.0*32
$GPRMC,014708.00,A,3519.5376,N,13858.3537,E,42.725392,176.869140,020818,,*0A
$GPGGA,014708.00,3519.5376,N,13858.3537,E,1,00,0.0,437.930756,M,0.0,M,,*64
$GPGLL,3519.5376,N,13858.3537,E,014708.00,A,*2E
$GPGSA,A,3,,,,,,,,,,,,,0.0,0.0,0.0*32
$GPRMC,014713.00,A,3519.4767,N,13858.3531,E,44.050386,180.460087,020818,,*03
$GPGGA,014713.00,3519.4767,N,13858.3531,E,1,00,0.0,440.271118,M,0.0,M,,*6F
$GPGLL,3519.4767,N,13858.3531,E,014713.00,A,*27
$GPGSA,A,3,,,,,,,,,,,,,0.0,0.0,0.0*32
$GPRMC,014718.00,A,3519.4140,N,13858.3472,E,45.905882,184.388468,020818,,*0A
$GPGGA,014718.00,3519.4140,N,13858.3472,E,1,00,0.0,443.716064,M,0.0,M,,*6C
$GPGLL,3519.4140,N,13858.3472,E,014718.00,A,*29
$GPGSA,A,3,,,,,,,,,,,,,0.0,0.0,0.0*32
$GPRMC,014723.00,A,3519.3519,N,13858.3350,E,44.217520,189.107302,020818,,*05
$GPGGA,014723.00,3519.3519,N,13858.3350,E,1,00,0.0,446.952026,M,0.0,M,,*61
$GPGLL,3519.3519,N,13858.3350,E,014723.00,A,*29
$GPGSA,A,3,,,,,,,,,,,,,0.0,0.0,0.0*32
$GPRMC,014728.00,A,3519.2932,N,13858.3153,E,44.046332,195.294018,020818,,*04
$GPGGA,014728.00,3519.2932,N,13858.3153,E,1,00,0.0,450.129608,M,0.0,M,,*66
$GPGLL,3519.2932,N,13858.3153,E,014728.00,A,*27
$GPGSA,A,3,,,,,,,,,,,,,0.0,0.0,0.0*32
$GPRMC,014733.00,A,3519.2356,N,13858.2917,E,42.609551,198.540086,020818,,*03
$GPGGA,014733.00,3519.2356,N,13858.2917,E,1,00,0.0,453.361145,M,0.0,M,,*6E
$GPGLL,3519.2356,N,13858.2917,E,014733.00,A,*2C
$GPGSA,A,3,,,,,,,,,,,,,0.0,0.0,0.0*32
$GPRMC,014738.00,A,3519.1813,N,13858.2623,E,42.454544,203.845645,020818,,*07
$GPGGA,014738.00,3519.1813,N,13858.2623,E,1,00,0.0,455.684326,M,0.0,M,,*6B
$GPGLL,3519.1813,N,13858.2623,E,014738.00,A,*26
$GPGSA,A,3,,,,,,,,,,,,,0.0,0.0,0.0*32
$GPRMC,014743.00,A,3519.1289,N,13858.2273,E,43.541313,208.589283,020818,,*0B
$GPGGA,014743.00,3519.1289,N,13858.2273,E,1,00,0.0,458.225098,M,0.0,M,,*6B
$GPGLL,3519.1289,N,13858.2273,E,014743.00,A,*22
$GPGSA,A,3,,,,,,,,,,,,,0.0,0.0,0.0*32
$GPRMC,014748.00,A,3519.0783,N,13858.1856,E,44.700754,213.901610,020818,,*0F
$GPGGA,014748.00,3519.0783,N,13858.1856,E,1,00,0.0,460.202820,M,0.0,M,,*65
$GPGLL,3519.0783,N,13858.1856,E,014748.00,A,*29
$GPGSA,A,3,,,,,,,,,,,,,0.0,0.0,0.0*32
$GPRMC,014753.00,A,3519.0286,N,13858.1378,E,46.399749,218.131154,020818,,*0F
$GPGGA,014753.00,3519.0286,N,13858.1378,E,1,00,0.0,462.663757,M,0.0,M,,*66
$GPGLL,3519.0286,N,13858.1378,E,014753.00,A,*24
$GPGSA,A,3,,,,,,,,,,,,,0.0,0.0,0.0*32
$GPRMC,014758.00,A,3518.9789,N,13858.0856,E,48.110604,220.565756,020818,,*0F
$GPGGA,014758.00,3518.9789,N,13858.0856,E,1,00,0.0,464.108612,M,0.0,M,,*65
$GPGLL,3518.9789,N,13858.0856,E,014758.00,A,*2B
$GPGSA,A,3,,,,,,,,,,,,,0.0,0.0,0.0*32
$GPRMC,014803.00,A,3518.9307,N,13858.0335,E,45.231347,221.446206,020818,,*0C
$GPGGA,014803.00,3518.9307,N,13858.0335,E,1,00,0.0,464.838562,M,0.0,M,,*66
$GPGLL,3518.9307,N,13858.0335,E,014803.00,A,*26
$GPGSA,A,3,,,,,,,,,,,,,0.0,0.0,0.0*32
$GPRMC,014808.00,A,3518.8821,N,13857.9827,E,46.780922,220.447693,020818,,*0A
$GPGGA,014808.00,3518.8821,N,13857.9827,E,1,00,0.0,465.582703,M,0.0,M,,*65
$GPGLL,3518.8821,N,13857.9827,E,014808.00,A,*2D
$GPGSA,A,3,,,,,,,,,,,,,0.0,0.0,0.0*32
$GPRMC,014813.00,A,3518.8320,N,13857.9339,E,44.853816,218.476067,020818,,*0F
$GPGGA,014813.00,3518.8320,N,13857.9339,E,1,00,0.0,465.514465,M,0.0,M,,*6D
$GPGLL,3518.8320,N,13857.9339,E,014813.00,A,*29
$GPGSA,A,3,,,,,,,,,,,,,0.0,0.0,0.0*32
$GPRMC,014818.00,A,3518.7816,N,13857.8900,E,44.417791,215.394305,020818,,*09
$GPGGA,014818.00,3518.7816,N,13857.8900,E,1,00,0.0,465.388641,M,0.0,M,,*61
$GPGLL,3518.7816,N,13857.8900,E,014818.00,A,*22
$GPGSA,A,3,,,,,,,,,,,,,0.0,0.0,0.0*32
$GPRMC,014823.00,A,3518.7289,N,13857.8501,E,43.747270,211.722226,020818,,*06
$GPGGA,014823.00,3518.7289,N,13857.8501,E,1,00,0.0,465.015015,M,0.0,M,,*68
$GPGLL,3518.7289,N,13857.8501,E,014823.00,A,*2B
$GPGSA,A,3,,,,,,,,,,,,,0.0,0.0,0.0*32
$GPRMC,014828.00,A,3518.6763,N,13857.8149,E,41.553485,208.611108,020818,,*0A
$GPGGA,014828.00,3518.6763,N,13857.8149,E,1,00,0.0,464.612457,M,0.0,M,,*69
$GPGLL,3518.6763,N,13857.8149,E,014828.00,A,*28
$GPGSA,A,3,,,,,,,,,,,,,0.0,0.0,0.0*32
$GPRMC,014833.00,A,3518.6262,N,13857.7866,E,38.633656,204.791789,020818,,*02
$GPGGA,014833.00,3518.6262,N,13857.7866,E,1,00,0.0,464.293701,M,0.0,M,,*61
$GPGLL,3518.6262,N,13857.7866,E,014833.00,A,*2D
$GPGSA,A,3,,,,,,,,,,,,,0.0,0.0,0.0*32
$GPRMC,014838.00,A,3518.5754,N,13857.7605,E,40.108835,202.734166,020818,,*04
$GPGGA,014838.00,3518.5754,N,13857.7605,E,1,00,0.0,464.312103,M,0.0,M,,*6E
$GPGLL,3518.5754,N,13857.7605,E,014838.00,A,*2E
$GPGSA,A,3,,,,,,,,,,,,,0.0,0.0,0.0*32
$GPRMC,014843.00,A,3518.5229,N,13857.7349,E,40.781989,201.660988,020818,,*00
$GPGGA,014843.00,3518.5229,N,13857.7349,E,1,00,0.0,464.375427,M,0.0,M,,*62
$GPGLL,3518.5229,N,13857.7349,E,014843.00,A,*20
$GPGSA,A,3,,,,,,,,,,,,,0.0,0.0,0.0*32
$GPRMC,014848.00,A,3518.4692,N,13857.7110,E,40.906226,199.975272,020818,,*08
$GPGGA,014848.00,3518.4692,N,13857.7110,E,1,00,0.0,465.738586,M,0.0,M,,*64
$GPGLL,3518.4692,N,13857.7110,E,014848.00,A,*20
$GPGSA,A,3,,,,,,,,,,,,,0.0,0.0,0.0*32
$GPRMC,014853.00,A,3518.4155,N,13857.6851,E,41.157502,201.511186,020818,,*0B
$GPGGA,014853.00,3518.4155,N,13857.6851,E,1,00,0.0,467.409790,M,0.0,M,,*69
$GPGLL,3518.4155,N,13857.6851,E,014853.00,A,*2B
$GPGSA,A,3,,,,,,,,,,,,,0.0,0.0,0.0*32
$GPRMC,014858.00,A,3518.3638,N,13857.6565,E,41.213293,204.300238,020818,,*08
$GPGGA,014858.00,3518.3638,N,13857.6565,E,1,00,0.0,468.807068,M,0.0,M,,*6E
$GPGLL,3518.3638,N,13857.6565,E,014858.00,A,*21
$GPGSA,A,3,,,,,,,,,,,,,0.0,0.0,0.0*32
$GPRMC,014903.00,A,3518.3118,N,13857.6240,E,42.262500,206.987682,020818,,*08
$GPGGA,014903.00,3518.3118,N,13857.6240,E,1,00,0.0,470.207153,M,0.0,M,,*6E
$GPGLL,3518.3118,N,13857.6240,E,014903.00,A,*2B
$GPGSA,A,3,,,,,,,,,,,,,0.0,0.0,0.0*32
$GPRMC,014908.00,A,3518.2628,N,13857.5914,E,38.679560,208.535199,020818,,*0C
$GPGGA,014908.00,3518.2628,N,13857.5914,E,1,00,0.0,472.113647,M,0.0,M,,*6F
$GPGLL,3518.2628,N,13857.5914,E,014908.00,A,*2C
$GPGSA,A,3,,,,,,,,,,,,,0.0,0.0,0.0*32
$GPRMC,014913.00,A,3518.2189,N,13857.5594,E,35.598388,210.747079,020818,,*0E
$GPGGA,014913.00,3518.2189,N,13857.5594,E,1,00,0.0,473.939636,M,0.0,M,,*6A
$GPGLL,3518.2189,N,13857.5594,E,014913.00,A,*2E
$GPGSA,A,3,,,,,,,,,,,,,0.0,0.0,0.0*32
$GPRMC,014918.00,A,3518.1797,N,13857.5270,E,33.794811,213.986359,020818,,*00
$GPGGA,014918.00,3518.1797,N,13857.5270,E,1,00,0.0,475.319092,M,0.0,M,,*60
$GPGLL,3518.1797,N,13857.5270,E,014918.00,A,*22
$GPGSA,A,3,,,,,,,,,,,,,0.0,0.0,0.0*32
$GPRMC,014923.00,A,3518.1428,N,13857.4945,E,32.498372,215.695972,020818,,*0B
$GPGGA,014923.00,3518.1428,N,13857.4945,E,1,00,0.0,476.644012,M,0.0,M,,*65
$GPGLL,3518.1428,N,13857.4945,E,014923.00,A,*21
$GPGSA,A,3,,,,,,,,,,,,,0.0,0.0,0.0*32
$GPRMC,014928.00,A,3518.1059,N,13857.4610,E,33.972961,216.579714,020818,,*01
$GPGGA,014928.00,3518.1059,N,13857.4610,E,1,00,0.0,477.974670,M,0.0,M,,*6C
$GPGLL,3518.1059,N,13857.4610,E,014928.00,A,*27
$GPGSA,A,3,,,,,,,,,,,,,0.0,0.0,0.0*32
$GPRMC,014933.00,A,3518.0689,N,13857.4270,E,31.798287,216.818300,020818,,*03
$GPGGA,014933.00,3518.0689,N,13857.4270,E,1,00,0.0,479.065796,M,0.0,M,,*60
$GPGLL,3518.0689,N,13857.4270,E,014933.00,A,*25
$GPGSA,A,3,,,,,,,,,,,,,0.0,0.0,0.0*32
$GPRMC,014938.00,A,3518.0349,N,13857.3947,E,31.908552,217.790545,020818,,*08
$GPGGA,014938.00,3518.0349,N,13857.3947,E,1,00,0.0,480.243164,M,0.0,M,,*61
$GPGLL,3518.0349,N,13857.3947,E,014938.00,A,*2F
$GPGSA,A,3,,,,,,,,,,,,,0.0,0.0,0.0*32
$GPRMC,014943.00,A,3518.0002,N,13857.3596,E,33.563358,219.550585,020818,,*0B
$GPGGA,014943.00,3518.0002,N,13857.3596,E,1,00,0.0,481.872894,M,0.0,M,,*6E
$GPGLL,3518.0002,N,13857.3596,E,014943.00,A,*2F
$GPGSA,A,3,,,,,,,,,,,,,0.0,0.0,0.0*32
$GPRMC,014948.00,A,3517.9640,N,13857.3214,E,35.136950,220.776495,020818,,*07
$GPGGA,014948.00,3517.9640,N,13857.3214,E,1,00,0.0,483.220001,M,0.0,M,,*65
$GPGLL,3517.9640,N,13857.3214,E,014948.00,A,*2F
$GPGSA,A,3,,,,,,,,,,,,,0.0,0.0,0.0*32
$GPRMC,014953.00,A,3517.9272,N,13857.2807,E,36.011995,222.021125,020818,,*06
$GPGGA,014953.00,3517.9272,N,13857.2807,E,1,00,0.0,484.525787,M,0.0,M,,*6F
$GPGLL,3517.9272,N,13857.2807,E,014953.00,A,*29
$GPGSA,A,3,,,,,,,,,,,,,0.0,0.0,0.0*32
$GPRMC,014958.00,A,3517.8904,N,13857.2385,E,35.421067,223.133289,020818,,*01
$GPGGA,014958.00,3517.8904,N,13857.2385,E,1,00,0.0,485.659424,M,0.0,M,,*6D
$GPGLL,3517.8904,N,13857.2385,E,014958.00,A,*28
$GPGSA,A,3,,,,,,,,,,,,,0.0,0.0,0.0*32
$GPRMC,015003.00,A,3517.8547,N,13857.1977,E,34.689131,223.011673,020818,,*0B
$GPGGA,015003.00,3517.8547,N,13857.1977,E,1,00,0.0,486.621307,M,0.0,M,,*6E
$GPGLL,3517.8547,N,13857.1977,E,015003.00,A,*21
$GPGSA,A,3,,,,,,,,,,,,,0.0,0.0,0.0*32
$GPRMC,015008.00,A,3517.8199,N,13857.1571,E,33.781198,223.573606,020818,,*03
$GPGGA,015008.00,3517.8199,N,13857.1571,E,1,00,0.0,487.568420,M,0.0,M,,*65
$GPGLL,3517.8199,N,13857.1571,E,015008.00,A,*27
$GPGSA,A,3,,,,,,,,,,,,,0.0,0.0,0.0*32
$GPRMC,015013.00,A,3517.7903,N,13857.1165,E,29.494172,228.222959,020818,,*09
$GPGGA,015013.00,3517.7903,N,13857.1165,E,1,00,0.0,488.328217,M,0.0,M,,*65
$GPGLL,3517.7903,N,13857.1165,E,015013.00,A,*28
$GPGSA,A,3,,,,,,,,,,,,,0.0,0.0,0.0*32
$GPRMC,015018.00,A,3517.7659,N,13857.0827,E,23.159002,228.433693,020818,,*0B
$GPGGA,015018.00,3517.7659,N,13857.0827,E,1,00,0.0,487.599121,M,0.0,M,,*65
$GPGLL,3517.7659,N,13857.0827,E,015018.00,A,*2D
$GPGSA,A,3,,,,,,,,,,,,,0.0,0.0,0.0*32
$GPRMC,015023.00,A,3517.7427,N,13857.0631,E,18.723562,214.623451,020818,,*01
$GPGGA,015023.00,3517.7427,N,13857.0631,E,1,00,0.0,486.962341,M,0.0,M,,*62
$GPGLL,3517.7427,N,13857.0631,E,015023.00,A,*27
$GPGSA,A,3,,,,,,,,,,,,,0.0,0.0,0.0*32
$GPRMC,015028.00,A,3517.7199,N,13857.0641,E,15.836189,178.015731,020818,,*05
$GPGGA,015028.00,3517.7199,N,13857.0641,E,1,00,0.0,485.826843,M,0.0,M,,*65
$GPGLL,3517.7199,N,13857.0641,E,015028.00,A,*2B
$GPGSA,A,3,,,,,,,,,,,,,0.0,0.0,0.0*32
$GPRMC,015033.00,A,3517.7038,N,13857.0847,E,18.813481,133.541732,020818,,*02
$GPGGA,015033.00,3517.7038,N,13857.0847,E,1,00,0.0,484.681183,M,0.0,M,,*6A
$GPGLL,3517.7038,N,13857.0847,E,015033.00,A,*23
$GPGSA,A,3,,,,,,,,,,,,,0.0,0.0,0.0*32
$GPRMC,015038.00,A,3517.7088,N,13857.1167,E,20.919971,79.243622,020818,,*30
$GPGGA,015038.00,3517.7088,N,13857.1167,E,1,00,0.0,482.866821,M,0.0,M,,*60
$GPGLL,3517.7088,N,13857.1167,E,015038.00,A,*29
$GPGSA,A,3,,,,,,,,,,,,,0.0,0.0,0.0*32
$GPRMC,015043.00,A,3517.7263,N,13857.1409,E,13.457364,48.410256,020818,,*3A
$GPGGA,015043.00,3517.7263,N,13857.1409,E,1,00,0.0,481.452545,M,0.0,M,,*61
$GPGLL,3517.7263,N,13857.1409,E,015043.00,A,*2F
$GPGSA,A,3,,,,,,,,,,,,,0.0,0.0,0.0*32
$GPRMC,015048.00,A,3517.7402,N,13857.1617,E,15.290724,50.767935,020818,,*32
$GPGGA,015048.00,3517.7402,N,13857.1617,E,1,00,0.0,479.983032,M,0.0,M,,*65
$GPGLL,3517.7402,N,13857.1617,E,015048.00,A,*28
$GPGSA,A,3,,,,,,,,,,,,,0.0,0.0,0.0*32
$GPRMC,015053.00,A,3517.7479,N,13857.1714,E,1.596366,45.802467,020818,,*02
$GPGGA,015053.00,3517.7479,N,13857.1714,E,1,00,0.0,478.415741,M,0.0,M,,*61
$GPGLL,3517.7479,N,13857.1714,E,015053.00,A,*2C
$GPGSA,A,3,,,,,,,,,,,,,0.0,0.0,0.0*32
$GPRMC,015058.00,A,3517.7479,N,13857.1714,E,0.008024,18.854294,020818,,*0E
$GPGGA,015058.00,3517.7479,N,13857.1714,E,1,00,0.0,478.622803,M,0.0,M,,*65
$GPGLL,3517.7479,N,13857.1714,E,015058.00,A,*27
$GPGSA,A,3,,,,,,,,,,,,,0.0,0.0,0.0*32
$GPRMC,015103.00,A,3517.7479,N,13857.1715,E,0.031001,103.292336,020818,,*3F
$GPGGA,015103.00,3517.7479,N,13857.1715,E,1,00,0.0,478.647034,M,0.0,M,,*64
$GPGLL,3517.7479,N,13857.1715,E,015103.00,A,*29
$GPGSA,A,3,,,,,,,,,,,,,0.0,0.0,0.0*32
$GPRMC,015108.00,A,3517.7479,N,13857.1715,E,0.021809,315.826725,020818,,*33
$GPGGA,015108.00,3517.7479,N,13857.1715,E,1,00,0.0,478.690460,M,0.0,M,,*60
$GPGLL,3517.7479,N,13857.1715,E,015108.00,A,*22
$GPGSA,A,3,,,,,,,,,,,,,0.0,0.0,0.0*32
$GPRMC,015113.00,A,3517.7479,N,13857.1715,E,0.063762,21.550263,020818,,*02
$GPGGA,015113.00,3517.7479,N,13857.1715,E,1,00,0.0,478.711060,M,0.0,M,,*66
$GPGLL,3517.7479,N,13857.1715,E,015113.00,A,*28
$GPGSA,A,3,,,,,,,,,,,,,0.0,0.0,0.0*32
$GPRMC,015118.00,A,3517.7480,N,13857.1714,E,0.014371,333.014639,020818,,*36
$GPGGA,015118.00,3517.7480,N,13857.1714,E,1,00,0.0,478.746735,M,0.0,M,,*6F
$GPGLL,3517.7480,N,13857.1714,E,015118.00,A,*24
$GPGSA,A,3,,,,,,,,,,,,,0.0,0.0,0.0*32
$GPRMC,015123.00,A,3517.7480,N,13857.1714,E,0.008191,349.134620,020818,,*39
$GPGGA,015123.00,3517.7480,N,13857.1714,E,1,00,0.0,478.741791,M,0.0,M,,*6E
$GPGLL,3517.7480,N,13857.1714,E,015123.00,A,*2C
$GPGSA,A,3,,,,,,,,,,,,,0.0,0.0,0.0*32
$GPRMC,015128.00,A,3517.7480,N,13857.1714,E,0.025629,301.032192,020818,,*3C
$GPGGA,015128.00,3517.7480,N,13857.1714,E,1,00,0.0,478.737885,M,0.0,M,,*6E
$GPGLL,3517.7480,N,13857.1714,E,015128.00,A,*27
$GPGSA,A,3,,,,,,,,,,,,,0.0,0.0,0.0*32
$GPRMC,015133.00,A,3517.7480,N,13857.1714,E,0.016668,346.192393,020818,,*38
$GPGGA,015133.00,3517.7480,N,13857.1714,E,1,00,0.0,478.754059,M,0.0,M,,*68
$GPGLL,3517.7480,N,13857.1714,E,015133.00,A,*2D
$GPGSA,A,3,,,,,,,,,,,,,0.0,0.0,0.0*32
$GPRMC,015138.00,A,3517.7480,N,13857.1714,E,0.014816,330.781654,020818,,*3D
$GPGGA,015138.00,3517.7480,N,13857.1714,E,1,00,0.0,478.767639,M,0.0,M,,*63
$GPGLL,3517.7480,N,13857.1714,E,015138.00,A,*26
$GPGSA,A,3,,,,,,,,,,,,,0.0,0.0,0.0*32
$GPRMC,015143.00,A,3517.7480,N,13857.1714,E,0.001867,315.808045,020818,,*3C
$GPGGA,015143.00,3517.7480,N,13857.1714,E,1,00,0.0,478.786316,M,0.0,M,,*68
$GPGLL,3517.7480,N,13857.1714,E,015143.00,A,*2A
$GPGSA,A,3,,,,,,,,,,,,,0.0,0.0,0.0*32
$GPRMC,015148.00,A,3517.7480,N,13857.1714,E,0.014183,283.804329,020818,,*3B
$GPGGA,015148.00,3517.7480,N,13857.1714,E,1,00,0.0,478.799316,M,0.0,M,,*6D
$GPGLL,3517.7480,N,13857.1714,E,015148.00,A,*21
$GPGSA,A,3,,,,,,,,,,,,,0.0,0.0,0.0*32
$GPRMC,015153.00,A,3517.7480,N,13857.1714,E,0.023738,250.226405,020818,,*3E
$GPGGA,015153.00,3517.7480,N,13857.1714,E,1,00,0.0,478.815979,M,0.0,M,,*6F
$GPGLL,3517.7480,N,13857.1714,E,015153.00,A,*2B
$GPGSA,A,3,,,,,,,,,,,,,0.0,0.0,0.0*32
$GPRMC,015158.00,A,3517.7480,N,13857.1714,E,0.012382,245.735958,020818,,*34
$GPGGA,015158.00,3517.7480,N,13857.1714,E,1,00,0.0,478.825134,M,0.0,M,,*66
$GPGLL,3517.7480,N,13857.1714,E,015158.00,A,*20
$GPGSA,A,3,,,,,,,,,,,,,0.0,0.0,0.0*32
$GPRMC,015203.00,A,3517.7480,N,13857.1714,E,0.005322,320.551681,020818,,*3C
$GPGGA,015203.00,3517.7480,N,13857.1714,E,1,00,0.0,478.831909,M,0.0,M,,*68
$GPGLL,3517.7480,N,13857.1714,E,015203.00,A,*2D
$GPGSA,A,3,,,,,,,,,,,,,0.0,0.0,0.0*32
$GPRMC,015208.00,A,3517.7480,N,13857.1714,E,0.009342,217.794210,020818,,*3F
$GPGGA,015208.00,3517.7480,N,13857.1714,E,1,00,0.0,478.841919,M,0.0,M,,*65
$GPGLL,3517.7480,N,13857.1714,E,015208.00,A,*26
$GPGSA,A,3,,,,,,,,,,,,,0.0,0.0,0.0*32
$GPRMC,015213.00,A,3517.7480,N,13857.1714,E,0.015222,219.802427,020818,,*33
$GPGGA,015213.00,3517.7480,N,13857.1714,E,1,00,0.0,478.860565,M,0.0,M,,*6B
$GPGLL,3517.7480,N,13857.1714,E,015213.00,A,*2C
$GPGSA,A,3,,,,,,,,,,,,,0.0,0.0,0.0*32
$GPRMC,015218.00,A,3517.7487,N,13857.1722,E,4.268815,44.439422,020818,,*03
$GPGGA,015218.00,3517.7487,N,13857.1722,E,1,00,0.0,478.947815,M,0.0,M,,*6C
$GPGLL,3517.7487,N,13857.1722,E,015218.00,A,*25
$GPGSA,A,3,,,,,,,,,,,,,0.0,0.0,0.0*32
$GPRMC,015223.00,A,3517.7593,N,13857.1726,E,11.450912,1.764450,020818,,*0B
$GPGGA,015223.00,3517.7593,N,13857.1726,E,1,00,0.0,479.088104,M,0.0,M,,*66
$GPGLL,3517.7593,N,13857.1726,E,015223.00,A,*2D
$GPGSA,A,3,,,,,,,,,,,,,0.0,0.0,0.0*32
$GPRMC,015228.00,A,3517.7755,N,13857.1583,E,15.039578,324.159893,020818,,*05
$GPGGA,015228.00,3517.7755,N,13857.1583,E,1,00,0.0,478.616608,M,0.0,M,,*63
$GPGLL,3517.7755,N,13857.1583,E,015228.00,A,*23
$GPGSA,A,3,,,,,,,,,,,,,0.0,0.0,0.0*32
$GPRMC,015233.00,A,3517.7954,N,13857.1379,E,21.788496,320.053065,020818,,*06
$GPGGA,015233.00,3517.7954,N,13857.1379,E,1,00,0.0,478.452881,M,0.0,M,,*68
$GPGLL,3517.7954,N,13857.1379,E,015233.00,A,*25
$GPGSA,A,3,,,,,,,,,,,,,0.0,0.0,0.0*32
$GPRMC,015238.00,A,3517.8126,N,13857.1195,E,25.040200,318.910818,020818,,*06
$GPGGA,015238.00,3517.8126,N,13857.1195,E,1,00,0.0,480.192596,M,0.0,M,,*64
$GPGLL,3517.8126,N,13857.1195,E,015238.00,A,*2C
$GPGSA,A,3,,,,,,,,,,,,,0.0,0.0,0.0*32
$GPRMC,015243.00,A,3517.8467,N,13857.0839,E,29.125669,319.545106,020818,,*0A
$GPGGA,015243.00,3517.8467,N,13857.0839,E,1,00,0.0,478.937134,M,0.0,M,,*6A
$GPGLL,3517.8467,N,13857.0839,E,015243.00,A,*2E
$GPGSA,A,3,,,,,,,,,,,,,0.0,0.0,0.0*32
$GPRMC,015248.00,A,3517.8766,N,13857.0420,E,31.368968,311.152756,020818,,*02
$GPGGA,015248.00,3517.8766,N,13857.0420,E,1,00,0.0,477.402100,M,0.0,M,,*64
$GPGLL,3517.8766,N,13857.0420,E,015248.00,A,*23
$GPGSA,A,3,,,,,,,,,,,,,0.0,0.0,0.0*32
$GPRMC,015253.00,A,3517.9012,N,13856.9983,E,29.774971,304.662788,020818,,*0A
$GPGGA,015253.00,3517.9012,N,13856.9983,E,1,00,0.0,476.765137,M,0.0,M,,*60
$GPGLL,3517.9012,N,13856.9983,E,015253.00,A,*20
$GPGSA,A,3,,,,,,,,,,,,,0.0,0.0,0.0*32
$GPRMC,015258.00,A,3517.9257,N,13856.9558,E,30.920741,305.226066,020818,,*00
$GPGGA,015258.00,3517.9257,N,13856.9558,E,1,00,0.0,476.113892,M,0.0,M,,*63
$GPGLL,3517.9257,N,13856.9558,E,015258.00,A,*22
$GPGSA,A,3,,,,,,,,,,,,,0.0,0.0,0.0*32
$GPRMC,015303.00,A,3517.9536,N,13856.9130,E,32.219252,308.631087,020818,,*01
$GPGGA,015303.00,3517.9536,N,13856.9130,E,1,00,0.0,476.105804,M,0.0,M,,*6E
$GPGLL,3517.9536,N,13856.9130,E,015303.00,A,*27
$GPGSA,A,3,,,,,,,,,,,,,0.0,0.0,0.0*32
$GPRMC,015308.00,A,3517.9835,N,13856.8730,E,30.237781,312.387629,020818,,*07
$GPGGA,015308.00,3517.9835,N,13856.8730,E,1,00,0.0,476.498016,M,0.0,M,,*66
$GPGLL,3517.9835,N,13856.8730,E,015308.00,A,*25
$GPGSA,A,3,,,,,,,,,,,,,0.0,0.0,0.0*32
$GPRMC,015313.00,A,3518.0118,N,13856.8354,E,27.906469,312.763572,020818,,*02
$GPGGA,015313.00,3518.0118,N,13856.8354,E,1,00,0.0,477.633148,M,0.0,M,,*62
$GPGLL,3518.0118,N,13856.8354,E,015313.00,A,*29
$GPGSA,A,3,,,,,,,,,,,,,0.0,0.0,0.0*32
$GPRMC,015318.00,A,3518.0324,N,13856.8082,E,15.973861,312.835389,020818,,*05
$GPGGA,015318.00,3518.0324,N,13856.8082,E,1,00,0.0,478.375946,M,0.0,M,,*62
$GPGLL,3518.0324,N,13856.8082,E,015318.00,A,*27
$GPGSA,A,3,,,,,,,,,,,,,0.0,0.0,0.0*32
$GPRMC,015323.00,A,3518.0424,N,13856.7955,E,5.343142,313.940845,020818,,*3F
$GPGGA,015323.00,3518.0424,N,13856.7955,E,1,00,0.0,478.758484,M,0.0,M,,*69
$GPGLL,3518.0424,N,13856.7955,E,015323.00,A,*24
$GPGSA,A,3,,,,,,,,,,,,,0.0,0.0,0.0*32
$GPRMC,015328.00,A,3518.0434,N,13856.7946,E,0.009273,322.423871,020818,,*33
$GPGGA,015328.00,3518.0434,N,13856.7946,E,1,00,0.0,478.595490,M,0.0,M,,*67
$GPGLL,3518.0434,N,13856.7946,E,015328.00,A,*2C
$GPGSA,A,3,,,,,,,,,,,,,0.0,0.0,0.0*32
$GPRMC,015333.00,A,3518.0434,N,13856.7946,E,0.032050,129.567255,020818,,*36
$GPGGA,015333.00,3518.0434,N,13856.7946,E,1,00,0.0,478.581543,M,0.0,M,,*67
$GPGLL,3518.0434,N,13856.7946,E,015333.00,A,*26
$GPGSA,A,3,,,,,,,,,,,,,0.0,0.0,0.0*32
$GPRMC,015338.00,A,3518.0434,N,13856.7946,E,0.004811,122.430148,020818,,*32
$GPGGA,015338.00,3518.0434,N,13856.7946,E,1,00,0.0,478.592346,M,0.0,M,,*6D
$GPGLL,3518.0434,N,13856.7946,E,015338.00,A,*2D
$GPGSA,A,3,,,,,,,,,,,,,0.0,0.0,0.0*32
$GPRMC,015343.00,A,3518.0434,N,13856.7946,E,0.011787,51.601055,020818,,*02
$GPGGA,015343.00,3518.0434,N,13856.7946,E,1,00,0.0,478.602325,M,0.0,M,,*6E
$GPGLL,3518.0434,N,13856.7946,E,015343.00,A,*21
$GPGSA,A,3,,,,,,,,,,,,,0.0,0.0,0.0*32
$GPRMC,015348.00,A,3518.0434,N,13856.7946,E,0.020882,0.523854,020818,,*3F
$GPGGA,015348.00,3518.0434,N,13856.7946,E,1,00,0.0,478.597321,M,0.0,M,,*6E
$GPGLL,3518.0434,N,13856.7946,E,015348.00,A,*2A
$GPGSA,A,3,,,,,,,,,,,,,0.0,0.0,0.0*32
$GPRMC,015353.00,A,3518.0434,N,13856.7946,E,0.016424,135.528568,020818,,*3E
$GPGGA,015353.00,3518.0434,N,13856.7946,E,1,00,0.0,478.592590,M,0.0,M,,*6D
$GPGLL,3518.0434,N,13856.7946,E,015353.00,A,*20
$GPGSA,A,3,,,,,,,,,,,,,0.0,0.0,0.0*32
$GPRMC,015358.00,A,3518.0434,N,13856.7946,E,0.009091,342.347057,020818,,*35
$GPGGA,015358.00,3518.0434,N,13856.7946,E,1,00,0.0,478.617615,M,0.0,M,,*66
$GPGLL,3518.0434,N,13856.7946,E,015358.00,A,*2B
$GPGSA,A,3,,,,,,,,,,,,,0.0,0.0,0.0*32
$GPRMC,015403.00,A,3518.0434,N,13856.7946,E,0.013506,130.120663,020818,,*39
$GPGGA,015403.00,3518.0434,N,13856.7946,E,1,00,0.0,478.610931,M,0.0,M,,*61
$GPGLL,3518.0434,N,13856.7946,E,015403.00,A,*22
$GPGSA,A,3,,,,,,,,,,,,,0.0,0.0,0.0*32
$GPRMC,015408.00,A,3518.0434,N,13856.7946,E,0.004720,142.287509,020818,,*36
$GPGGA,015408.00,3518.0434,N,13856.7946,E,1,00,0.0,478.621704,M,0.0,M,,*60
$GPGLL,3518.0434,N,13856.7946,E,015408.00,A,*29
$GPGSA,A,3,,,,,,,,,,,,,0.0,0.0,0.0*32
$GPRMC,015413.00,A,3518.0433,N,13856.7946,E,0.006743,147.633976,020818,,*36
$GPGGA,015413.00,3518.0433,N,13856.7946,E,1,00,0.0,478.618561,M,0.0,M,,*66
$GPGLL,3518.0433,N,13856.7946,E,015413.00,A,*24
$GPGSA,A,3,,,,,,,,,,,,,0.0,0.0,0.0*32
$GPRMC,015418.00,A,3518.0433,N,13856.7947,E,0.048621,157.851310,020818,,*32
$GPGGA,015418.00,3518.0433,N,13856.7947,E,1,00,0.0,478.619171,M,0.0,M,,*68
$GPGLL,3518.0433,N,13856.7947,E,015418.00,A,*2E
$GPGSA,A,3,,,,,,,,,,,,,0.0,0.0,0.0*32
$GPRMC,015423.00,A,3518.0442,N,13856.7936,E,6.228495,313.576667,020818,,*3A
$GPGGA,015423.00,3518.0442,N,13856.7936,E,1,00,0.0,478.700470,M,0.0,M,,*6D
$GPGLL,3518.0442,N,13856.7936,E,015423.00,A,*26
$GPGSA,A,3,,,,,,,,,,,,,0.0,0.0,0.0*32
$GPRMC,015428.00,A,3518.0564,N,13856.7776,E,17.675764,312.999090,020818,,*0D
$GPGGA,015428.00,3518.0564,N,13856.7776,E,1,00,0.0,479.046356,M,0.0,M,,*6E
$GPGLL,3518.0564,N,13856.7776,E,015428.00,A,*22
$GPGSA,A,3,,,,,,,,,,,,,0.0,0.0,0.0*32
$GPRMC,015433.00,A,3518.0771,N,13856.7504,E,25.134336,313.048565,020818,,*0D
$GPGGA,015433.00,3518.0771,N,13856.7504,E,1,00,0.0,479.459259,M,0.0,M,,*61
$GPGLL,3518.0771,N,13856.7504,E,015433.00,A,*29
$GPGSA,A,3,,,,,,,,,,,,,0.0,0.0,0.0*32
$GPRMC,015438.00,A,3518.1034,N,13856.7160,E,28.911554,313.119768,020818,,*0D
$GPGGA,015438.00,3518.1034,N,13856.7160,E,1,00,0.0,480.514526,M,0.0,M,,*6A
$GPGLL,3518.1034,N,13856.7160,E,015438.00,A,*23
$GPGSA,A,3,,,,,,,,,,,,,0.0,0.0,0.0*32
$GPRMC,015443.00,A,3518.1310,N,13856.6798,E,29.425372,313.097111,020818,,*02
$GPGGA,015443.00,3518.1310,N,13856.6798,E,1,00,0.0,480.815338,M,0.0,M,,*66
$GPGLL,3518.1310,N,13856.6798,E,015443.00,A,*2A
$GPGSA,A,3,,,,,,,,,,,,,0.0,0.0,0.0*32
$GPRMC,015448.00,A,3518.1596,N,13856.6417,E,31.221344,312.590691,020818,,*07
$GPGGA,015448.00,3518.1596,N,13856.6417,E,1,00,0.0,481.383362,M,0.0,M,,*6B
$GPGLL,3518.1596,N,13856.6417,E,015448.00,A,*2D
$GPGSA,A,3,,,,,,,,,,,,,0.0,0.0,0.0*32
$GPRMC,015453.00,A,3518.1890,N,13856.6028,E,30.475565,312.809717,020818,,*0F
$GPGGA,015453.00,3518.1890,N,13856.6028,E,1,00,0.0,481.974396,M,0.0,M,,*6B
$GPGLL,3518.1890,N,13856.6028,E,015453.00,A,*24
$GPGSA,A,3,,,,,,,,,,,,,0.0,0.0,0.0*32
$GPRMC,015458.00,A,3518.2194,N,13856.5637,E,32.837081,313.592932,020818,,*01
$GPGGA,015458.00,3518.2194,N,13856.5637,E,1,00,0.0,482.436432,M,0.0,M,,*64
$GPGLL,3518.2194,N,13856.5637,E,015458.00,A,*2A
$GPGSA,A,3,,,,,,,,,,,,,0.0,0.0,0.0*32
$GPRMC,015503.00,A,3518.2512,N,13856.5218,E,34.034733,312.937022,020818,,*04
$GPGGA,015503.00,3518.2512,N,13856.5218,E,1,00,0.0,484.265015,M,0.0,M,,*6F
$GPGLL,3518.2512,N,13856.5218,E,015503.00,A,*26
$GPGSA,A,3,,,,,,,,,,,,,0.0,0.0,0.0*32
$GPRMC,015508.00,A,3518.2836,N,13856.4795,E,33.966213,313.161435,020818,,*03
$GPGGA,015508.00,3518.2836,N,13856.4795,E,1,00,0.0,487.758514,M,0.0,M,,*62
$GPGLL,3518.2836,N,13856.4795,E,015508.00,A,*27
$GPGSA,A,3,,,,,,,,,,,,,0.0,0.0,0.0*32
$GPRMC,015513.00,A,3518.3154,N,13856.4382,E,32.685537,313.388811,020818,,*0A
$GPGGA,015513.00,3518.3154,N,13856.4382,E,1,00,0.0,492.117828,M,0.0,M,,*6D
$GPGLL,3518.3154,N,13856.4382,E,015513.00,A,*23
$GPGSA,A,3,,,,,,,,,,,,,0.0,0.0,0.0*32
$GPRMC,015518.00,A,3518.3459,N,13856.3987,E,31.563491,313.383436,020818,,*06
$GPGGA,015518.00,3518.3459,N,13856.3987,E,1,00,0.0,496.403870,M,0.0,M,,*6F
$GPGLL,3518.3459,N,13856.3987,E,015518.00,A,*28
$GPGSA,A,3,,,,,,,,,,,,,0.0,0.0,0.0*32
$GPRMC,015523.00,A,3518.3746,N,13856.3615,E,28.987988,313.410082,020818,,*0A
$GPGGA,015523.00,3518.3746,N,13856.3615,E,1,00,0.0,497.965454,M,0.0,M,,*68
$GPGLL,3518.3746,N,13856.3615,E,015523.00,A,*29
$GPGSA,A,3,,,,,,,,,,,,,0.0,0.0,0.0*32
$GPRMC,015528.00,A,3518.4005,N,13856.3271,E,24.261015,312.657532,020818,,*0C
$GPGGA,015528.00,3518.4005,N,13856.3271,E,1,00,0.0,495.547302,M,0.0,M,,*68
$GPGLL,3518.4005,N,13856.3271,E,015528.00,A,*23
$GPGSA,A,3,,,,,,,,,,,,,0.0,0.0,0.0*32
$GPRMC,015533.00,A,3518.4191,N,13856.3024,E,16.027750,312.720776,020818,,*0C
$GPGGA,015533.00,3518.4191,N,13856.3024,E,1,00,0.0,492.743530,M,0.0,M,,*6A
$GPGLL,3518.4191,N,13856.3024,E,015533.00,A,*27
$GPGSA,A,3,,,,,,,,,,,,,0.0,0.0,0.0*32
$GPRMC,015538.00,A,3518.4322,N,13856.2849,E,11.409357,312.543564,020818,,*05
$GPGGA,015538.00,3518.4322,N,13856.2849,E,1,00,0.0,491.588562,M,0.0,M,,*68
$GPGLL,3518.4322,N,13856.2849,E,015538.00,A,*24
$GPGSA,A,3,,,,,,,,,,,,,0.0,0.0,0.0*32
$GPRMC,015543.00,A,3518.4399,N,13856.2753,E,3.812210,314.346178,020818,,*36
$GPGGA,015543.00,3518.4399,N,13856.2753,E,1,00,0.0,491.124084,M,0.0,M,,*6F
$GPGLL,3518.4399,N,13856.2753,E,015543.00,A,*2C
$GPGSA,A,3,,,,,,,,,,,,,0.0,0.0,0.0*32
$GPRMC,015548.00,A,3518.4406,N,13856.2751,E,0.016434,346.208058,020818,,*3E
$GPGGA,015548.00,3518.4406,N,13856.2751,E,1,00,0.0,490.936584,M,0.0,M,,*68
$GPGLL,3518.4406,N,13856.2751,E,015548.00,A,*24
$GPGSA,A,3,,,,,,,,,,,,,0.0,0.0,0.0*32
$GPRMC,015553.00,A,3518.4406,N,13856.2751,E,0.005391,98.044304,020818,,*0E
$GPGGA,015553.00,3518.4406,N,13856.2751,E,1,00,0.0,490.924469,M,0.0,M,,*63
$GPGLL,3518.4406,N,13856.2751,E,015553.00,A,*2E
$GPGSA,A,3,,,,,,,,,,,,,0.0,0.0,0.0*32
$GPRMC,015558.00,A,3518.4406,N,13856.2751,E,0.025461,81.162779,020818,,*0C
$GPGGA,015558.00,3518.4406,N,13856.2751,E,1,00,0.0,490.942535,M,0.0,M,,*60
$GPGLL,3518.4406,N,13856.2751,E,015558.00,A,*25
$GPGSA,A,3,,,,,,,,,,,,,0.0,0.0,0.0*32
$GPRMC,015603.00,A,3518.4406,N,13856.2751,E,0.010449,91.705980,020818,,*03
$GPGGA,015603.00,3518.4406,N,13856.2751,E,1,00,0.0,490.926910,M,0.0,M,,*64
$GPGLL,3518.4406,N,13856.2751,E,015603.00,A,*28
$GPGSA,A,3,,,,,,,,,,,,,0.0,0.0,0.0*32
$GPRMC,015608.00,A,3518.4406,N,13856.2751,E,0.012232,92.929206,020818,,*06
$GPGGA,015608.00,3518.4406,N,13856.2751,E,1,00,0.0,490.917114,M,0.0,M,,*61
$GPGLL,3518.4406,N,13856.2751,E,015608.00,A,*23
$GPGSA,A,3,,,,,,,,,,,,,0.0,0.0,0.0*32
$GPRMC,015613.00,A,3518.4408,N,13856.2750,E,2.211891,313.315987,020818,,*3E
$GPGGA,015613.00,3518.4408,N,13856.2750,E,1,00,0.0,490.935364,M,0.0,M,,*61
$GPGLL,3518.4408,N,13856.2750,E,015613.00,A,*26
$GPGSA,A,3,,,,,,,,,,,,,0.0,0.0,0.0*32
$GPRMC,015618.00,A,3518.4501,N,13856.2630,E,15.295564,313.752680,020818,,*08
$GPGGA,015618.00,3518.4501,N,13856.2630,E,1,00,0.0,491.408356,M,0.0,M,,*66
$GPGLL,3518.4501,N,13856.2630,E,015618.00,A,*22
$GPGSA,A,3,,,,,,,,,,,,,0.0,0.0,0.0*32
$GPRMC,015623.00,A,3518.4679,N,13856.2395,E,21.452055,312.873651,020818,,*0A
$GPGGA,015623.00,3518.4679,N,13856.2395,E,1,00,0.0,491.970642,M,0.0,M,,*6A
$GPGLL,3518.4679,N,13856.2395,E,015623.00,A,*2C
$GPGSA,A,3,,,,,,,,,,,,,0.0,0.0,0.0*32
$GPRMC,015628.00,A,3518.4872,N,13856.2134,E,19.658797,312.149914,020818,,*09
$GPGGA,015628.00,3518.4872,N,13856.2134,E,1,00,0.0,492.908600,M,0.0,M,,*67
$GPGLL,3518.4872,N,13856.2134,E,015628.00,A,*2B
$GPGSA,A,3,,,,,,,,,,,,,0.0,0.0,0.0*32
$GPRMC,015633.00,A,3518.5057,N,13856.1889,E,20.882961,312.775341,020818,,*06
$GPGGA,015633.00,3518.5057,N,13856.1889,E,1,00,0.0,493.999115,M,0.0,M,,*65
$GPGLL,3518.5057,N,13856.1889,E,015633.00,A,*23
$GPGSA,A,3,,,,,,,,,,,,,0.0,0.0,0.0*32
$GPRMC,015638.00,A,3518.5274,N,13856.1605,E,24.373687,313.020282,020818,,*0A
$GPGGA,015638.00,3518.5274,N,13856.1605,E,1,00,0.0,494.894806,M,0.0,M,,*67
$GPGLL,3518.5274,N,13856.1605,E,015638.00,A,*21
$GPGSA,A,3,,,,,,,,,,,,,0.0,0.0,0.0*32
$GPRMC,015643.00,A,3518.5521,N,13856.1278,E,27.957824,312.894006,020818,,*0F
$GPGGA,015643.00,3518.5521,N,13856.1278,E,1,00,0.0,495.857635,M,0.0,M,,*62
$GPGLL,3518.5521,N,13856.1278,E,015643.00,A,*24
$GPGSA,A,3,,,,,,,,,,,,,0.0,0.0,0.0*32
$GPRMC,015648.00,A,3518.5786,N,13856.0912,E,29.114692,311.561095,020818,,*01
$GPGGA,015648.00,3518.5786,N,13856.0912,E,1,00,0.0,497.066254,M,0.0,M,,*6B
$GPGLL,3518.5786,N,13856.0912,E,015648.00,A,*26
$GPGSA,A,3,,,,,,,,,,,,,0.0,0.0,0.0*32
$GPRMC,015653.00,A,3518.6045,N,13856.0515,E,30.610025,308.676782,020818,,*06
$GPGGA,015653.00,3518.6045,N,13856.0515,E,1,00,0.0,498.619202,M,0.0,M,,*63
$GPGLL,3518.6045,N,13856.0515,E,015653.00,A,*2C
$GPGSA,A,3,,,,,,,,,,,,,0.0,0.0,0.0*32
$GPRMC,015658.00,A,3518.6302,N,13856.0086,E,31.784505,306.247895,020818,,*09
$GPGGA,015658.00,3518.6302,N,13856.0086,E,1,00,0.0,500.639435,M,0.0,M,,*67
$GPGLL,3518.6302,N,13856.0086,E,015658.00,A,*28
$GPGSA,A,3,,,,,,,,,,,,,0.0,0.0,0.0*32
$GPRMC,015703.00,A,3518.6546,N,13855.9623,E,32.865341,302.866519,020818,,*02
$GPGGA,015703.00,3518.6546,N,13855.9623,E,1,00,0.0,502.643555,M,0.0,M,,*65
$GPGLL,3518.6546,N,13855.9623,E,015703.00,A,*22
$GPGSA,A,3,,,,,,,,,,,,,0.0,0.0,0.0*32
$GPRMC,015708.00,A,3518.6778,N,13855.9123,E,33.792957,299.625786,020818,,*04
$GPGGA,015708.00,3518.6778,N,13855.9123,E,1,00,0.0,504.662018,M,0.0,M,,*6F
$GPGLL,3518.6778,N,13855.9123,E,015708.00,A,*21
$GPGSA,A,3,,,,,,,,,,,,,0.0,0.0,0.0*32
$GPRMC,015713.00,A,3518.6987,N,13855.8596,E,34.757544,295.911135,020818,,*01
$GPGGA,015713.00,3518.6987,N,13855.8596,E,1,00,0.0,506.752228,M,0.0,M,,*61
$GPGLL,3518.6987,N,13855.8596,E,015713.00,A,*2E
$GPGSA,A,3,,,,,,,,,,,,,0.0,0.0,0.0*32
$GPRMC,015718.00,A,3518.7174,N,13855.8058,E,33.422336,293.100614,020818,,*07
$GPGGA,015718.00,3518.7174,N,13855.8058,E,1,00,0.0,508.795135,M,0.0,M,,*62
$GPGLL,3518.7174,N,13855.8058,E,015718.00,A,*27
$GPGSA,A,3,,,,,,,,,,,,,0.0,0.0,0.0*32
$GPRMC,015723.00,A,3518.7347,N,13855.7553,E,29.348503,292.724706,020818,,*0F
$GPGGA,015723.00,3518.7347,N,13855.7553,E,1,00,0.0,510.967194,M,0.0,M,,*68
$GPGLL,3518.7347,N,13855.7553,E,015723.00,A,*2C
$GPGSA,A,3,,,,,,,,,,,,,0.0,0.0,0.0*32
$GPRMC,015728.00,A,3518.7495,N,13855.7158,E,21.960296,294.744673,020818,,*03
$GPGGA,015728.00,3518.7495,N,13855.7158,E,1,00,0.0,512.607788,M,0.0,M,,*64
$GPGLL,3518.7495,N,13855.7158,E,015728.00,A,*20
$GPGSA,A,3,,,,,,,,,,,,,0.0,0.0,0.0*32
$GPRMC,015733.00,A,3518.7579,N,13855.6917,E,9.455716,292.946781,020818,,*32
$GPGGA,015733.00,3518.7579,N,13855.6917,E,1,00,0.0,513.140259,M,0.0,M,,*63
$GPGLL,3518.7579,N,13855.6917,E,015733.00,A,*2B
$GPGSA,A,3,,,,,,,,,,,,,0.0,0.0,0.0*32
$GPRMC,015738.00,A,3518.7585,N,13855.6862,E,0.020651,277.816345,020818,,*37
$GPGGA,015738.00,3518.7585,N,13855.6862,E,1,00,0.0,513.678284,M,0.0,M,,*64
$GPGLL,3518.7585,N,13855.6862,E,015738.00,A,*20
$GPGSA,A,3,,,,,,,,,,,,,0.0,0.0,0.0*32
$GPRMC,015743.00,A,3518.7584,N,13855.6863,E,0.019908,109.699562,020818,,*32
$GPGGA,015743.00,3518.7584,N,13855.6863,E,1,00,0.0,513.798096,M,0.0,M,,*66
$GPGLL,3518.7584,N,13855.6863,E,015743.00,A,*2C
$GPGSA,A,3,,,,,,,,,,,,,0.0,0.0,0.0*32
$GPRMC,015748.00,A,3518.7584,N,13855.6863,E,0.014475,257.522080,020818,,*31
$GPGGA,015748.00,3518.7584,N,13855.6863,E,1,00,0.0,513.817627,M,0.0,M,,*69
$GPGLL,3518.7584,N,13855.6863,E,015748.00,A,*27
$GPGSA,A,3,,,,,,,,,,,,,0.0,0.0,0.0*32
$GPRMC,015753.00,A,3518.7584,N,13855.6863,E,0.009153,134.302735,020818,,*3D
$GPGGA,015753.00,3518.7584,N,13855.6863,E,1,00,0.0,513.813171,M,0.0,M,,*63
$GPGLL,3518.7584,N,13855.6863,E,015753.00,A,*2D
$GPGSA,A,3,,,,,,,,,,,,,0.0,0.0,0.0*32
$GPRMC,015758.00,A,3518.7584,N,13855.6863,E,0.018979,17.035597,020818,,*0B
$GPGGA,015758.00,3518.7584,N,13855.6863,E,1,00,0.0,513.823181,M,0.0,M,,*64
$GPGLL,3518.7584,N,13855.6863,E,015758.00,A,*26
$GPGSA,A,3,,,,,,,,,,,,,0.0,0.0,0.0*32
$GPRMC,015803.00,A,3518.7584,N,13855.6863,E,0.009579,89.039480,020818,,*0A
$GPGGA,015803.00,3518.7584,N,13855.6863,E,1,00,0.0,513.835266,M,0.0,M,,*68
$GPGLL,3518.7584,N,13855.6863,E,015803.00,A,*27
$GPGSA,A,3,,,,,,,,,,,,,0.0,0.0,0.0*32
$GPRMC,015808.00,A,3518.7584,N,13855.6864,E,0.011894,35.736607,020818,,*03
$GPGGA,015808.00,3518.7584,N,13855.6864,E,1,00,0.0,513.840332,M,0.0,M,,*66
$GPGLL,3518.7584,N,13855.6864,E,015808.00,A,*2B
$GPGSA,A,3,,,,,,,,,,,,,0.0,0.0,0.0*32
$GPRMC,015813.00,A,3518.7584,N,13855.6864,E,0.006983,53.726482,020818,,*06
$GPGGA,015813.00,3518.7584,N,13855.6864,E,1,00,0.0,513.850159,M,0.0,M,,*62
$GPGLL,3518.7584,N,13855.6864,E,015813.00,A,*21
$GPGSA,A,3,,,,,,,,,,,,,0.0,0.0,0.0*32
$GPRMC,015818.00,A,3518.7584,N,13855.6864,E,0.006582,100.694741,020818,,*33
$GPGGA,015818.00,3518.7584,N,13855.6864,E,1,00,0.0,513.866150,M,0.0,M,,*65
$GPGLL,3518.7584,N,13855.6864,E,015818.00,A,*2A
$GPGSA,A,3,,,,,,,,,,,,,0.0,0.0,0.0*32
$GPRMC,015823.00,A,3518.7584,N,13855.6864,E,0.020587,114.917195,020818,,*34
$GPGGA,015823.00,3518.7584,N,13855.6864,E,1,00,0.0,513.882568,M,0.0,M,,*68
$GPGLL,3518.7584,N,13855.6864,E,015823.00,A,*22
$GPGSA,A,3,,,,,,,,,,,,,0.0,0.0,0.0*32
$GPRMC,015828.00,A,3518.7584,N,13855.6864,E,0.011469,97.787934,020818,,*02
$GPGGA,015828.00,3518.7584,N,13855.6864,E,1,00,0.0,513.896301,M,0.0,M,,*6F
$GPGLL,3518.7584,N,13855.6864,E,015828.00,A,*29
$GPGSA,A,3,,,,,,,,,,,,,0.0,0.0,0.0*32
$GPRMC,015833.00,A,3518.7589,N,13855.6846,E,4.394085,288.547140,020818,,*30
$GPGGA,015833.00,3518.7589,N,13855.6846,E,1,00,0.0,514.120972,M,0.0,M,,*65
$GPGLL,3518.7589,N,13855.6846,E,015833.00,A,*2E
$GPGSA,A,3,,,,,,,,,,,,,0.0,0.0,0.0*32
$GPRMC,015838.00,A,3518.7623,N,13855.6750,E,6.124822,293.119952,020818,,*30
$GPGGA,015838.00,3518.7623,N,13855.6750,E,1,00,0.0,514.794617,M,0.0,M,,*60
$GPGLL,3518.7623,N,13855.6750,E,015838.00,A,*2E
$GPGSA,A,3,,,,,,,,,,,,,0.0,0.0,0.0*32
$GPRMC,015843.00,A,3518.7648,N,13855.6675,E,2.798033,292.049515,020818,,*30
$GPGGA,015843.00,3518.7648,N,13855.6675,E,1,00,0.0,515.080200,M,0.0,M,,*66
$GPGLL,3518.7648,N,13855.6675,E,015843.00,A,*29
$GPGSA,A,3,,,,,,,,,,,,,0.0,0.0,0.0*32
$GPRMC,015848.00,A,3518.7649,N,13855.6672,E,0.030185,298.730781,020818,,*3A
$GPGGA,015848.00,3518.7649,N,13855.6672,E,1,00,0.0,515.153442,M,0.0,M,,*64
$GPGLL,3518.7649,N,13855.6672,E,015848.00,A,*24
$GPGSA,A,3,,,,,,,,,,,,,0.0,0.0,0.0*32
$GPRMC,015853.00,A,3518.7649,N,13855.6672,E,0.038637,124.485527,020818,,*31
$GPGGA,015853.00,3518.7649,N,13855.6672,E,1,00,0.0,515.130005,M,0.0,M,,*6C
$GPGLL,3518.7649,N,13855.6672,E,015853.00,A,*2E
$GPGSA,A,3,,,,,,,,,,,,,0.0,0.0,0.0*32
$GPRMC,015858.00,A,3518.7649,N,13855.6671,E,0.034098,233.360366,020818,,*3C
$GPGGA,015858.00,3518.7649,N,13855.6671,E,1,00,0.0,515.117676,M,0.0,M,,*63
$GPGLL,3518.7649,N,13855.6671,E,015858.00,A,*26
$GPGSA,A,3,,,,,,,,,,,,,0.0,0.0,0.0*32
$GPRMC,015903.00,A,3518.7685,N,13855.6624,E,7.840392,312.940221,020818,,*3E
$GPGGA,015903.00,3518.7685,N,13855.6624,E,1,00,0.0,515.128479,M,0.0,M,,*6D
$GPGLL,3518.7685,N,13855.6624,E,015903.00,A,*29
$GPGSA,A,3,,,,,,,,,,,,,0.0,0.0,0.0*32
$GPRMC,015908.00,A,3518.7879,N,13855.6544,E,16.493876,341.432426,020818,,*01
$GPGGA,015908.00,3518.7879,N,13855.6544,E,1,00,0.0,515.517822,M,0.0,M,,*64
$GPGLL,3518.7879,N,13855.6544,E,015908.00,A,*2A
$GPGSA,A,3,,,,,,,,,,,,,0.0,0.0,0.0*32
$GPRMC,015913.00,A,3518.8131,N,13855.6680,E,21.213593,23.726666,020818,,*31
$GPGGA,015913.00,3518.8131,N,13855.6680,E,1,00,0.0,516.625061,M,0.0,M,,*61
$GPGLL,3518.8131,N,13855.6680,E,015913.00,A,*21
$GPGSA,A,3,,,,,,,,,,,,,0.0,0.0,0.0*32
$GPRMC,015918.00,A,3518.8414,N,13855.6857,E,23.595248,27.052339,020818,,*39
$GPGGA,015918.00,3518.8414,N,13855.6857,E,1,00,0.0,517.463623,M,0.0,M,,*6D
$GPGLL,3518.8414,N,13855.6857,E,015918.00,A,*2C
$GPGSA,A,3,,,,,,,,,,,,,0.0,0.0,0.0*32
$GPRMC,015923.00,A,3518.8716,N,13855.7022,E,22.576561,23.986168,020818,,*39
$GPGGA,015923.00,3518.8716,N,13855.7022,E,1,00,0.0,518.975708,M,0.0,M,,*62
$GPGLL,3518.8716,N,13855.7022,E,015923.00,A,*2E
$GPGSA,A,3,,,,,,,,,,,,,0.0,0.0,0.0*32
$GPRMC,015928.00,A,3518.8982,N,13855.7164,E,18.063764,23.463887,020818,,*33
$GPGGA,015928.00,3518.8982,N,13855.7164,E,1,00,0.0,519.230591,M,0.0,M,,*60
$GPGLL,3518.8982,N,13855.7164,E,015928.00,A,*25
$GPGSA,A,3,,,,,,,,,,,,,0.0,0.0,0.0*32
$GPRMC,015933.00,A,3518.9167,N,13855.7277,E,12.250244,26.628325,020818,,*3E
$GPGGA,015933.00,3518.9167,N,13855.7277,E,1,00,0.0,519.587158,M,0.0,M,,*63
$GPGLL,3518.9167,N,13855.7277,E,015933.00,A,*2C
$GPGSA,A,3,,,,,,,,,,,,,0.0,0.0,0.0*32
$GPRMC,015938.00,A,3518.9308,N,13855.7355,E,10.649746,24.184966,020818,,*38
$GPGGA,015938.00,3518.9308,N,13855.7355,E,1,00,0.0,519.727905,M,0.0,M,,*6A
$GPGLL,3518.9308,N,13855.7355,E,015938.00,A,*2D
$GPGSA,A,3,,,,,,,,,,,,,0.0,0.0,0.0*32
$GPRMC,015943.00,A,3518.9483,N,13855.7473,E,19.289083,28.693488,020818,,*3C
$GPGGA,015943.00,3518.9483,N,13855.7473,E,1,00,0.0,520.273254,M,0.0,M,,*60
$GPGLL,3518.9483,N,13855.7473,E,015943.00,A,*26
$GPGSA,A,3,,,,,,,,,,,,,0.0,0.0,0.0*32
$GPRMC,015948.00,A,3518.9789,N,13855.7619,E,26.541071,21.378568,020818,,*34
$GPGGA,015948.00,3518.9789,N,13855.7619,E,1,00,0.0,520.156372,M,0.0,M,,*6D
$GPGLL,3518.9789,N,13855.7619,E,015948.00,A,*2A
$GPGSA,A,3,,,,,,,,,,,,,0.0,0.0,0.0*32
$GPRMC,015953.00,A,3519.0168,N,13855.7788,E,30.696698,20.030018,020818,,*35
$GPGGA,015953.00,3519.0168,N,13855.7788,E,1,00,0.0,519.833069,M,0.0,M,,*66
$GPGLL,3519.0168,N,13855.7788,E,015953.00,A,*28
$GPGSA,A,3,,,,,,,,,,,,,0.0,0.0,0.0*32
$GPRMC,015958.00,A,3519.0598,N,13855.7945,E,33.524624,16.548938,020818,,*30
$GPGGA,015958.00,3519.0598,N,13855.7945,E,1,00,0.0,519.709167,M,0.0,M,,*60
$GPGLL,3519.0598,N,13855.7945,E,015958.00,A,*27
$GPGSA,A,3,,,,,,,,,,,,,0.0,0.0,0.0*32
$GPRMC,020003.00,A,3519.1069,N,13855.8077,E,35.644165,12.875642,020818,,*38
$GPGGA,020003.00,3519.1069,N,13855.8077,E,1,00,0.0,519.183350,M,0.0,M,,*6E
$GPGLL,3519.1069,N,13855.8077,E,020003.00,A,*2B
$GPGSA,A,3,,,,,,,,,,,,,0.0,0.0,0.0*32
$GPRMC,020008.00,A,3519.1576,N,13855.8198,E,37.882453,11.000788,020818,,*30
$GPGGA,020008.00,3519.1576,N,13855.8198,E,1,00,0.0,518.785278,M,0.0,M,,*64
$GPGLL,3519.1576,N,13855.8198,E,020008.00,A,*2B
$GPGSA,A,3,,,,,,,,,,,,,0.0,0.0,0.0*32
$GPRMC,020013.00,A,3519.2105,N,13855.8326,E,38.375640,11.172229,020818,,*38
$GPGGA,020013.00,3519.2105,N,13855.8326,E,1,00,0.0,518.588989,M,0.0,M,,*60
$GPGLL,3519.2105,N,13855.8326,E,020013.00,A,*25
$GPGSA,A,3,,,,,,,,,,,,,0.0,0.0,0.0*32
$GPRMC,020018.00,A,3519.2638,N,13855.8461,E,39.767251,11.719403,020818,,*39
$GPGGA,020018.00,3519.2638,N,13855.8461,E,1,00,0.0,518.242493,M,0.0,M,,*61
$GPGLL,3519.2638,N,13855.8461,E,020018.00,A,*23
$GPGSA,A,3,,,,,,,,,,,,,0.0,0.0,0.0*32
$GPRMC,020023.00,A,3519.3183,N,13855.8596,E,40.577487,11.401093,020818,,*39
$GPGGA,020023.00,3519.3183,N,13855.8596,E,1,00,0.0,517.069092,M,0.0,M,,*67
$GPGLL,3519.3183,N,13855.8596,E,020023.00,A,*24
$GPGSA,A,3,,,,,,,,,,,,,0.0,0.0,0.0*32
$GPRMC,020028.00,A,3519.3743,N,13855.8734,E,41.210315,11.339250,020818,,*38
$GPGGA,020028.00,3519.3743,N,13855.8734,E,1,00,0.0,515.041382,M,0.0,M,,*66
$GPGLL,3519.3743,N,13855.8734,E,020028.00,A,*2F
$GPGSA,A,3,,,,,,,,,,,,,0.0,0.0,0.0*32
$GPRMC,020033.00,A,3519.4310,N,13855.8876,E,41.789613,11.543170,020818,,*32
$GPGGA,020033.00,3519.4310,N,13855.8876,E,1,00,0.0,512.750854,M,0.0,M,,*60
$GPGLL,3519.4310,N,13855.8876,E,020033.00,A,*29
$GPGSA,A,3,,,,,,,,,,,,,0.0,0.0,0.0*32
$GPRMC,020038.00,A,3519.4868,N,13855.9017,E,40.950338,11.718345,020818,,*3C
$GPGGA,020038.00,3519.4868,N,13855.9017,E,1,00,0.0,513.413940,M,0.0,M,,*60
$GPGLL,3519.4868,N,13855.9017,E,020038.00,A,*28
$GPGSA,A,3,,,,,,,,,,,,,0.0,0.0,0.0*32
$GPRMC,020043.00,A,3519.5404,N,13855.9117,E,35.944455,8.610594,020818,,*06
$GPGGA,020043.00,3519.5404,N,13855.9117,E,1,00,0.0,514.507507,M,0.0,M,,*66
$GPGLL,3519.5404,N,13855.9117,E,020043.00,A,*22
$GPGSA,A,3,,,,,,,,,,,,,0.0,0.0,0.0*32
$GPRMC,020048.00,A,3519.5881,N,13855.9102,E,33.322176,358.564628,020818,,*02
$GPGGA,020048.00,3519.5881,N,13855.9102,E,1,00,0.0,515.450867,M,0.0,M,,*61
$GPGLL,3519.5881,N,13855.9102,E,020048.00,A,*2C
$GPGSA,A,3,,,,,,,,,,,,,0.0,0.0,0.0*32
$GPRMC,020053.00,A,3519.6359,N,13855.9026,E,35.565098,352.628217,020818,,*09
$GPGGA,020053.00,3519.6359,N,13855.9026,E,1,00,0.0,515.498962,M,0.0,M,,*61
$GPGLL,3519.6359,N,13855.9026,E,020053.00,A,*2C
$GPGSA,A,3,,,,,,,,,,,,,0.0,0.0,0.0*32
$GPRMC,020058.00,A,3519.6870,N,13855.8973,E,37.831589,355.148072,020818,,*06
$GPGGA,020058.00,3519.6870,N,13855.8973,E,1,00,0.0,514.793213,M,0.0,M,,*66
$GPGLL,3519.6870,N,13855.8973,E,020058.00,A,*2F
$GPGSA,A,3,,,,,,,,,,,,,0.0,0.0,0.0*32
$GPRMC,020103.00,A,3519.7392,N,13855.9103,E,38.517015,11.463160,020818,,*3A
$GPGGA,020103.00,3519.7392,N,13855.9103,E,1,00,0.0,513.527832,M,0.0,M,,*62
$GPGLL,3519.7392,N,13855.9103,E,020103.00,A,*28
$GPGSA,A,3,,,,,,,,,,,,,0.0,0.0,0.0*32
$GPRMC,020108.00,A,3519.7873,N,13855.9334,E,34.559188,21.409835,020818,,*36
$GPGGA,020108.00,3519.7873,N,13855.9334,E,1,00,0.0,512.462280,M,0.0,M,,*69
$GPGLL,3519.7873,N,13855.9334,E,020108.00,A,*21
$GPGSA,A,3,,,,,,,,,,,,,0.0,0.0,0.0*32
$GPRMC,020113.00,A,3519.8256,N,13855.9520,E,24.211041,21.661539,020818,,*3E
