$GPRMC,050811.00,A,3525.4154,N,13850.9758,E,0.044007,0.000000,020818,,*33
$GPGGA,050811.00,3525.4154,N,13850.9758,E,1,00,0.0,997.369629,M,0.0,M,,*6E
$GPGLL,3525.4154,N,13850.9758,E,050811.00,A,*2C
$GPGSA,A,3,,,,,,,,,,,,,0.0,0.0,0.0*32
$GPRMC,050816.00,A,3525.4133,N,13850.9792,E,0.005273,126.207231,020818,,*37
$GPGGA,050816.00,3525.4133,N,13850.9792,E,1,00,0.0,1007.534546,M,0.0,M,,*5B
$GPGLL,3525.4133,N,13850.9792,E,050816.00,A,*2C
$GPGSA,A,3,,,,,,,,,,,,,0.0,0.0,0.0*32
$GPRMC,050821.00,A,3525.4119,N,13850.9823,E,0.014544,119.779246,020818,,*3D
$GPGGA,050821.00,3525.4119,N,13850.9823,E,1,00,0.0,1015.479309,M,0.0,M,,*54
$GPGLL,3525.4119,N,13850.9823,E,050821.00,A,*25
$GPGSA,A,3,,,,,,,,,,,,,0.0,0.0,0.0*32
$GPRMC,050826.00,A,3525.4124,N,13850.9820,E,0.835838,335.666384,020818,,*36
$GPGGA,050826.00,3525.4124,N,13850.9820,E,1,00,0.0,1013.032593,M,0.0,M,,*56
$GPGLL,3525.4124,N,13850.9820,E,050826.00,A,*2F
$GPGSA,A,3,,,,,,,,,,,,,0.0,0.0,0.0*32
$GPRMC,050831.00,A,3525.4121,N,13850.9846,E,0.015246,98.464443,020818,,*04
$GPGGA,050831.00,3525.4121,N,13850.9846,E,1,00,0.0,1015.051514,M,0.0,M,,*59
$GPGLL,3525.4121,N,13850.9846,E,050831.00,A,*2C
$GPGSA,A,3,,,,,,,,,,,,,0.0,0.0,0.0*32
$GPRMC,050836.00,A,3525.4097,N,13850.9868,E,0.015362,143.152472,020818,,*31
$GPGGA,050836.00,3525.4097,N,13850.9868,E,1,00,0.0,1020.268738,M,0.0,M,,*5C
$GPGLL,3525.4097,N,13850.9868,E,050836.00,A,*2B
$GPGSA,A,3,,,,,,,,,,,,,0.0,0.0,0.0*32
$GPRMC,050841.00,A,3525.4088,N,13850.9874,E,0.017048,151.676644,020818,,*3E
$GPGGA,050841.00,3525.4088,N,13850.9874,E,1,00,0.0,1023.357117,M,0.0,M,,*5A
$GPGLL,3525.4088,N,13850.9874,E,050841.00,A,*28
$GPGSA,A,3,,,,,,,,,,,,,0.0,0.0,0.0*32
$GPRMC,050846.00,A,3525.4085,N,13850.9870,E,1.034389,221.679700,020818,,*34
$GPGGA,050846.00,3525.4085,N,13850.9870,E,1,00,0.0,1024.921387,M,0.0,M,,*53
$GPGLL,3525.4085,N,13850.9870,E,050846.00,A,*26
$GPGSA,A,3,,,,,,,,,,,,,0.0,0.0,0.0*32
$GPRMC,050851.00,A,3525.4079,N,13850.9848,E,1.267465,251.679271,020818,,*3F
$GPGGA,050851.00,3525.4079,N,13850.9848,E,1,00,0.0,1026.421753,M,0.0,M,,*5F
$GPGLL,3525.4079,N,13850.9848,E,050851.00,A,*28
$GPGSA,A,3,,,,,,,,,,,,,0.0,0.0,0.0*32
$GPRMC,050856.00,A,3525.4079,N,13850.9841,E,0.006828,271.630912,020818,,*31
$GPGGA,050856.00,3525.4079,N,13850.9841,E,1,00,0.0,1026.722046,M,0.0,M,,*52
$GPGLL,3525.4079,N,13850.9841,E,050856.00,A,*26
$GPGSA,A,3,,,,,,,,,,,,,0.0,0.0,0.0*32
$GPRMC,050901.00,A,3525.4082,N,13850.9847,E,0.494659,56.297573,020818,,*02
$GPGGA,050901.00,3525.4082,N,13850.9847,E,1,00,0.0,1026.541504,M,0.0,M,,*57
$GPGLL,3525.4082,N,13850.9847,E,050901.00,A,*27
$GPGSA,A,3,,,,,,,,,,,,,0.0,0.0,0.0*32
$GPRMC,050906.00,A,3525.4051,N,13850.9861,E,3.269326,158.962286,020818,,*36
$GPGGA,050906.00,3525.4051,N,13850.9861,E,1,00,0.0,1026.711182,M,0.0,M,,*57
$GPGLL,3525.4051,N,13850.9861,E,050906.00,A,*2A
$GPGSA,A,3,,,,,,,,,,,,,0.0,0.0,0.0*32
$GPRMC,050911.00,A,3525.4032,N,13850.9855,E,0.007800,194.120420,020818,,*30
$GPGGA,050911.00,3525.4032,N,13850.9855,E,1,00,0.0,1027.087891,M,0.0,M,,*51
$GPGLL,3525.4032,N,13850.9855,E,050911.00,A,*2E
$GPGSA,A,3,,,,,,,,,,,,,0.0,0.0,0.0*32
$GPRMC,050916.00,A,3525.4029,N,13850.9847,E,0.024882,245.528254,020818,,*33
$GPGGA,050916.00,3525.4029,N,13850.9847,E,1,00,0.0,1027.138306,M,0.0,M,,*5F
$GPGLL,3525.4029,N,13850.9847,E,050916.00,A,*20
$GPGSA,A,3,,,,,,,,,,,,,0.0,0.0,0.0*32
$GPRMC,050921.00,A,3525.3963,N,13850.9888,E,11.933838,153.407876,020818,,*08
$GPGGA,050921.00,3525.3963,N,13850.9888,E,1,00,0.0,1028.019897,M,0.0,M,,*56
$GPGLL,3525.3963,N,13850.9888,E,050921.00,A,*27
$GPGSA,A,3,,,,,,,,,,,,,0.0,0.0,0.0*32
$GPRMC,050926.00,A,3525.3807,N,13851.0050,E,16.068824,139.655339,020818,,*0D
$GPGGA,050926.00,3525.3807,N,13851.0050,E,1,00,0.0,1028.680664,M,0.0,M,,*53
$GPGLL,3525.3807,N,13851.0050,E,050926.00,A,*26
$GPGSA,A,3,,,,,,,,,,,,,0.0,0.0,0.0*32
$GPRMC,050931.00,A,3525.3630,N,13851.0263,E,17.762954,135.502021,020818,,*0E
$GPGGA,050931.00,3525.3630,N,13851.0263,E,1,00,0.0,1029.263794,M,0.0,M,,*5B
$GPGLL,3525.3630,N,13851.0263,E,050931.00,A,*28
$GPGSA,A,3,,,,,,,,,,,,,0.0,0.0,0.0*32
$GPRMC,050936.00,A,3525.3443,N,13851.0484,E,19.677199,136.136728,020818,,*0C
$GPGGA,050936.00,3525.3443,N,13851.0484,E,1,00,0.0,1029.717285,M,0.0,M,,*56
$GPGLL,3525.3443,N,13851.0484,E,050936.00,A,*26
$GPGSA,A,3,,,,,,,,,,,,,0.0,0.0,0.0*32
$GPRMC,050941.00,A,3525.3228,N,13851.0739,E,23.091796,136.019010,020818,,*0C
$GPGGA,050941.00,3525.3228,N,13851.0739,E,1,00,0.0,1030.236328,M,0.0,M,,*50
$GPGLL,3525.3228,N,13851.0739,E,050941.00,A,*28
$GPGSA,A,3,,,,,,,,,,,,,0.0,0.0,0.0*32
$GPRMC,050946.00,A,3525.2985,N,13851.1019,E,24.103198,136.784204,020818,,*03
$GPGGA,050946.00,3525.2985,N,13851.1019,E,1,00,0.0,1029.903320,M,0.0,M,,*53
$GPGLL,3525.2985,N,13851.1019,E,050946.00,A,*26
$GPGSA,A,3,,,,,,,,,,,,,0.0,0.0,0.0*32
$GPRMC,050951.00,A,3525.2737,N,13851.1312,E,25.019895,136.072937,020818,,*00
$GPGGA,050951.00,3525.2737,N,13851.1312,E,1,00,0.0,1029.635132,M,0.0,M,,*51
$GPGLL,3525.2737,N,13851.1312,E,050951.00,A,*2F
$GPGSA,A,3,,,,,,,,,,,,,0.0,0.0,0.0*32
$GPRMC,050956.00,A,3525.2483,N,13851.1615,E,25.784249,135.768412,020818,,*04
$GPGGA,050956.00,3525.2483,N,13851.1615,E,1,00,0.0,1029.755127,M,0.0,M,,*5B
$GPGLL,3525.2483,N,13851.1615,E,050956.00,A,*26
$GPGSA,A,3,,,,,,,,,,,,,0.0,0.0,0.0*32
$GPRMC,051001.00,A,3525.2224,N,13851.1926,E,26.416556,135.705281,020818,,*0F
$GPGGA,051001.00,3525.2224,N,13851.1926,E,1,00,0.0,1029.769775,M,0.0,M,,*5B
$GPGLL,3525.2224,N,13851.1926,E,051001.00,A,*28
$GPGSA,A,3,,,,,,,,,,,,,0.0,0.0,0.0*32
$GPRMC,051006.00,A,3525.1956,N,13851.2246,E,26.842904,135.683688,020818,,*0F
$GPGGA,051006.00,3525.1956,N,13851.2246,E,1,00,0.0,1030.322266,M,0.0,M,,*5B
$GPGLL,3525.1956,N,13851.2246,E,051006.00,A,*2C
$GPGSA,A,3,,,,,,,,,,,,,0.0,0.0,0.0*32
$GPRMC,051011.00,A,3525.1683,N,13851.2567,E,27.015326,136.258677,020818,,*0A
$GPGGA,051011.00,3525.1683,N,13851.2567,E,1,00,0.0,1030.784546,M,0.0,M,,*53
$GPGLL,3525.1683,N,13851.2567,E,051011.00,A,*29
$GPGSA,A,3,,,,,,,,,,,,,0.0,0.0,0.0*32
$GPRMC,051016.00,A,3525.1412,N,13851.2880,E,26.886361,136.731888,020818,,*07
$GPGGA,051016.00,3525.1412,N,13851.2880,E,1,00,0.0,1030.871460,M,0.0,M,,*5A
$GPGLL,3525.1412,N,13851.2880,E,051016.00,A,*20
$GPGSA,A,3,,,,,,,,,,,,,0.0,0.0,0.0*32
$GPRMC,051021.00,A,3525.1127,N,13851.3180,E,27.479930,139.440252,020818,,*0C
$GPGGA,051021.00,3525.1127,N,13851.3180,E,1,00,0.0,1030.322144,M,0.0,M,,*5B
$GPGLL,3525.1127,N,13851.3180,E,051021.00,A,*2F
$GPGSA,A,3,,,,,,,,,,,,,0.0,0.0,0.0*32
$GPRMC,051026.00,A,3525.0842,N,13851.3479,E,26.798975,139.334687,020818,,*07
$GPGGA,051026.00,3525.0842,N,13851.3479,E,1,00,0.0,1030.093384,M,0.0,M,,*53
$GPGLL,3525.0842,N,13851.3479,E,051026.00,A,*20
$GPGSA,A,3,,,,,,,,,,,,,0.0,0.0,0.0*32
$GPRMC,051031.00,A,3525.0561,N,13851.3776,E,26.775041,139.273784,020818,,*0C
$GPGGA,051031.00,3525.0561,N,13851.3776,E,1,00,0.0,1030.128540,M,0.0,M,,*5A
$GPGLL,3525.0561,N,13851.3776,E,051031.00,A,*26
$GPGSA,A,3,,,,,,,,,,,,,0.0,0.0,0.0*32
$GPRMC,051036.00,A,3525.0280,N,13851.4077,E,26.824245,138.948722,020818,,*01
$GPGGA,051036.00,3525.0280,N,13851.4077,E,1,00,0.0,1030.058228,M,0.0,M,,*5B
$GPGLL,3525.0280,N,13851.4077,E,051036.00,A,*28
$GPGSA,A,3,,,,,,,,,,,,,0.0,0.0,0.0*32
$GPRMC,051041.00,A,3525.0003,N,13851.4367,E,25.631254,139.474168,020818,,*08
$GPGGA,051041.00,3525.0003,N,13851.4367,E,1,00,0.0,1031.012085,M,0.0,M,,*5A
$GPGLL,3525.0003,N,13851.4367,E,051041.00,A,*23
$GPGSA,A,3,,,,,,,,,,,,,0.0,0.0,0.0*32
$GPRMC,051046.00,A,3524.9737,N,13851.4642,E,25.566424,139.911408,020818,,*08
$GPGGA,051046.00,3524.9737,N,13851.4642,E,1,00,0.0,1031.564453,M,0.0,M,,*5C
$GPGLL,3524.9737,N,13851.4642,E,051046.00,A,*2E
$GPGSA,A,3,,,,,,,,,,,,,0.0,0.0,0.0*32
$GPRMC,051051.00,A,3524.9453,N,13851.4917,E,26.692531,141.771988,020818,,*0C
$GPGGA,051051.00,3524.9453,N,13851.4917,E,1,00,0.0,1030.863892,M,0.0,M,,*5E
$GPGLL,3524.9453,N,13851.4917,E,051051.00,A,*26
$GPGSA,A,3,,,,,,,,,,,,,0.0,0.0,0.0*32
$GPRMC,051056.00,A,3524.9158,N,13851.5199,E,27.266799,142.025702,020818,,*0D
$GPGGA,051056.00,3524.9158,N,13851.5199,E,1,00,0.0,1030.639893,M,0.0,M,,*58
$GPGLL,3524.9158,N,13851.5199,E,051056.00,A,*20
$GPGSA,A,3,,,,,,,,,,,,,0.0,0.0,0.0*32
$GPRMC,051101.00,A,3524.8868,N,13851.5476,E,25.960508,142.137729,020818,,*0F
$GPGGA,051101.00,3524.8868,N,13851.5476,E,1,00,0.0,1030.821777,M,0.0,M,,*56
$GPGLL,3524.8868,N,13851.5476,E,051101.00,A,*2C
$GPGSA,A,3,,,,,,,,,,,,,0.0,0.0,0.0*32
$GPRMC,051106.00,A,3524.8587,N,13851.5741,E,24.817545,142.396642,020818,,*0F
$GPGGA,051106.00,3524.8587,N,13851.5741,E,1,00,0.0,1031.334473,M,0.0,M,,*53
$GPGLL,3524.8587,N,13851.5741,E,051106.00,A,*20
$GPGSA,A,3,,,,,,,,,,,,,0.0,0.0,0.0*32
$GPRMC,051111.00,A,3524.8318,N,13851.6001,E,24.585850,141.862189,020818,,*05
$GPGGA,051111.00,3524.8318,N,13851.6001,E,1,00,0.0,1032.020264,M,0.0,M,,*50
$GPGLL,3524.8318,N,13851.6001,E,051111.00,A,*26
$GPGSA,A,3,,,,,,,,,,,,,0.0,0.0,0.0*32
$GPRMC,051116.00,A,3524.8045,N,13851.6258,E,25.552884,142.477236,020818,,*09
$GPGGA,051116.00,3524.8045,N,13851.6258,E,1,00,0.0,1032.316772,M,0.0,M,,*56
$GPGLL,3524.8045,N,13851.6258,E,051116.00,A,*24
$GPGSA,A,3,,,,,,,,,,,,,0.0,0.0,0.0*32
$GPRMC,051121.00,A,3524.7758,N,13851.6501,E,26.002771,145.355736,020818,,*01
$GPGGA,051121.00,3524.7758,N,13851.6501,E,1,00,0.0,1028.075684,M,0.0,M,,*58
$GPGLL,3524.7758,N,13851.6501,E,051121.00,A,*2F
$GPGSA,A,3,,,,,,,,,,,,,0.0,0.0,0.0*32
$GPRMC,051126.00,A,3524.7431,N,13851.6759,E,28.033508,147.317048,020818,,*0F
$GPGGA,051126.00,3524.7431,N,13851.6759,E,1,00,0.0,1028.135498,M,0.0,M,,*56
$GPGLL,3524.7431,N,13851.6759,E,051126.00,A,*2B
$GPGSA,A,3,,,,,,,,,,,,,0.0,0.0,0.0*32
$GPRMC,051131.00,A,3524.7099,N,13851.7023,E,27.964942,146.987051,020818,,*08
$GPGGA,051131.00,3524.7099,N,13851.7023,E,1,00,0.0,1029.719849,M,0.0,M,,*54
$GPGLL,3524.7099,N,13851.7023,E,051131.00,A,*20
$GPGSA,A,3,,,,,,,,,,,,,0.0,0.0,0.0*32
$GPRMC,051136.00,A,3524.6738,N,13851.7202,E,27.472803,158.055321,020818,,*00
$GPGGA,051136.00,3524.6738,N,13851.7202,E,1,00,0.0,1030.174316,M,0.0,M,,*5B
$GPGLL,3524.6738,N,13851.7202,E,051136.00,A,*2B
$GPGSA,A,3,,,,,,,,,,,,,0.0,0.0,0.0*32
$GPRMC,051141.00,A,3524.6377,N,13851.7307,E,25.642702,166.669183,020818,,*08
$GPGGA,051141.00,3524.6377,N,13851.7307,E,1,00,0.0,1030.464111,M,0.0,M,,*51
$GPGLL,3524.6377,N,13851.7307,E,051141.00,A,*20
$GPGSA,A,3,,,,,,,,,,,,,0.0,0.0,0.0*32
$GPRMC,051146.00,A,3524.6034,N,13851.7422,E,25.545528,164.711175,020818,,*00
$GPGGA,051146.00,3524.6034,N,13851.7422,E,1,00,0.0,1031.176147,M,0.0,M,,*56
$GPGLL,3524.6034,N,13851.7422,E,051146.00,A,*23
$GPGSA,A,3,,,,,,,,,,,,,0.0,0.0,0.0*32
$GPRMC,051151.00,A,3524.5741,N,13851.7658,E,25.269898,146.660537,020818,,*05
$GPGGA,051151.00,3524.5741,N,13851.7658,E,1,00,0.0,1032.138672,M,0.0,M,,*51
$GPGLL,3524.5741,N,13851.7658,E,051151.00,A,*2C
$GPGSA,A,3,,,,,,,,,,,,,0.0,0.0,0.0*32
$GPRMC,051156.00,A,3524.5567,N,13851.8034,E,25.443435,119.665880,020818,,*0C
$GPGGA,051156.00,3524.5567,N,13851.8034,E,1,00,0.0,1032.631714,M,0.0,M,,*5C
$GPGLL,3524.5567,N,13851.8034,E,051156.00,A,*2E
$GPGSA,A,3,,,,,,,,,,,,,0.0,0.0,0.0*32
$GPRMC,051201.00,A,3524.5449,N,13851.8465,E,26.970470,108.556559,020818,,*05
$GPGGA,051201.00,3524.5449,N,13851.8465,E,1,00,0.0,1032.816406,M,0.0,M,,*5B
$GPGLL,3524.5449,N,13851.8465,E,051201.00,A,*22
$GPGSA,A,3,,,,,,,,,,,,,0.0,0.0,0.0*32
$GPRMC,051206.00,A,3524.5324,N,13851.8914,E,27.861886,108.802106,020818,,*02
$GPGGA,051206.00,3524.5324,N,13851.8914,E,1,00,0.0,1033.060181,M,0.0,M,,*59
$GPGLL,3524.5324,N,13851.8914,E,051206.00,A,*22
$GPGSA,A,3,,,,,,,,,,,,,0.0,0.0,0.0*32
$GPRMC,051211.00,A,3524.5185,N,13851.9378,E,29.348110,110.170816,020818,,*09
$GPGGA,051211.00,3524.5185,N,13851.9378,E,1,00,0.0,1036.750854,M,0.0,M,,*57
$GPGLL,3524.5185,N,13851.9378,E,051211.00,A,*2C
$GPGSA,A,3,,,,,,,,,,,,,0.0,0.0,0.0*32
$GPRMC,051216.00,A,3524.5049,N,13851.9850,E,28.548234,109.514407,020818,,*0E
$GPGGA,051216.00,3524.5049,N,13851.9850,E,1,00,0.0,1037.595093,M,0.0,M,,*59
$GPGLL,3524.5049,N,13851.9850,E,051216.00,A,*2B
$GPGSA,A,3,,,,,,,,,,,,,0.0,0.0,0.0*32
$GPRMC,051221.00,A,3524.4933,N,13852.0321,E,28.297212,106.826427,020818,,*08
$GPGGA,051221.00,3524.4933,N,13852.0321,E,1,00,0.0,1038.538086,M,0.0,M,,*53
$GPGLL,3524.4933,N,13852.0321,E,051221.00,A,*2D
$GPGSA,A,3,,,,,,,,,,,,,0.0,0.0,0.0*32
$GPRMC,051226.00,A,3524.4839,N,13852.0792,E,28.321495,103.693353,020818,,*0C
$GPGGA,051226.00,3524.4839,N,13852.0792,E,1,00,0.0,1038.165161,M,0.0,M,,*57
$GPGLL,3524.4839,N,13852.0792,E,051226.00,A,*2D
$GPGSA,A,3,,,,,,,,,,,,,0.0,0.0,0.0*32
$GPRMC,051231.00,A,3524.4766,N,13852.1275,E,29.610514,100.551059,020818,,*0B
$GPGGA,051231.00,3524.4766,N,13852.1275,E,1,00,0.0,1038.755493,M,0.0,M,,*54
$GPGLL,3524.4766,N,13852.1275,E,051231.00,A,*23
$GPGSA,A,3,,,,,,,,,,,,,0.0,0.0,0.0*32
$GPRMC,051236.00,A,3524.4715,N,13852.1778,E,29.998590,97.032998,020818,,*38
$GPGGA,051236.00,3524.4715,N,13852.1778,E,1,00,0.0,1036.481934,M,0.0,M,,*5B
$GPGLL,3524.4715,N,13852.1778,E,051236.00,A,*28
$GPGSA,A,3,,,,,,,,,,,,,0.0,0.0,0.0*32
$GPRMC,051241.00,A,3524.4689,N,13852.2279,E,29.043136,93.701773,020818,,*34
$GPGGA,051241.00,3524.4689,N,13852.2279,E,1,00,0.0,1035.248535,M,0.0,M,,*55
$GPGLL,3524.4689,N,13852.2279,E,051241.00,A,*2B
$GPGSA,A,3,,,,,,,,,,,,,0.0,0.0,0.0*32
$GPRMC,051246.00,A,3524.4633,N,13852.2768,E,28.885038,97.965008,020818,,*38
$GPGGA,051246.00,3524.4633,N,13852.2768,E,1,00,0.0,1035.183716,M,0.0,M,,*51
$GPGLL,3524.4633,N,13852.2768,E,051246.00,A,*28
$GPGSA,A,3,,,,,,,,,,,,,0.0,0.0,0.0*32
$GPRMC,051251.00,A,3524.4500,N,13852.3238,E,28.877769,109.163310,020818,,*00
$GPGGA,051251.00,3524.4500,N,13852.3238,E,1,00,0.0,1035.504639,M,0.0,M,,*52
$GPGLL,3524.4500,N,13852.3238,E,051251.00,A,*2C
$GPGSA,A,3,,,,,,,,,,,,,0.0,0.0,0.0*32
$GPRMC,051256.00,A,3524.4379,N,13852.3698,E,28.071818,107.937990,020818,,*03
$GPGGA,051256.00,3524.4379,N,13852.3698,E,1,00,0.0,1037.901978,M,0.0,M,,*52
$GPGLL,3524.4379,N,13852.3698,E,051256.00,A,*2D
$GPGSA,A,3,,,,,,,,,,,,,0.0,0.0,0.0*32
$GPRMC,051301.00,A,3524.4324,N,13852.4159,E,26.812141,98.226372,020818,,*39
$GPGGA,051301.00,3524.4324,N,13852.4159,E,1,00,0.0,1038.415405,M,0.0,M,,*54
$GPGLL,3524.4324,N,13852.4159,E,051301.00,A,*2B
$GPGSA,A,3,,,,,,,,,,,,,0.0,0.0,0.0*32
$GPRMC,051306.00,A,3524.4370,N,13852.4603,E,25.676387,82.838859,020818,,*3C
$GPGGA,051306.00,3524.4370,N,13852.4603,E,1,00,0.0,1038.454834,M,0.0,M,,*51
$GPGLL,3524.4370,N,13852.4603,E,051306.00,A,*25
$GPGSA,A,3,,,,,,,,,,,,,0.0,0.0,0.0*32
$GPRMC,051311.00,A,3524.4444,N,13852.4992,E,19.896373,76.839419,020818,,*3B
$GPGGA,051311.00,3524.4444,N,13852.4992,E,1,00,0.0,1038.804810,M,0.0,M,,*5F
$GPGLL,3524.4444,N,13852.4992,E,051311.00,A,*24
$GPGSA,A,3,,,,,,,,,,,,,0.0,0.0,0.0*32
$GPRMC,051316.00,A,3524.4499,N,13852.5272,E,14.924353,76.533132,020818,,*34
$GPGGA,051316.00,3524.4499,N,13852.5272,E,1,00,0.0,1039.390137,M,0.0,M,,*57
$GPGLL,3524.4499,N,13852.5272,E,051316.00,A,*27
$GPGSA,A,3,,,,,,,,,,,,,0.0,0.0,0.0*32
$GPRMC,051321.00,A,3524.4544,N,13852.5526,E,16.050096,77.555399,020818,,*37
$GPGGA,051321.00,3524.4544,N,13852.5526,E,1,00,0.0,1039.540894,M,0.0,M,,*5F
$GPGLL,3524.4544,N,13852.5526,E,051321.00,A,*24
$GPGSA,A,3,,,,,,,,,,,,,0.0,0.0,0.0*32
$GPRMC,051326.00,A,3524.4585,N,13852.5782,E,15.689484,79.014085,020818,,*37
$GPGGA,051326.00,3524.4585,N,13852.5782,E,1,00,0.0,1039.282959,M,0.0,M,,*50
$GPGLL,3524.4585,N,13852.5782,E,051326.00,A,*22
$GPGSA,A,3,,,,,,,,,,,,,0.0,0.0,0.0*32
$GPRMC,051331.00,A,3524.4615,N,13852.6060,E,18.076693,82.390172,020818,,*3E
$GPGGA,051331.00,3524.4615,N,13852.6060,E,1,00,0.0,1038.713989,M,0.0,M,,*55
$GPGLL,3524.4615,N,13852.6060,E,051331.00,A,*26
$GPGSA,A,3,,,,,,,,,,,,,0.0,0.0,0.0*32
$GPRMC,051336.00,A,3524.4634,N,13852.6290,E,9.229933,84.113824,020818,,*0F
$GPGGA,051336.00,3524.4634,N,13852.6290,E,1,00,0.0,1038.053711,M,0.0,M,,*50
$GPGLL,3524.4634,N,13852.6290,E,051336.00,A,*2F
$GPGSA,A,3,,,,,,,,,,,,,0.0,0.0,0.0*32
$GPRMC,051341.00,A,3524.4638,N,13852.6461,E,13.632317,88.664231,020818,,*37
$GPGGA,051341.00,3524.4638,N,13852.6461,E,1,00,0.0,1037.955078,M,0.0,M,,*5C
$GPGLL,3524.4638,N,13852.6461,E,051341.00,A,*2B
$GPGSA,A,3,,,,,,,,,,,,,0.0,0.0,0.0*32
$GPRMC,051346.00,A,3524.4629,N,13852.6752,E,18.816975,92.126124,020818,,*33
$GPGGA,051346.00,3524.4629,N,13852.6752,E,1,00,0.0,1035.738647,M,0.0,M,,*55
$GPGLL,3524.4629,N,13852.6752,E,051346.00,A,*2F
$GPGSA,A,3,,,,,,,,,,,,,0.0,0.0,0.0*32
$GPRMC,051351.00,A,3524.4633,N,13852.7112,E,22.398203,89.080596,020818,,*39
$GPGGA,051351.00,3524.4633,N,13852.7112,E,1,00,0.0,1034.677368,M,0.0,M,,*58
$GPGLL,3524.4633,N,13852.7112,E,051351.00,A,*21
$GPGSA,A,3,,,,,,,,,,,,,0.0,0.0,0.0*32
$GPRMC,051356.00,A,3524.4648,N,13852.7506,E,23.671463,87.328450,020818,,*34
$GPGGA,051356.00,3524.4648,N,13852.7506,E,1,00,0.0,1033.376587,M,0.0,M,,*56
$GPGLL,3524.4648,N,13852.7506,E,051356.00,A,*2B
$GPGSA,A,3,,,,,,,,,,,,,0.0,0.0,0.0*32
$GPRMC,051401.00,A,3524.4679,N,13852.7905,E,23.490142,84.675020,020818,,*3A
$GPGGA,051401.00,3524.4679,N,13852.7905,E,1,00,0.0,1033.884399,M,0.0,M,,*51
$GPGLL,3524.4679,N,13852.7905,E,051401.00,A,*23
$GPGSA,A,3,,,,,,,,,,,,,0.0,0.0,0.0*32
$GPRMC,051406.00,A,3524.4717,N,13852.8262,E,20.193823,82.438746,020818,,*30
$GPGGA,051406.00,3524.4717,N,13852.8262,E,1,00,0.0,1034.644775,M,0.0,M,,*59
$GPGLL,3524.4717,N,13852.8262,E,051406.00,A,*28
$GPGSA,A,3,,,,,,,,,,,,,0.0,0.0,0.0*32
$GPRMC,051411.00,A,3524.4761,N,13852.8607,E,21.108477,81.207503,020818,,*34
$GPGGA,051411.00,3524.4761,N,13852.8607,E,1,00,0.0,1035.691162,M,0.0,M,,*50
$GPGLL,3524.4761,N,13852.8607,E,051411.00,A,*28
$GPGSA,A,3,,,,,,,,,,,,,0.0,0.0,0.0*32
$GPRMC,051416.00,A,3524.4810,N,13852.8976,E,22.625863,80.768986,020818,,*3D
$GPGGA,051416.00,3524.4810,N,13852.8976,E,1,00,0.0,1036.944336,M,0.0,M,,*50
$GPGLL,3524.4810,N,13852.8976,E,051416.00,A,*2F
$GPGSA,A,3,,,,,,,,,,,,,0.0,0.0,0.0*32
$GPRMC,051421.00,A,3524.4865,N,13852.9367,E,22.913766,80.212220,020818,,*3F
$GPGGA,051421.00,3524.4865,N,13852.9367,E,1,00,0.0,1038.252075,M,0.0,M,,*5B
$GPGLL,3524.4865,N,13852.9367,E,051421.00,A,*22
$GPGSA,A,3,,,,,,,,,,,,,0.0,0.0,0.0*32
$GPRMC,051426.00,A,3524.4934,N,13852.9778,E,24.855954,78.414731,020818,,*3F
$GPGGA,051426.00,3524.4934,N,13852.9778,E,1,00,0.0,1039.082153,M,0.0,M,,*58
$GPGLL,3524.4934,N,13852.9778,E,051426.00,A,*2A
$GPGSA,A,3,,,,,,,,,,,,,0.0,0.0,0.0*32
$GPRMC,051431.00,A,3524.5043,N,13853.0192,E,25.755128,71.980959,020818,,*3F
$GPGGA,051431.00,3524.5043,N,13853.0192,E,1,00,0.0,1038.566895,M,0.0,M,,*51
$GPGLL,3524.5043,N,13853.0192,E,051431.00,A,*2E
$GPGSA,A,3,,,,,,,,,,,,,0.0,0.0,0.0*32
$GPRMC,051436.00,A,3524.5186,N,13853.0597,E,26.340882,66.654361,020818,,*3A
$GPGGA,051436.00,3524.5186,N,13853.0597,E,1,00,0.0,1038.990601,M,0.0,M,,*59
$GPGLL,3524.5186,N,13853.0597,E,051436.00,A,*20
$GPGSA,A,3,,,,,,,,,,,,,0.0,0.0,0.0*32
$GPRMC,051441.00,A,3524.5373,N,13853.0990,E,26.679338,59.620150,020818,,*33
$GPGGA,051441.00,3524.5373,N,13853.0990,E,1,00,0.0,1039.483765,M,0.0,M,,*57
$GPGLL,3524.5373,N,13853.0990,E,051441.00,A,*23
$GPGSA,A,3,,,,,,,,,,,,,0.0,0.0,0.0*32
$GPRMC,051446.00,A,3524.5569,N,13853.1384,E,28.064617,58.715498,020818,,*3C
$GPGGA,051446.00,3524.5569,N,13853.1384,E,1,00,0.0,1038.916138,M,0.0,M,,*5D
$GPGLL,3524.5569,N,13853.1384,E,051446.00,A,*27
$GPGSA,A,3,,,,,,,,,,,,,0.0,0.0,0.0*32
$GPRMC,051451.00,A,3524.5774,N,13853.1794,E,27.892045,58.457060,020818,,*38
$GPGGA,051451.00,3524.5774,N,13853.1794,E,1,00,0.0,1037.880249,M,0.0,M,,*54
$GPGLL,3524.5774,N,13853.1794,E,051451.00,A,*2A
$GPGSA,A,3,,,,,,,,,,,,,0.0,0.0,0.0*32
$GPRMC,051456.00,A,3524.6047,N,13853.2120,E,27.035932,44.237678,020818,,*3F
$GPGGA,051456.00,3524.6047,N,13853.2120,E,1,00,0.0,1037.847534,M,0.0,M,,*5B
$GPGLL,3524.6047,N,13853.2120,E,051456.00,A,*23
$GPGSA,A,3,,,,,,,,,,,,,0.0,0.0,0.0*32
$GPRMC,051501.00,A,3524.6309,N,13853.2403,E,23.720852,41.290402,020818,,*36
$GPGGA,051501.00,3524.6309,N,13853.2403,E,1,00,0.0,1039.480469,M,0.0,M,,*55
$GPGLL,3524.6309,N,13853.2403,E,051501.00,A,*2D
$GPGSA,A,3,,,,,,,,,,,,,0.0,0.0,0.0*32
$GPRMC,051506.00,A,3524.6522,N,13853.2727,E,25.858286,51.186442,020818,,*3F
$GPGGA,051506.00,3524.6522,N,13853.2727,E,1,00,0.0,1039.109131,M,0.0,M,,*54
$GPGLL,3524.6522,N,13853.2727,E,051506.00,A,*20
$GPGSA,A,3,,,,,,,,,,,,,0.0,0.0,0.0*32
$GPRMC,051511.00,A,3524.6736,N,13853.3118,E,28.834133,56.010945,020818,,*3C
$GPGGA,051511.00,3524.6736,N,13853.3118,E,1,00,0.0,1037.593994,M,0.0,M,,*50
$GPGLL,3524.6736,N,13853.3118,E,051511.00,A,*2A
$GPGSA,A,3,,,,,,,,,,,,,0.0,0.0,0.0*32
$GPRMC,051516.00,A,3524.6956,N,13853.3534,E,29.192716,57.093852,020818,,*31
$GPGGA,051516.00,3524.6956,N,13853.3534,E,1,00,0.0,1035.442383,M,0.0,M,,*56
$GPGLL,3524.6956,N,13853.3534,E,051516.00,A,*2F
$GPGSA,A,3,,,,,,,,,,,,,0.0,0.0,0.0*32
$GPRMC,051521.00,A,3524.7189,N,13853.3945,E,29.695752,55.215111,020818,,*34
$GPGGA,051521.00,3524.7189,N,13853.3945,E,1,00,0.0,1033.383423,M,0.0,M,,*52
$GPGLL,3524.7189,N,13853.3945,E,051521.00,A,*2A
$GPGSA,A,3,,,,,,,,,,,,,0.0,0.0,0.0*32
$GPRMC,051526.00,A,3524.7420,N,13853.4369,E,29.310552,56.174176,020818,,*3A
$GPGGA,051526.00,3524.7420,N,13853.4369,E,1,00,0.0,1031.582520,M,0.0,M,,*57
$GPGLL,3524.7420,N,13853.4369,E,051526.00,A,*28
$GPGSA,A,3,,,,,,,,,,,,,0.0,0.0,0.0*32
$GPRMC,051531.00,A,3524.7651,N,13853.4797,E,30.020366,56.502811,020818,,*39
$GPGGA,051531.00,3524.7651,N,13853.4797,E,1,00,0.0,1029.012817,M,0.0,M,,*5C
$GPGLL,3524.7651,N,13853.4797,E,051531.00,A,*2F
$GPGSA,A,3,,,,,,,,,,,,,0.0,0.0,0.0*32
$GPRMC,051536.00,A,3524.7883,N,13853.5211,E,28.989254,55.452398,020818,,*3B
$GPGGA,051536.00,3524.7883,N,13853.5211,E,1,00,0.0,1028.722046,M,0.0,M,,*59
$GPGLL,3524.7883,N,13853.5211,E,051536.00,A,*23
$GPGSA,A,3,,,,,,,,,,,,,0.0,0.0,0.0*32
$GPRMC,051541.00,A,3524.8097,N,13853.5610,E,27.362881,56.586422,020818,,*33
$GPGGA,051541.00,3524.8097,N,13853.5610,E,1,00,0.0,1028.240234,M,0.0,M,,*58
$GPGLL,3524.8097,N,13853.5610,E,051541.00,A,*24
$GPGSA,A,3,,,,,,,,,,,,,0.0,0.0,0.0*32
$GPRMC,051546.00,A,3524.8244,N,13853.6030,E,26.851242,66.794752,020818,,*36
$GPGGA,051546.00,3524.8244,N,13853.6030,E,1,00,0.0,1029.107788,M,0.0,M,,*57
$GPGLL,3524.8244,N,13853.6030,E,051546.00,A,*28
$GPGSA,A,3,,,,,,,,,,,,,0.0,0.0,0.0*32
$GPRMC,051551.00,A,3524.8387,N,13853.6448,E,26.996374,67.227208,020818,,*3D
$GPGGA,051551.00,3524.8387,N,13853.6448,E,1,00,0.0,1028.586914,M,0.0,M,,*53
$GPGLL,3524.8387,N,13853.6448,E,051551.00,A,*2B
$GPGSA,A,3,,,,,,,,,,,,,0.0,0.0,0.0*32
$GPRMC,051556.00,A,3524.8532,N,13853.6865,E,26.574864,66.959351,020818,,*35
$GPGGA,051556.00,3524.8532,N,13853.6865,E,1,00,0.0,1028.219116,M,0.0,M,,*54
$GPGLL,3524.8532,N,13853.6865,E,051556.00,A,*27
$GPGSA,A,3,,,,,,,,,,,,,0.0,0.0,0.0*32
$GPRMC,051601.00,A,3524.8678,N,13853.7276,E,26.168496,66.384933,020818,,*3C
$GPGGA,051601.00,3524.8678,N,13853.7276,E,1,00,0.0,1028.302612,M,0.0,M,,*59
$GPGLL,3524.8678,N,13853.7276,E,051601.00,A,*22
$GPGSA,A,3,,,,,,,,,,,,,0.0,0.0,0.0*32
$GPRMC,051606.00,A,3524.8838,N,13853.7669,E,25.348987,63.545272,020818,,*35
$GPGGA,051606.00,3524.8838,N,13853.7669,E,1,00,0.0,1029.865479,M,0.0,M,,*5A
$GPGLL,3524.8838,N,13853.7669,E,051606.00,A,*25
$GPGSA,A,3,,,,,,,,,,,,,0.0,0.0,0.0*32
$GPRMC,051611.00,A,3524.9002,N,13853.8046,E,24.859019,61.835588,020818,,*39
$GPGGA,051611.00,3524.9002,N,13853.8046,E,1,00,0.0,1031.771973,M,0.0,M,,*5C
$GPGLL,3524.9002,N,13853.8046,E,051611.00,A,*27
$GPGSA,A,3,,,,,,,,,,,,,0.0,0.0,0.0*32
$GPRMC,051616.00,A,3524.9139,N,13853.8426,E,24.067636,66.172188,020818,,*32
$GPGGA,051616.00,3524.9139,N,13853.8426,E,1,00,0.0,1033.713379,M,0.0,M,,*56
$GPGLL,3524.9139,N,13853.8426,E,051616.00,A,*2B
$GPGSA,A,3,,,,,,,,,,,,,0.0,0.0,0.0*32
$GPRMC,051621.00,A,3524.9231,N,13853.8823,E,25.009697,74.190829,020818,,*3B
$GPGGA,051621.00,3524.9231,N,13853.8823,E,1,00,0.0,1036.086426,M,0.0,M,,*53
$GPGLL,3524.9231,N,13853.8823,E,051621.00,A,*2D
$GPGSA,A,3,,,,,,,,,,,,,0.0,0.0,0.0*32
$GPRMC,051626.00,A,3524.9332,N,13853.9244,E,26.802895,73.594430,020818,,*3B
$GPGGA,051626.00,3524.9332,N,13853.9244,E,1,00,0.0,1036.904053,M,0.0,M,,*59
$GPGLL,3524.9332,N,13853.9244,E,051626.00,A,*22
$GPGSA,A,3,,,,,,,,,,,,,0.0,0.0,0.0*32
$GPRMC,051631.00,A,3524.9448,N,13853.9671,E,27.386216,71.540243,020818,,*3B
$GPGGA,051631.00,3524.9448,N,13853.9671,E,1,00,0.0,1033.578735,M,0.0,M,,*52
$GPGLL,3524.9448,N,13853.9671,E,051631.00,A,*2C
$GPGSA,A,3,,,,,,,,,,,,,0.0,0.0,0.0*32
$GPRMC,051636.00,A,3524.9559,N,13854.0118,E,27.953519,72.990878,020818,,*31
$GPGGA,051636.00,3524.9559,N,13854.0118,E,1,00,0.0,1032.536133,M,0.0,M,,*59
$GPGLL,3524.9559,N,13854.0118,E,051636.00,A,*2C
$GPGSA,A,3,,,,,,,,,,,,,0.0,0.0,0.0*32
$GPRMC,051641.00,A,3524.9620,N,13854.0591,E,27.176670,81.009637,020818,,*3A
$GPGGA,051641.00,3524.9620,N,13854.0591,E,1,00,0.0,1030.445679,M,0.0,M,,*5F
$GPGLL,3524.9620,N,13854.0591,E,051641.00,A,*24
$GPGSA,A,3,,,,,,,,,,,,,0.0,0.0,0.0*32
$GPRMC,051646.00,A,3524.9747,N,13854.0986,E,24.938818,68.501423,020818,,*3B
$GPGGA,051646.00,3524.9747,N,13854.0986,E,1,00,0.0,1029.324219,M,0.0,M,,*58
$GPGLL,3524.9747,N,13854.0986,E,051646.00,A,*29
$GPGSA,A,3,,,,,,,,,,,,,0.0,0.0,0.0*32
$GPRMC,051651.00,A,3525.0003,N,13854.1299,E,26.391771,44.853501,020818,,*38
$GPGGA,051651.00,3525.0003,N,13854.1299,E,1,00,0.0,1028.619019,M,0.0,M,,*5D
$GPGLL,3525.0003,N,13854.1299,E,051651.00,A,*24
$GPGSA,A,3,,,,,,,,,,,,,0.0,0.0,0.0*32
$GPRMC,051656.00,A,3525.0268,N,13854.1619,E,25.860286,44.578229,020818,,*3E
$GPGGA,051656.00,3525.0268,N,13854.1619,E,1,00,0.0,1029.074951,M,0.0,M,,*50
$GPGLL,3525.0268,N,13854.1619,E,051656.00,A,*20
$GPGSA,A,3,,,,,,,,,,,,,0.0,0.0,0.0*32
$GPRMC,051701.00,A,3525.0517,N,13854.1908,E,24.351396,43.343385,020818,,*3B
$GPGGA,051701.00,3525.0517,N,13854.1908,E,1,00,0.0,1030.028687,M,0.0,M,,*56
$GPGLL,3525.0517,N,13854.1908,E,051701.00,A,*23
$GPGSA,A,3,,,,,,,,,,,,,0.0,0.0,0.0*32
$GPRMC,051706.00,A,3525.0854,N,13854.2006,E,25.908810,13.338685,020818,,*3C
$GPGGA,051706.00,3525.0854,N,13854.2006,E,1,00,0.0,1028.694336,M,0.0,M,,*58
$GPGLL,3525.0854,N,13854.2006,E,051706.00,A,*2A
$GPGSA,A,3,,,,,,,,,,,,,0.0,0.0,0.0*32
$GPRMC,051711.00,A,3525.1226,N,13854.2054,E,26.861176,6.027391,020818,,*0E
$GPGGA,051711.00,3525.1226,N,13854.2054,E,1,00,0.0,1027.919800,M,0.0,M,,*5C
$GPGLL,3525.1226,N,13854.2054,E,051711.00,A,*25
$GPGSA,A,3,,,,,,,,,,,,,0.0,0.0,0.0*32
$GPRMC,051716.00,A,3525.1601,N,13854.2105,E,26.672328,6.312251,020818,,*00
$GPGGA,051716.00,3525.1601,N,13854.2105,E,1,00,0.0,1027.786865,M,0.0,M,,*54
$GPGLL,3525.1601,N,13854.2105,E,051716.00,A,*26
$GPGSA,A,3,,,,,,,,,,,,,0.0,0.0,0.0*32
$GPRMC,051721.00,A,3525.1967,N,13854.2162,E,26.259999,7.227586,020818,,*0C
$GPGGA,051721.00,3525.1967,N,13854.2162,E,1,00,0.0,1028.210083,M,0.0,M,,*5B
$GPGLL,3525.1967,N,13854.2162,E,051721.00,A,*2C
$GPGSA,A,3,,,,,,,,,,,,,0.0,0.0,0.0*32
$GPRMC,051726.00,A,3525.2313,N,13854.2237,E,24.323770,9.981407,020818,,*04
$GPGGA,051726.00,3525.2313,N,13854.2237,E,1,00,0.0,1028.932617,M,0.0,M,,*55
$GPGLL,3525.2313,N,13854.2237,E,051726.00,A,*22
$GPGSA,A,3,,,,,,,,,,,,,0.0,0.0,0.0*32
$GPRMC,051731.00,A,3525.2633,N,13854.2289,E,21.720703,7.545956,020818,,*05
$GPGGA,051731.00,3525.2633,N,13854.2289,E,1,00,0.0,1028.924683,M,0.0,M,,*5B
$GPGLL,3525.2633,N,13854.2289,E,051731.00,A,*26
$GPGSA,A,3,,,,,,,,,,,,,0.0,0.0,0.0*32
$GPRMC,051736.00,A,3525.2926,N,13854.2337,E,22.438165,7.685523,020818,,*03
$GPGGA,051736.00,3525.2926,N,13854.2337,E,1,00,0.0,1029.199951,M,0.0,M,,*5C
$GPGLL,3525.2926,N,13854.2337,E,051736.00,A,*2E
$GPGSA,A,3,,,,,,,,,,,,,0.0,0.0,0.0*32
$GPRMC,051741.00,A,3525.3253,N,13854.2383,E,23.482974,6.552374,020818,,*00
$GPGGA,051741.00,3525.3253,N,13854.2383,E,1,00,0.0,1029.020508,M,0.0,M,,*58
$GPGLL,3525.3253,N,13854.2383,E,051741.00,A,*29
$GPGSA,A,3,,,,,,,,,,,,,0.0,0.0,0.0*32
$GPRMC,051746.00,A,3525.3584,N,13854.2438,E,24.507811,7.641557,020818,,*03
$GPGGA,051746.00,3525.3584,N,13854.2438,E,1,00,0.0,1029.463867,M,0.0,M,,*52
$GPGLL,3525.3584,N,13854.2438,E,051746.00,A,*24
$GPGSA,A,3,,,,,,,,,,,,,0.0,0.0,0.0*32
$GPRMC,051751.00,A,3525.3917,N,13854.2495,E,24.151749,7.930316,020818,,*0B
$GPGGA,051751.00,3525.3917,N,13854.2495,E,1,00,0.0,1030.021240,M,0.0,M,,*50
$GPGLL,3525.3917,N,13854.2495,E,051751.00,A,*23
$GPGSA,A,3,,,,,,,,,,,,,0.0,0.0,0.0*32
$GPRMC,051756.00,A,3525.4247,N,13854.2538,E,23.195464,6.083005,020818,,*01
$GPGGA,051756.00,3525.4247,N,13854.2538,E,1,00,0.0,1030.433716,M,0.0,M,,*59
$GPGLL,3525.4247,N,13854.2538,E,051756.00,A,*2B
$GPGSA,A,3,,,,,,,,,,,,,0.0,0.0,0.0*32
$GPRMC,051801.00,A,3525.4568,N,13854.2589,E,22.739602,7.353127,020818,,*01
$GPGGA,051801.00,3525.4568,N,13854.2589,E,1,00,0.0,1029.430420,M,0.0,M,,*59
$GPGLL,3525.4568,N,13854.2589,E,051801.00,A,*26
$GPGSA,A,3,,,,,,,,,,,,,0.0,0.0,0.0*32
$GPRMC,051806.00,A,3525.4892,N,13854.2647,E,24.011620,8.261299,020818,,*0D
$GPGGA,051806.00,3525.4892,N,13854.2647,E,1,00,0.0,1029.177368,M,0.0,M,,*5A
$GPGLL,3525.4892,N,13854.2647,E,051806.00,A,*28
$GPGSA,A,3,,,,,,,,,,,,,0.0,0.0,0.0*32
$GPRMC,051811.00,A,3525.5215,N,13854.2702,E,20.048051,7.999993,020818,,*05
$GPGGA,051811.00,3525.5215,N,13854.2702,E,1,00,0.0,1030.285400,M,0.0,M,,*57
$GPGLL,3525.5215,N,13854.2702,E,051811.00,A,*2A
$GPGSA,A,3,,,,,,,,,,,,,0.0,0.0,0.0*32
$GPRMC,051816.00,A,3525.5408,N,13854.2741,E,10.548984,9.333925,020818,,*01
$GPGGA,051816.00,3525.5408,N,13854.2741,E,1,00,0.0,1032.519653,M,0.0,M,,*59
$GPGLL,3525.5408,N,13854.2741,E,051816.00,A,*20
$GPGSA,A,3,,,,,,,,,,,,,0.0,0.0,0.0*32
$GPRMC,051821.00,A,3525.5527,N,13854.2726,E,7.183186,354.041356,020818,,*34
$GPGGA,051821.00,3525.5527,N,13854.2726,E,1,00,0.0,1033.511963,M,0.0,M,,*55
$GPGLL,3525.5527,N,13854.2726,E,051821.00,A,*29
$GPGSA,A,3,,,,,,,,,,,,,0.0,0.0,0.0*32
$GPRMC,051826.00,A,3525.5608,N,13854.2638,E,8.803478,318.211999,020818,,*3F
$GPGGA,051826.00,3525.5608,N,13854.2638,E,1,00,0.0,1034.450439,M,0.0,M,,*53
$GPGLL,3525.5608,N,13854.2638,E,051826.00,A,*2E
$GPGSA,A,3,,,,,,,,,,,,,0.0,0.0,0.0*32
$GPRMC,051831.00,A,3525.5688,N,13854.2522,E,7.959397,310.319306,020818,,*33
$GPGGA,051831.00,3525.5688,N,13854.2522,E,1,00,0.0,1035.090942,M,0.0,M,,*5D
$GPGLL,3525.5688,N,13854.2522,E,051831.00,A,*28
$GPGSA,A,3,,,,,,,,,,,,,0.0,0.0,0.0*32
$GPRMC,051836.00,A,3525.5729,N,13854.2422,E,5.343286,296.790754,020818,,*34
$GPGGA,051836.00,3525.5729,N,13854.2422,E,1,00,0.0,1035.221680,M,0.0,M,,*58
$GPGLL,3525.5729,N,13854.2422,E,051836.00,A,*24
$GPGSA,A,3,,,,,,,,,,,,,0.0,0.0,0.0*32
$GPRMC,051841.00,A,3525.5767,N,13854.2316,E,9.061814,293.787513,020818,,*32
$GPGGA,051841.00,3525.5767,N,13854.2316,E,1,00,0.0,1035.363159,M,0.0,M,,*56
$GPGLL,3525.5767,N,13854.2316,E,051841.00,A,*2E
$GPGSA,A,3,,,,,,,,,,,,,0.0,0.0,0.0*32
$GPRMC,051846.00,A,3525.5827,N,13854.2135,E,11.825996,292.016819,020818,,*0E
$GPGGA,051846.00,3525.5827,N,13854.2135,E,1,00,0.0,1035.382568,M,0.0,M,,*50
$GPGLL,3525.5827,N,13854.2135,E,051846.00,A,*21
$GPGSA,A,3,,,,,,,,,,,,,0.0,0.0,0.0*32
$GPRMC,051851.00,A,3525.5905,N,13854.1909,E,16.424120,293.079026,020818,,*0E
$GPGGA,051851.00,3525.5905,N,13854.1909,E,1,00,0.0,1035.556396,M,0.0,M,,*5B
$GPGLL,3525.5905,N,13854.1909,E,051851.00,A,*22
$GPGSA,A,3,,,,,,,,,,,,,0.0,0.0,0.0*32
$GPRMC,051856.00,A,3525.6015,N,13854.1639,E,18.219375,296.591985,020818,,*0C
$GPGGA,051856.00,3525.6015,N,13854.1639,E,1,00,0.0,1035.301270,M,0.0,M,,*56
$GPGLL,3525.6015,N,13854.1639,E,051856.00,A,*22
$GPGSA,A,3,,,,,,,,,,,,,0.0,0.0,0.0*32
$GPRMC,051901.00,A,3525.6150,N,13854.1396,E,16.964958,304.263796,020818,,*09
$GPGGA,051901.00,3525.6150,N,13854.1396,E,1,00,0.0,1034.444946,M,0.0,M,,*5C
$GPGLL,3525.6150,N,13854.1396,E,051901.00,A,*21
$GPGSA,A,3,,,,,,,,,,,,,0.0,0.0,0.0*32
$GPRMC,051906.00,A,3525.6293,N,13854.1145,E,18.831749,304.882515,020818,,*03
$GPGGA,051906.00,3525.6293,N,13854.1145,E,1,00,0.0,1032.959961,M,0.0,M,,*59
$GPGLL,3525.6293,N,13854.1145,E,051906.00,A,*26
$GPGSA,A,3,,,,,,,,,,,,,0.0,0.0,0.0*32
$GPRMC,051911.00,A,3525.6449,N,13854.0862,E,20.730956,304.127475,020818,,*0D
$GPGGA,051911.00,3525.6449,N,13854.0862,E,1,00,0.0,1031.584595,M,0.0,M,,*5B
$GPGLL,3525.6449,N,13854.0862,E,051911.00,A,*2C
$GPGSA,A,3,,,,,,,,,,,,,0.0,0.0,0.0*32
$GPRMC,051916.00,A,3525.6597,N,13854.0587,E,15.471199,303.440478,020818,,*0B
$GPGGA,051916.00,3525.6597,N,13854.0587,E,1,00,0.0,1031.748657,M,0.0,M,,*57
$GPGLL,3525.6597,N,13854.0587,E,051916.00,A,*2F
$GPGSA,A,3,,,,,,,,,,,,,0.0,0.0,0.0*32
$GPRMC,051921.00,A,3525.6714,N,13854.0379,E,16.934901,304.453482,020818,,*07
$GPGGA,051921.00,3525.6714,N,13854.0379,E,1,00,0.0,1031.490723,M,0.0,M,,*59
$GPGLL,3525.6714,N,13854.0379,E,051921.00,A,*25
$GPGSA,A,3,,,,,,,,,,,,,0.0,0.0,0.0*32
$GPRMC,051926.00,A,3525.6863,N,13854.0110,E,21.339931,304.329976,020818,,*0E
$GPGGA,051926.00,3525.6863,N,13854.0110,E,1,00,0.0,1031.278809,M,0.0,M,,*5B
$GPGLL,3525.6863,N,13854.0110,E,051926.00,A,*20
$GPGSA,A,3,,,,,,,,,,,,,0.0,0.0,0.0*32
$GPRMC,051931.00,A,3525.7015,N,13853.9801,E,20.603989,301.146381,020818,,*05
$GPGGA,051931.00,3525.7015,N,13853.9801,E,1,00,0.0,1031.075806,M,0.0,M,,*52
$GPGLL,3525.7015,N,13853.9801,E,051931.00,A,*29
$GPGSA,A,3,,,,,,,,,,,,,0.0,0.0,0.0*32
$GPRMC,051936.00,A,3525.7151,N,13853.9525,E,19.086265,301.163360,020818,,*08
$GPGGA,051936.00,3525.7151,N,13853.9525,E,1,00,0.0,1030.939209,M,0.0,M,,*5A
$GPGLL,3525.7151,N,13853.9525,E,051936.00,A,*24
$GPGSA,A,3,,,,,,,,,,,,,0.0,0.0,0.0*32
$GPRMC,051941.00,A,3525.7280,N,13853.9222,E,21.240164,297.551861,020818,,*07
$GPGGA,051941.00,3525.7280,N,13853.9222,E,1,00,0.0,1030.976440,M,0.0,M,,*55
$GPGLL,3525.7280,N,13853.9222,E,051941.00,A,*2B
$GPGSA,A,3,,,,,,,,,,,,,0.0,0.0,0.0*32
$GPRMC,051946.00,A,3525.7380,N,13853.8866,E,22.699745,288.951343,020818,,*05
$GPGGA,051946.00,3525.7380,N,13853.8866,E,1,00,0.0,1031.108643,M,0.0,M,,*59
$GPGLL,3525.7380,N,13853.8866,E,051946.00,A,*26
$GPGSA,A,3,,,,,,,,,,,,,0.0,0.0,0.0*32
$GPRMC,051951.00,A,3525.7446,N,13853.8485,E,22.911092,282.014139,020818,,*00
$GPGGA,051951.00,3525.7446,N,13853.8485,E,1,00,0.0,1030.840454,M,0.0,M,,*53
$GPGLL,3525.7446,N,13853.8485,E,051951.00,A,*2C
$GPGSA,A,3,,,,,,,,,,,,,0.0,0.0,0.0*32
$GPRMC,051956.00,A,3525.7446,N,13853.8094,E,23.079621,269.983137,020818,,*07
$GPGGA,051956.00,3525.7446,N,13853.8094,E,1,00,0.0,1030.783325,M,0.0,M,,*51
$GPGLL,3525.7446,N,13853.8094,E,051956.00,A,*2F
$GPGSA,A,3,,,,,,,,,,,,,0.0,0.0,0.0*32
$GPRMC,052001.00,A,3525.7362,N,13853.7712,E,23.130067,254.950739,020818,,*08
$GPGGA,052001.00,3525.7362,N,13853.7712,E,1,00,0.0,1030.687988,M,0.0,M,,*56
$GPGLL,3525.7362,N,13853.7712,E,052001.00,A,*20
$GPGSA,A,3,,,,,,,,,,,,,0.0,0.0,0.0*32
$GPRMC,052006.00,A,3525.7220,N,13853.7376,E,21.754934,242.502035,020818,,*00
$GPGGA,052006.00,3525.7220,N,13853.7376,E,1,00,0.0,1030.936890,M,0.0,M,,*5D
$GPGLL,3525.7220,N,13853.7376,E,052006.00,A,*26
$GPGSA,A,3,,,,,,,,,,,,,0.0,0.0,0.0*32
$GPRMC,052011.00,A,3525.6960,N,13853.7172,E,23.848838,212.653879,020818,,*01
$GPGGA,052011.00,3525.6960,N,13853.7172,E,1,00,0.0,1032.125610,M,0.0,M,,*5D
$GPGLL,3525.6960,N,13853.7172,E,052011.00,A,*28
$GPGSA,A,3,,,,,,,,,,,,,0.0,0.0,0.0*32
$GPRMC,052016.00,A,3525.6641,N,13853.6988,E,26.086537,205.206641,020818,,*0C
$GPGGA,052016.00,3525.6641,N,13853.6988,E,1,00,0.0,1029.796143,M,0.0,M,,*5F
$GPGLL,3525.6641,N,13853.6988,E,052016.00,A,*2F
$GPGSA,A,3,,,,,,,,,,,,,0.0,0.0,0.0*32
$GPRMC,052021.00,A,3525.6312,N,13853.6791,E,25.725406,206.011738,020818,,*0B
$GPGGA,052021.00,3525.6312,N,13853.6791,E,1,00,0.0,1030.027222,M,0.0,M,,*5F
$GPGLL,3525.6312,N,13853.6791,E,052021.00,A,*2E
$GPGSA,A,3,,,,,,,,,,,,,0.0,0.0,0.0*32
$GPRMC,052026.00,A,3525.6048,N,13853.6515,E,24.664123,220.443088,020818,,*02
$GPGGA,052026.00,3525.6048,N,13853.6515,E,1,00,0.0,1030.604614,M,0.0,M,,*5C
$GPGLL,3525.6048,N,13853.6515,E,052026.00,A,*2B
$GPGSA,A,3,,,,,,,,,,,,,0.0,0.0,0.0*32
$GPRMC,052031.00,A,3525.5791,N,13853.6199,E,26.585000,224.940690,020818,,*0F
$GPGGA,052031.00,3525.5791,N,13853.6199,E,1,00,0.0,1030.885986,M,0.0,M,,*59
$GPGLL,3525.5791,N,13853.6199,E,052031.00,A,*2D
$GPGSA,A,3,,,,,,,,,,,,,0.0,0.0,0.0*32
$GPRMC,052036.00,A,3525.5474,N,13853.5953,E,27.493975,212.368726,020818,,*08
$GPGGA,052036.00,3525.5474,N,13853.5953,E,1,00,0.0,1031.377441,M,0.0,M,,*5A
$GPGLL,3525.5474,N,13853.5953,E,052036.00,A,*2F
$GPGSA,A,3,,,,,,,,,,,,,0.0,0.0,0.0*32
$GPRMC,052041.00,A,3525.5116,N,13853.5771,E,27.537266,202.466999,020818,,*03
$GPGGA,052041.00,3525.5116,N,13853.5771,E,1,00,0.0,1030.938232,M,0.0,M,,*57
$GPGLL,3525.5116,N,13853.5771,E,052041.00,A,*20
$GPGSA,A,3,,,,,,,,,,,,,0.0,0.0,0.0*32
$GPRMC,052046.00,A,3525.4747,N,13853.5616,E,27.088334,198.926872,020818,,*0D
$GPGGA,052046.00,3525.4747,N,13853.5616,E,1,00,0.0,1031.620850,M,0.0,M,,*5A
$GPGLL,3525.4747,N,13853.5616,E,052046.00,A,*24
$GPGSA,A,3,,,,,,,,,,,,,0.0,0.0,0.0*32
$GPRMC,052051.00,A,3525.4381,N,13853.5660,E,25.799827,174.434857,020818,,*03
$GPGGA,052051.00,3525.4381,N,13853.5660,E,1,00,0.0,1032.763916,M,0.0,M,,*55
$GPGLL,3525.4381,N,13853.5660,E,052051.00,A,*2D
$GPGSA,A,3,,,,,,,,,,,,,0.0,0.0,0.0*32
$GPRMC,052056.00,A,3525.4043,N,13853.5738,E,24.421574,169.329428,020818,,*0C
$GPGGA,052056.00,3525.4043,N,13853.5738,E,1,00,0.0,1034.712036,M,0.0,M,,*58
$GPGLL,3525.4043,N,13853.5738,E,052056.00,A,*2B
$GPGSA,A,3,,,,,,,,,,,,,0.0,0.0,0.0*32
$GPRMC,052101.00,A,3525.3719,N,13853.5691,E,22.648855,186.824684,020818,,*04
$GPGGA,052101.00,3525.3719,N,13853.5691,E,1,00,0.0,1036.946411,M,0.0,M,,*5A
$GPGLL,3525.3719,N,13853.5691,E,052101.00,A,*25
$GPGSA,A,3,,,,,,,,,,,,,0.0,0.0,0.0*32
$GPRMC,052106.00,A,3525.3455,N,13853.5494,E,23.353058,211.289015,020818,,*0A
$GPGGA,052106.00,3525.3455,N,13853.5494,E,1,00,0.0,1039.539307,M,0.0,M,,*5A
$GPGLL,3525.3455,N,13853.5494,E,052106.00,A,*2E
$GPGSA,A,3,,,,,,,,,,,,,0.0,0.0,0.0*32
$GPRMC,052111.00,A,3525.3246,N,13853.5166,E,22.769759,231.957639,020818,,*08
$GPGGA,052111.00,3525.3246,N,13853.5166,E,1,00,0.0,1041.445923,M,0.0,M,,*59
$GPGLL,3525.3246,N,13853.5166,E,052111.00,A,*24
$GPGSA,A,3,,,,,,,,,,,,,0.0,0.0,0.0*32
$GPRMC,052116.00,A,3525.3158,N,13853.4762,E,22.450328,255.124999,020818,,*00
$GPGGA,052116.00,3525.3158,N,13853.4762,E,1,00,0.0,1042.432495,M,0.0,M,,*52
$GPGLL,3525.3158,N,13853.4762,E,052116.00,A,*2C
$GPGSA,A,3,,,,,,,,,,,,,0.0,0.0,0.0*32
$GPRMC,052121.00,A,3525.3108,N,13853.4400,E,21.195420,260.276457,020818,,*0B
$GPGGA,052121.00,3525.3108,N,13853.4400,E,1,00,0.0,1044.275391,M,0.0,M,,*54
$GPGLL,3525.3108,N,13853.4400,E,052121.00,A,*2A
$GPGSA,A,3,,,,,,,,,,,,,0.0,0.0,0.0*32
$GPRMC,052126.00,A,3525.3052,N,13853.4020,E,18.739179,259.856024,020818,,*05
$GPGGA,052126.00,3525.3052,N,13853.4020,E,1,00,0.0,1046.870239,M,0.0,M,,*55
$GPGLL,3525.3052,N,13853.4020,E,052126.00,A,*25
$GPGSA,A,3,,,,,,,,,,,,,0.0,0.0,0.0*32
$GPRMC,052131.00,A,3525.3065,N,13853.3591,E,24.873680,272.021657,020818,,*03
$GPGGA,052131.00,3525.3065,N,13853.3591,E,1,00,0.0,1051.068970,M,0.0,M,,*5E
$GPGLL,3525.3065,N,13853.3591,E,052131.00,A,*2F
$GPGSA,A,3,,,,,,,,,,,,,0.0,0.0,0.0*32
$GPRMC,052136.00,A,3525.3075,N,13853.3148,E,21.200351,271.597655,020818,,*0E
$GPGGA,052136.00,3525.3075,N,13853.3148,E,1,00,0.0,1056.036133,M,0.0,M,,*5B
$GPGLL,3525.3075,N,13853.3148,E,052136.00,A,*29
$GPGSA,A,3,,,,,,,,,,,,,0.0,0.0,0.0*32
$GPRMC,052141.00,A,3525.3083,N,13853.2772,E,21.692849,271.497254,020818,,*00
$GPGGA,052141.00,3525.3083,N,13853.2772,E,1,00,0.0,1057.967285,M,0.0,M,,*5E
$GPGLL,3525.3083,N,13853.2772,E,052141.00,A,*2E
$GPGSA,A,3,,,,,,,,,,,,,0.0,0.0,0.0*32
$GPRMC,052146.00,A,3525.3128,N,13853.2391,E,18.107103,278.245243,020818,,*0E
$GPGGA,052146.00,3525.3128,N,13853.2391,E,1,00,0.0,1058.534424,M,0.0,M,,*58
$GPGLL,3525.3128,N,13853.2391,E,052146.00,A,*20
$GPGSA,A,3,,,,,,,,,,,,,0.0,0.0,0.0*32
$GPRMC,052151.00,A,3525.3066,N,13853.2017,E,20.352160,258.522181,020818,,*0B
$GPGGA,052151.00,3525.3066,N,13853.2017,E,1,00,0.0,1060.674805,M,0.0,M,,*5B
$GPGLL,3525.3066,N,13853.2017,E,052151.00,A,*20
$GPGSA,A,3,,,,,,,,,,,,,0.0,0.0,0.0*32
$GPRMC,052156.00,A,3525.2985,N,13853.1591,E,22.289410,256.965295,020818,,*01
$GPGGA,052156.00,3525.2985,N,13853.1591,E,1,00,0.0,1061.784180,M,0.0,M,,*5A
$GPGLL,3525.2985,N,13853.1591,E,052156.00,A,*2A
$GPGSA,A,3,,,,,,,,,,,,,0.0,0.0,0.0*32
$GPRMC,052201.00,A,3525.2992,N,13853.1191,E,22.420222,271.184239,020818,,*04
$GPGGA,052201.00,3525.2992,N,13853.1191,E,1,00,0.0,1066.421875,M,0.0,M,,*51
$GPGLL,3525.2992,N,13853.1191,E,052201.00,A,*29
$GPGSA,A,3,,,,,,,,,,,,,0.0,0.0,0.0*32
$GPRMC,052206.00,A,3525.3051,N,13853.0809,E,22.240583,280.767540,020818,,*0D
$GPGGA,052206.00,3525.3051,N,13853.0809,E,1,00,0.0,1067.599731,M,0.0,M,,*54
$GPGLL,3525.3051,N,13853.0809,E,052206.00,A,*20
$GPGSA,A,3,,,,,,,,,,,,,0.0,0.0,0.0*32
$GPRMC,052211.00,A,3525.3171,N,13853.0454,E,21.743076,292.525177,020818,,*01
$GPGGA,052211.00,3525.3171,N,13853.0454,E,1,00,0.0,1068.085205,M,0.0,M,,*50
$GPGLL,3525.3171,N,13853.0454,E,052211.00,A,*21
$GPGSA,A,3,,,,,,,,,,,,,0.0,0.0,0.0*32
$GPRMC,052216.00,A,3525.3408,N,13853.0275,E,20.319010,328.408144,020818,,*0C
$GPGGA,052216.00,3525.3408,N,13853.0275,E,1,00,0.0,1067.414551,M,0.0,M,,*5C
$GPGLL,3525.3408,N,13853.0275,E,052216.00,A,*28
$GPGSA,A,3,,,,,,,,,,,,,0.0,0.0,0.0*32
$GPRMC,052221.00,A,3525.3687,N,13853.0372,E,21.578832,15.855387,020818,,*37
$GPGGA,052221.00,3525.3687,N,13853.0372,E,1,00,0.0,1066.858521,M,0.0,M,,*59
$GPGLL,3525.3687,N,13853.0372,E,052221.00,A,*2F
$GPGSA,A,3,,,,,,,,,,,,,0.0,0.0,0.0*32
$GPRMC,052226.00,A,3525.3874,N,13853.0578,E,13.753610,41.845565,020818,,*30
$GPGGA,052226.00,3525.3874,N,13853.0578,E,1,00,0.0,1064.453613,M,0.0,M,,*57
$GPGLL,3525.3874,N,13853.0578,E,052226.00,A,*26
$GPGSA,A,3,,,,,,,,,,,,,0.0,0.0,0.0*32
$GPRMC,052231.00,A,3525.4082,N,13853.0565,E,16.426595,357.070898,020818,,*03
$GPGGA,052231.00,3525.4082,N,13853.0565,E,1,00,0.0,1062.696289,M,0.0,M,,*51
$GPGLL,3525.4082,N,13853.0565,E,052231.00,A,*2A
$GPGSA,A,3,,,,,,,,,,,,,0.0,0.0,0.0*32
$GPRMC,052236.00,A,3525.4237,N,13853.0343,E,17.195991,310.452308,020818,,*0B
$GPGGA,052236.00,3525.4237,N,13853.0343,E,1,00,0.0,1060.350586,M,0.0,M,,*5D
$GPGLL,3525.4237,N,13853.0343,E,052236.00,A,*23
$GPGSA,A,3,,,,,,,,,,,,,0.0,0.0,0.0*32
$GPRMC,052241.00,A,3525.4305,N,13853.0030,E,20.724793,285.089041,020818,,*09
$GPGGA,052241.00,3525.4305,N,13853.0030,E,1,00,0.0,1059.404053,M,0.0,M,,*5B
$GPGLL,3525.4305,N,13853.0030,E,052241.00,A,*24
$GPGSA,A,3,,,,,,,,,,,,,0.0,0.0,0.0*32
$GPRMC,052246.00,A,3525.4386,N,13852.9609,E,24.365681,283.293432,020818,,*09
$GPGGA,052246.00,3525.4386,N,13852.9609,E,1,00,0.0,1058.575073,M,0.0,M,,*57
$GPGLL,3525.4386,N,13852.9609,E,052246.00,A,*2C
$GPGSA,A,3,,,,,,,,,,,,,0.0,0.0,0.0*32
$GPRMC,052251.00,A,3525.4472,N,13852.9181,E,23.015753,283.739023,020818,,*08
$GPGGA,052251.00,3525.4472,N,13852.9181,E,1,00,0.0,1057.183594,M,0.0,M,,*54
$GPGLL,3525.4472,N,13852.9181,E,052251.00,A,*21
$GPGSA,A,3,,,,,,,,,,,,,0.0,0.0,0.0*32
$GPRMC,052256.00,A,3525.4540,N,13852.8802,E,24.011295,282.543586,020818,,*04
$GPGGA,052256.00,3525.4540,N,13852.8802,E,1,00,0.0,1051.701782,M,0.0,M,,*5F
$GPGLL,3525.4540,N,13852.8802,E,052256.00,A,*25
$GPGSA,A,3,,,,,,,,,,,,,0.0,0.0,0.0*32
$GPRMC,052301.00,A,3525.4584,N,13852.8402,E,24.254883,277.664465,020818,,*0D
$GPGGA,052301.00,3525.4584,N,13852.8402,E,1,00,0.0,1048.711670,M,0.0,M,,*5D
$GPGLL,3525.4584,N,13852.8402,E,052301.00,A,*22
$GPGSA,A,3,,,,,,,,,,,,,0.0,0.0,0.0*32
$GPRMC,052306.00,A,3525.4644,N,13852.7975,E,27.045823,279.699327,020818,,*01
$GPGGA,052306.00,3525.4644,N,13852.7975,E,1,00,0.0,1044.919312,M,0.0,M,,*5C
$GPGLL,3525.4644,N,13852.7975,E,052306.00,A,*28
$GPGSA,A,3,,,,,,,,,,,,,0.0,0.0,0.0*32
$GPRMC,052311.00,A,3525.4782,N,13852.7529,E,29.365711,290.868796,020818,,*01
$GPGGA,052311.00,3525.4782,N,13852.7529,E,1,00,0.0,1040.882690,M,0.0,M,,*5C
$GPGLL,3525.4782,N,13852.7529,E,052311.00,A,*20
$GPGSA,A,3,,,,,,,,,,,,,0.0,0.0,0.0*32
$GPRMC,052316.00,A,3525.4926,N,13852.7110,E,22.418486,292.779360,020818,,*03
$GPGGA,052316.00,3525.4926,N,13852.7110,E,1,00,0.0,1038.396362,M,0.0,M,,*5C
$GPGLL,3525.4926,N,13852.7110,E,052316.00,A,*29
$GPGSA,A,3,,,,,,,,,,,,,0.0,0.0,0.0*32
$GPRMC,052321.00,A,3525.5039,N,13852.6756,E,22.494965,291.457296,020818,,*04
$GPGGA,052321.00,3525.5039,N,13852.6756,E,1,00,0.0,1037.251831,M,0.0,M,,*53
$GPGLL,3525.5039,N,13852.6756,E,052321.00,A,*2E
$GPGSA,A,3,,,,,,,,,,,,,0.0,0.0,0.0*32
$GPRMC,052326.00,A,3525.5145,N,13852.6369,E,24.812021,288.524444,020818,,*08
$GPGGA,052326.00,3525.5145,N,13852.6369,E,1,00,0.0,1037.448242,M,0.0,M,,*56
$GPGLL,3525.5145,N,13852.6369,E,052326.00,A,*2B
$GPGSA,A,3,,,,,,,,,,,,,0.0,0.0,0.0*32
$GPRMC,052331.00,A,3525.5291,N,13852.5975,E,25.804359,294.529189,020818,,*0E
$GPGGA,052331.00,3525.5291,N,13852.5975,E,1,00,0.0,1038.628662,M,0.0,M,,*53
$GPGLL,3525.5291,N,13852.5975,E,052331.00,A,*23
$GPGSA,A,3,,,,,,,,,,,,,0.0,0.0,0.0*32
$GPRMC,052336.00,A,3525.5465,N,13852.5582,E,26.450054,298.450253,020818,,*07
$GPGGA,052336.00,3525.5465,N,13852.5582,E,1,00,0.0,1039.395874,M,0.0,M,,*56
$GPGLL,3525.5465,N,13852.5582,E,052336.00,A,*2D
$GPGSA,A,3,,,,,,,,,,,,,0.0,0.0,0.0*32
$GPRMC,052341.00,A,3525.5633,N,13852.5177,E,27.123855,297.040196,020818,,*01
$GPGGA,052341.00,3525.5633,N,13852.5177,E,1,00,0.0,1040.956299,M,0.0,M,,*5B
$GPGLL,3525.5633,N,13852.5177,E,052341.00,A,*22
$GPGSA,A,3,,,,,,,,,,,,,0.0,0.0,0.0*32
$GPRMC,052346.00,A,3525.5785,N,13852.4762,E,26.729493,294.115557,020818,,*09
$GPGGA,052346.00,3525.5785,N,13852.4762,E,1,00,0.0,1041.977539,M,0.0,M,,*5C
$GPGLL,3525.5785,N,13852.4762,E,052346.00,A,*2A
$GPGSA,A,3,,,,,,,,,,,,,0.0,0.0,0.0*32
$GPRMC,052351.00,A,3525.5930,N,13852.4357,E,25.927968,293.880621,020818,,*07
$GPGGA,052351.00,3525.5930,N,13852.4357,E,1,00,0.0,1042.570557,M,0.0,M,,*58
$GPGLL,3525.5930,N,13852.4357,E,052351.00,A,*2E
$GPGSA,A,3,,,,,,,,,,,,,0.0,0.0,0.0*32
$GPRMC,052356.00,A,3525.6028,N,13852.3956,E,23.133750,286.593874,020818,,*04
$GPGGA,052356.00,3525.6028,N,13852.3956,E,1,00,0.0,1040.789795,M,0.0,M,,*5A
$GPGLL,3525.6028,N,13852.3956,E,052356.00,A,*26
$GPGSA,A,3,,,,,,,,,,,,,0.0,0.0,0.0*32
$GPRMC,052401.00,A,3525.6099,N,13852.3580,E,23.280601,283.058851,020818,,*02
$GPGGA,052401.00,3525.6099,N,13852.3580,E,1,00,0.0,1040.187012,M,0.0,M,,*52
$GPGLL,3525.6099,N,13852.3580,E,052401.00,A,*2E
$GPGSA,A,3,,,,,,,,,,,,,0.0,0.0,0.0*32
$GPRMC,052406.00,A,3525.6183,N,13852.3198,E,23.336810,285.198861,020818,,*08
$GPGGA,052406.00,3525.6183,N,13852.3198,E,1,00,0.0,1039.859985,M,0.0,M,,*51
$GPGLL,3525.6183,N,13852.3198,E,052406.00,A,*2E
$GPGSA,A,3,,,,,,,,,,,,,0.0,0.0,0.0*32
$GPRMC,052411.00,A,3525.6254,N,13852.2811,E,23.689455,282.665430,020818,,*08
$GPGGA,052411.00,3525.6254,N,13852.2811,E,1,00,0.0,1038.857300,M,0.0,M,,*5F
$GPGLL,3525.6254,N,13852.2811,E,052411.00,A,*28
$GPGSA,A,3,,,,,,,,,,,,,0.0,0.0,0.0*32
$GPRMC,052416.00,A,3525.6317,N,13852.2409,E,24.850693,280.811850,020818,,*0C
$GPGGA,052416.00,3525.6317,N,13852.2409,E,1,00,0.0,1037.479858,M,0.0,M,,*52
$GPGLL,3525.6317,N,13852.2409,E,052416.00,A,*2C
$GPGSA,A,3,,,,,,,,,,,,,0.0,0.0,0.0*32
$GPRMC,052421.00,A,3525.6369,N,13852.1999,E,25.094549,278.876955,020818,,*01
$GPGGA,052421.00,3525.6369,N,13852.1999,E,1,00,0.0,1036.115967,M,0.0,M,,*5B
$GPGLL,3525.6369,N,13852.1999,E,052421.00,A,*26
$GPGSA,A,3,,,,,,,,,,,,,0.0,0.0,0.0*32
$GPRMC,052426.00,A,3525.6428,N,13852.1577,E,25.736257,279.683189,020818,,*03
$GPGGA,052426.00,3525.6428,N,13852.1577,E,1,00,0.0,1035.290894,M,0.0,M,,*52
$GPGLL,3525.6428,N,13852.1577,E,052426.00,A,*2F
$GPGSA,A,3,,,,,,,,,,,,,0.0,0.0,0.0*32
$GPRMC,052431.00,A,3525.6481,N,13852.1149,E,24.934021,278.643242,020818,,*08
$GPGGA,052431.00,3525.6481,N,13852.1149,E,1,00,0.0,1034.749878,M,0.0,M,,*5C
$GPGLL,3525.6481,N,13852.1149,E,052431.00,A,*23
$GPGSA,A,3,,,,,,,,,,,,,0.0,0.0,0.0*32
$GPRMC,052436.00,A,3525.6532,N,13852.0726,E,25.329577,278.411791,020818,,*07
$GPGGA,052436.00,3525.6532,N,13852.0726,E,1,00,0.0,1034.096558,M,0.0,M,,*56
$GPGLL,3525.6532,N,13852.0726,E,052436.00,A,*23
$GPGSA,A,3,,,,,,,,,,,,,0.0,0.0,0.0*32
$GPRMC,052441.00,A,3525.6585,N,13852.0285,E,26.785344,278.377301,020818,,*0A
$GPGGA,052441.00,3525.6585,N,13852.0285,E,1,00,0.0,1033.815918,M,0.0,M,,*5A
$GPGLL,3525.6585,N,13852.0285,E,052441.00,A,*23
$GPGSA,A,3,,,,,,,,,,,,,0.0,0.0,0.0*32
$GPRMC,052446.00,A,3525.6642,N,13851.9825,E,27.804997,278.728033,020818,,*00
$GPGGA,052446.00,3525.6642,N,13851.9825,E,1,00,0.0,1033.299805,M,0.0,M,,*5C
$GPGLL,3525.6642,N,13851.9825,E,052446.00,A,*26
$GPGSA,A,3,,,,,,,,,,,,,0.0,0.0,0.0*32
$GPRMC,052451.00,A,3525.6701,N,13851.9356,E,28.203532,278.672887,020818,,*07
$GPGGA,052451.00,3525.6701,N,13851.9356,E,1,00,0.0,1035.413818,M,0.0,M,,*5D
$GPGLL,3525.6701,N,13851.9356,E,052451.00,A,*29
$GPGSA,A,3,,,,,,,,,,,,,0.0,0.0,0.0*32
$GPRMC,052456.00,A,3525.6755,N,13851.8898,E,26.101298,278.295681,020818,,*04
$GPGGA,052456.00,3525.6755,N,13851.8898,E,1,00,0.0,1035.180054,M,0.0,M,,*5C
$GPGLL,3525.6755,N,13851.8898,E,052456.00,A,*27
$GPGSA,A,3,,,,,,,,,,,,,0.0,0.0,0.0*32
$GPRMC,052501.00,A,3525.6813,N,13851.8461,E,25.265226,279.332893,020818,,*07
$GPGGA,052501.00,3525.6813,N,13851.8461,E,1,00,0.0,1035.512451,M,0.0,M,,*56
$GPGLL,3525.6813,N,13851.8461,E,052501.00,A,*23
$GPGSA,A,3,,,,,,,,,,,,,0.0,0.0,0.0*32
$GPRMC,052506.00,A,3525.6869,N,13851.8051,E,23.718317,279.492792,020818,,*03
$GPGGA,052506.00,3525.6869,N,13851.8051,E,1,00,0.0,1032.803955,M,0.0,M,,*58
$GPGLL,3525.6869,N,13851.8051,E,052506.00,A,*2E
$GPGSA,A,3,,,,,,,,,,,,,0.0,0.0,0.0*32
$GPRMC,052511.00,A,3525.6919,N,13851.7656,E,23.560652,278.695814,020818,,*01
$GPGGA,052511.00,3525.6919,N,13851.7656,E,1,00,0.0,1033.973999,M,0.0,M,,*51
$GPGLL,3525.6919,N,13851.7656,E,052511.00,A,*20
$GPGSA,A,3,,,,,,,,,,,,,0.0,0.0,0.0*32
$GPRMC,052516.00,A,3525.6981,N,13851.7250,E,24.764901,280.603865,020818,,*03
$GPGGA,052516.00,3525.6981,N,13851.7250,E,1,00,0.0,1034.586304,M,0.0,M,,*5A
$GPGLL,3525.6981,N,13851.7250,E,052516.00,A,*24
$GPGSA,A,3,,,,,,,,,,,,,0.0,0.0,0.0*32
$GPRMC,052521.00,A,3525.7084,N,13851.6845,E,24.769388,287.369093,020818,,*0C
$GPGGA,052521.00,3525.7084,N,13851.6845,E,1,00,0.0,1034.817871,M,0.0,M,,*50
$GPGLL,3525.7084,N,13851.6845,E,052521.00,A,*22
$GPGSA,A,3,,,,,,,,,,,,,0.0,0.0,0.0*32
$GPRMC,052526.00,A,3525.7199,N,13851.6440,E,25.128494,289.311832,020818,,*05
$GPGGA,052526.00,3525.7199,N,13851.6440,E,1,00,0.0,1034.583130,M,0.0,M,,*5F
$GPGLL,3525.7199,N,13851.6440,E,052526.00,A,*21
$GPGSA,A,3,,,,,,,,,,,,,0.0,0.0,0.0*32
$GPRMC,052531.00,A,3525.7245,N,13851.6013,E,24.728744,277.405850,020818,,*0D
$GPGGA,052531.00,3525.7245,N,13851.6013,E,1,00,0.0,1035.007690,M,0.0,M,,*5C
$GPGLL,3525.7245,N,13851.6013,E,052531.00,A,*27
$GPGSA,A,3,,,,,,,,,,,,,0.0,0.0,0.0*32
$GPRMC,052536.00,A,3525.7249,N,13851.5583,E,25.248591,270.719371,020818,,*00
$GPGGA,052536.00,3525.7249,N,13851.5583,E,1,00,0.0,1034.487427,M,0.0,M,,*5B
$GPGLL,3525.7249,N,13851.5583,E,052536.00,A,*23
$GPGSA,A,3,,,,,,,,,,,,,0.0,0.0,0.0*32
$GPRMC,052541.00,A,3525.7269,N,13851.5148,E,25.922425,273.275694,020818,,*0A
$GPGGA,052541.00,3525.7269,N,13851.5148,E,1,00,0.0,1034.910889,M,0.0,M,,*51
$GPGLL,3525.7269,N,13851.5148,E,052541.00,A,*22
$GPGSA,A,3,,,,,,,,,,,,,0.0,0.0,0.0*32
$GPRMC,052546.00,A,3525.7340,N,13851.4710,E,25.724790,281.245848,020818,,*09
$GPGGA,052546.00,3525.7340,N,13851.4710,E,1,00,0.0,1035.985962,M,0.0,M,,*5F
$GPGLL,3525.7340,N,13851.4710,E,052546.00,A,*25
$GPGSA,A,3,,,,,,,,,,,,,0.0,0.0,0.0*32
$GPRMC,052551.00,A,3525.7441,N,13851.4302,E,23.550343,286.789840,020818,,*09
$GPGGA,052551.00,3525.7441,N,13851.4302,E,1,00,0.0,1036.356934,M,0.0,M,,*5C
$GPGLL,3525.7441,N,13851.4302,E,052551.00,A,*22
$GPGSA,A,3,,,,,,,,,,,,,0.0,0.0,0.0*32
$GPRMC,052556.00,A,3525.7546,N,13851.3902,E,24.523395,287.886415,020818,,*00
$GPGGA,052556.00,3525.7546,N,13851.3902,E,1,00,0.0,1036.296875,M,0.0,M,,*59
$GPGLL,3525.7546,N,13851.3902,E,052556.00,A,*2E
$GPGSA,A,3,,,,,,,,,,,,,0.0,0.0,0.0*32
$GPRMC,052601.00,A,3525.7648,N,13851.3510,E,24.122566,287.706012,020818,,*08
$GPGGA,052601.00,3525.7648,N,13851.3510,E,1,00,0.0,1036.478882,M,0.0,M,,*54
$GPGLL,3525.7648,N,13851.3510,E,052601.00,A,*2D
$GPGSA,A,3,,,,,,,,,,,,,0.0,0.0,0.0*32
$GPRMC,052606.00,A,3525.7696,N,13851.3119,E,23.641749,278.580567,020818,,*00
$GPGGA,052606.00,3525.7696,N,13851.3119,E,1,00,0.0,1038.071899,M,0.0,M,,*54
$GPGLL,3525.7696,N,13851.3119,E,052606.00,A,*24
$GPGSA,A,3,,,,,,,,,,,,,0.0,0.0,0.0*32
$GPRMC,052611.00,A,3525.7669,N,13851.2718,E,23.914127,265.415792,020818,,*08
$GPGGA,052611.00,3525.7669,N,13851.2718,E,1,00,0.0,1037.072754,M,0.0,M,,*56
$GPGLL,3525.7669,N,13851.2718,E,052611.00,A,*24
$GPGSA,A,3,,,,,,,,,,,,,0.0,0.0,0.0*32
$GPRMC,052616.00,A,3525.7601,N,13851.2328,E,24.000085,257.849046,020818,,*0E
$GPGGA,052616.00,3525.7601,N,13851.2328,E,1,00,0.0,1036.102905,M,0.0,M,,*55
$GPGLL,3525.7601,N,13851.2328,E,052616.00,A,*2A
$GPGSA,A,3,,,,,,,,,,,,,0.0,0.0,0.0*32
$GPRMC,052621.00,A,3525.7500,N,13851.1945,E,23.227323,252.135700,020818,,*07
$GPGGA,052621.00,3525.7500,N,13851.1945,E,1,00,0.0,1035.827515,M,0.0,M,,*51
$GPGLL,3525.7500,N,13851.1945,E,052621.00,A,*2E
$GPGSA,A,3,,,,,,,,,,,,,0.0,0.0,0.0*32
$GPRMC,052626.00,A,3525.7404,N,13851.1581,E,22.357492,251.919296,020818,,*04
$GPGGA,052626.00,3525.7404,N,13851.1581,E,1,00,0.0,1035.544922,M,0.0,M,,*57
$GPGLL,3525.7404,N,13851.1581,E,052626.00,A,*28
$GPGSA,A,3,,,,,,,,,,,,,0.0,0.0,0.0*32
$GPRMC,052631.00,A,3525.7329,N,13851.1291,E,11.425942,252.436281,020818,,*0B
$GPGGA,052631.00,3525.7329,N,13851.1291,E,1,00,0.0,1035.258179,M,0.0,M,,*53
$GPGLL,3525.7329,N,13851.1291,E,052631.00,A,*20
$GPGSA,A,3,,,,,,,,,,,,,0.0,0.0,0.0*32
$GPRMC,052636.00,A,3525.7273,N,13851.1093,E,15.927248,250.795674,020818,,*0E
$GPGGA,052636.00,3525.7273,N,13851.1093,E,1,00,0.0,1035.404175,M,0.0,M,,*59
$GPGLL,3525.7273,N,13851.1093,E,052636.00,A,*29
$GPGSA,A,3,,,,,,,,,,,,,0.0,0.0,0.0*32
$GPRMC,052641.00,A,3525.7128,N,13851.0824,E,21.487751,236.619706,020818,,*0A
$GPGGA,052641.00,3525.7128,N,13851.0824,E,1,00,0.0,1035.988037,M,0.0,M,,*5F
$GPGLL,3525.7128,N,13851.0824,E,052641.00,A,*21
$GPGSA,A,3,,,,,,,,,,,,,0.0,0.0,0.0*32
$GPRMC,052646.00,A,3525.6863,N,13851.0579,E,25.385383,216.946634,020818,,*02
$GPGGA,052646.00,3525.6863,N,13851.0579,E,1,00,0.0,1036.216064,M,0.0,M,,*53
$GPGLL,3525.6863,N,13851.0579,E,052646.00,A,*24
$GPGSA,A,3,,,,,,,,,,,,,0.0,0.0,0.0*32
$GPRMC,052651.00,A,3525.6558,N,13851.0339,E,25.824499,212.721155,020818,,*04
$GPGGA,052651.00,3525.6558,N,13851.0339,E,1,00,0.0,1036.666870,M,0.0,M,,*5C
$GPGLL,3525.6558,N,13851.0339,E,052651.00,A,*25
$GPGSA,A,3,,,,,,,,,,,,,0.0,0.0,0.0*32
$GPRMC,052656.00,A,3525.6258,N,13851.0130,E,23.950398,209.564565,020818,,*03
$GPGGA,052656.00,3525.6258,N,13851.0130,E,1,00,0.0,1036.909546,M,0.0,M,,*59
$GPGLL,3525.6258,N,13851.0130,E,052656.00,A,*2E
$GPGSA,A,3,,,,,,,,,,,,,0.0,0.0,0.0*32
$GPRMC,052701.00,A,3525.5980,N,13850.9970,E,19.762890,205.166654,020818,,*07
$GPGGA,052701.00,3525.5980,N,13850.9970,E,1,00,0.0,1037.140015,M,0.0,M,,*54
$GPGLL,3525.5980,N,13850.9970,E,052701.00,A,*24
$GPGSA,A,3,,,,,,,,,,,,,0.0,0.0,0.0*32
$GPRMC,052706.00,A,3525.5761,N,13850.9867,E,14.680166,200.940011,020818,,*08
$GPGGA,052706.00,3525.5761,N,13850.9867,E,1,00,0.0,1037.033447,M,0.0,M,,*53
$GPGLL,3525.5761,N,13850.9867,E,052706.00,A,*25
$GPGSA,A,3,,,,,,,,,,,,,0.0,0.0,0.0*32
$GPRMC,052711.00,A,3525.5601,N,13850.9804,E,9.701255,197.857773,020818,,*32
$GPGGA,052711.00,3525.5601,N,13850.9804,E,1,00,0.0,1037.044678,M,0.0,M,,*59
$GPGLL,3525.5601,N,13850.9804,E,052711.00,A,*21
$GPGSA,A,3,,,,,,,,,,,,,0.0,0.0,0.0*32
$GPRMC,052716.00,A,3525.5523,N,13850.9773,E,1.240795,197.660689,020818,,*36
$GPGGA,052716.00,3525.5523,N,13850.9773,E,1,00,0.0,1037.878052,M,0.0,M,,*5B
$GPGLL,3525.5523,N,13850.9773,E,052716.00,A,*2A
$GPGSA,A,3,,,,,,,,,,,,,0.0,0.0,0.0*32
$GPRMC,052721.00,A,3525.5522,N,13850.9771,E,0.008834,238.612984,020818,,*3B
$GPGGA,052721.00,3525.5522,N,13850.9771,E,1,00,0.0,1038.208496,M,0.0,M,,*52
$GPGLL,3525.5522,N,13850.9771,E,052721.00,A,*2D
$GPGSA,A,3,,,,,,,,,,,,,0.0,0.0,0.0*32
$GPRMC,052726.00,A,3525.5522,N,13850.9771,E,0.005404,119.962266,020818,,*31
$GPGGA,052726.00,3525.5522,N,13850.9771,E,1,00,0.0,1038.231567,M,0.0,M,,*50
$GPGLL,3525.5522,N,13850.9771,E,052726.00,A,*2A
$GPGSA,A,3,,,,,,,,,,,,,0.0,0.0,0.0*32
$GPRMC,052731.00,A,3525.5522,N,13850.9771,E,0.002578,187.034719,020818,,*3A
$GPGGA,052731.00,3525.5522,N,13850.9771,E,1,00,0.0,1038.261597,M,0.0,M,,*5C
$GPGLL,3525.5522,N,13850.9771,E,052731.00,A,*2C
$GPGSA,A,3,,,,,,,,,,,,,0.0,0.0,0.0*32
$GPRMC,052736.00,A,3525.5522,N,13850.9771,E,0.011225,56.056962,020818,,*0B
$GPGGA,052736.00,3525.5522,N,13850.9771,E,1,00,0.0,1038.276245,M,0.0,M,,*55
$GPGLL,3525.5522,N,13850.9771,E,052736.00,A,*2B
$GPGSA,A,3,,,,,,,,,,,,,0.0,0.0,0.0*32
$GPRMC,052741.00,A,3525.5522,N,13850.9771,E,0.016629,44.396616,020818,,*04
$GPGGA,052741.00,3525.5522,N,13850.9771,E,1,00,0.0,1038.290649,M,0.0,M,,*55
$GPGLL,3525.5522,N,13850.9771,E,052741.00,A,*2B
$GPGSA,A,3,,,,,,,,,,,,,0.0,0.0,0.0*32
$GPRMC,052746.00,A,3525.5522,N,13850.9772,E,0.017024,79.374921,020818,,*03
$GPGGA,052746.00,3525.5522,N,13850.9772,E,1,00,0.0,1038.320801,M,0.0,M,,*59
$GPGLL,3525.5522,N,13850.9772,E,052746.00,A,*2F
$GPGSA,A,3,,,,,,,,,,,,,0.0,0.0,0.0*32
$GPRMC,052751.00,A,3525.5522,N,13850.9772,E,0.009360,42.918090,020818,,*02
$GPGGA,052751.00,3525.5522,N,13850.9772,E,1,00,0.0,1038.320190,M,0.0,M,,*5E
$GPGLL,3525.5522,N,13850.9772,E,052751.00,A,*29
$GPGSA,A,3,,,,,,,,,,,,,0.0,0.0,0.0*32
$GPRMC,052756.00,A,3525.5522,N,13850.9772,E,0.009755,29.492448,020818,,*04
$GPGGA,052756.00,3525.5522,N,13850.9772,E,1,00,0.0,1038.339478,M,0.0,M,,*52
$GPGLL,3525.5522,N,13850.9772,E,052756.00,A,*2E
$GPGSA,A,3,,,,,,,,,,,,,0.0,0.0,0.0*32
$GPRMC,052801.00,A,3525.5522,N,13850.9772,E,0.002778,33.800164,020818,,*0A
$GPGGA,052801.00,3525.5522,N,13850.9772,E,1,00,0.0,1038.353882,M,0.0,M,,*5A
$GPGLL,3525.5522,N,13850.9772,E,052801.00,A,*23
$GPGSA,A,3,,,,,,,,,,,,,0.0,0.0,0.0*32
$GPRMC,052806.00,A,3525.5484,N,13850.9757,E,8.660960,196.661357,020818,,*3F
$GPGGA,052806.00,3525.5484,N,13850.9757,E,1,00,0.0,1038.624878,M,0.0,M,,*57
$GPGLL,3525.5484,N,13850.9757,E,052806.00,A,*2E
$GPGSA,A,3,,,,,,,,,,,,,0.0,0.0,0.0*32
$GPRMC,052811.00,A,3525.5341,N,13850.9688,E,13.862202,201.534238,020818,,*0B
$GPGGA,052811.00,3525.5341,N,13850.9688,E,1,00,0.0,1039.493042,M,0.0,M,,*52
$GPGLL,3525.5341,N,13850.9688,E,052811.00,A,*25
$GPGSA,A,3,,,,,,,,,,,,,0.0,0.0,0.0*32
$GPRMC,052816.00,A,3525.5138,N,13850.9638,E,16.120964,191.531229,020818,,*05
$GPGGA,052816.00,3525.5138,N,13850.9638,E,1,00,0.0,1039.589233,M,0.0,M,,*5C
$GPGLL,3525.5138,N,13850.9638,E,052816.00,A,*25
$GPGSA,A,3,,,,,,,,,,,,,0.0,0.0,0.0*32
$GPRMC,052821.00,A,3525.4907,N,13850.9591,E,17.728540,189.314108,020818,,*09
$GPGGA,052821.00,3525.4907,N,13850.9591,E,1,00,0.0,1039.438721,M,0.0,M,,*50
$GPGLL,3525.4907,N,13850.9591,E,052821.00,A,*24
$GPGSA,A,3,,,,,,,,,,,,,0.0,0.0,0.0*32
$GPRMC,052826.00,A,3525.4652,N,13850.9558,E,18.332008,186.022816,020818,,*02
$GPGGA,052826.00,3525.4652,N,13850.9558,E,1,00,0.0,1039.143677,M,0.0,M,,*56
$GPGLL,3525.4652,N,13850.9558,E,052826.00,A,*29
$GPGSA,A,3,,,,,,,,,,,,,0.0,0.0,0.0*32
$GPRMC,052831.00,A,3525.4384,N,13850.9608,E,20.570839,171.308800,020818,,*09
$GPGGA,052831.00,3525.4384,N,13850.9608,E,1,00,0.0,1038.829590,M,0.0,M,,*56
$GPGLL,3525.4384,N,13850.9608,E,052831.00,A,*27
$GPGSA,A,3,,,,,,,,,,,,,0.0,0.0,0.0*32
$GPRMC,052836.00,A,3525.4134,N,13850.9733,E,16.018762,157.981308,020818,,*0D
$GPGGA,052836.00,3525.4134,N,13850.9733,E,1,00,0.0,1038.708496,M,0.0,M,,*5A
$GPGLL,3525.4134,N,13850.9733,E,052836.00,A,*20
$GPGSA,A,3,,,,,,,,,,,,,0.0,0.0,0.0*32
$GPRMC,052841.00,A,3525.4074,N,13850.9870,E,5.373887,118.071488,020818,,*3A
$GPGGA,052841.00,3525.4074,N,13850.9870,E,1,00,0.0,1038.178955,M,0.0,M,,*54
$GPGLL,3525.4074,N,13850.9870,E,052841.00,A,*2D
$GPGSA,A,3,,,,,,,,,,,,,0.0,0.0,0.0*32
$GPRMC,052846.00,A,3525.4082,N,13850.9889,E,0.010009,63.190741,020818,,*0A
