$GPRMC,005232.00,A,3532.2677,N,13932.1170,E,48.033148,0.000000,020818,,*09
$GPGGA,005232.00,3532.2677,N,13932.1170,E,1,00,0.0,81.602570,M,0.0,M,,*5B
$GPGLL,3532.2677,N,13932.1170,E,005232.00,A,*20
$GPGSA,A,3,,,,,,,,,,,,,0.0,0.0,0.0*32
$GPRMC,005237.00,A,3532.2162,N,13932.0646,E,49.139492,219.614888,020818,,*05
$GPGGA,005237.00,3532.2162,N,13932.0646,E,1,00,0.0,73.305107,M,0.0,M,,*55
$GPGLL,3532.2162,N,13932.0646,E,005237.00,A,*25
$GPGSA,A,3,,,,,,,,,,,,,0.0,0.0,0.0*32
$GPRMC,005242.00,A,3532.1665,N,13931.9993,E,50.510662,226.940951,020818,,*04
$GPGGA,005242.00,3532.1665,N,13931.9993,E,1,00,0.0,70.243088,M,0.0,M,,*5F
$GPGLL,3532.1665,N,13931.9993,E,005242.00,A,*29
$GPGSA,A,3,,,,,,,,,,,,,0.0,0.0,0.0*32
$GPRMC,005247.00,A,3532.1188,N,13931.9415,E,47.893380,224.587044,020818,,*07
$GPGGA,005247.00,3532.1188,N,13931.9415,E,1,00,0.0,67.699562,M,0.0,M,,*59
$GPGLL,3532.1188,N,13931.9415,E,005247.00,A,*2B
$GPGSA,A,3,,,,,,,,,,,,,0.0,0.0,0.0*32
$GPRMC,005252.00,A,3532.0778,N,13931.8799,E,46.249876,230.711615,020818,,*09
$GPGGA,005252.00,3532.0778,N,13931.8799,E,1,00,0.0,72.423531,M,0.0,M,,*52
$GPGLL,3532.0778,N,13931.8799,E,005252.00,A,*21
$GPGSA,A,3,,,,,,,,,,,,,0.0,0.0,0.0*32
$GPRMC,005257.00,A,3532.0408,N,13931.8190,E,43.344864,233.266294,020818,,*06
$GPGGA,005257.00,3532.0408,N,13931.8190,E,1,00,0.0,75.092514,M,0.0,M,,*52
$GPGLL,3532.0408,N,13931.8190,E,005257.00,A,*2F
$GPGSA,A,3,,,,,,,,,,,,,0.0,0.0,0.0*32
$GPRMC,005302.00,A,3532.0092,N,13931.7598,E,40.569116,236.681746,020818,,*07
$GPGGA,005302.00,3532.0092,N,13931.7598,E,1,00,0.0,77.195076,M,0.0,M,,*52
$GPGLL,3532.0092,N,13931.7598,E,005302.00,A,*2A
$GPGSA,A,3,,,,,,,,,,,,,0.0,0.0,0.0*32
$GPRMC,005307.00,A,3531.9812,N,13931.7024,E,39.480794,239.132463,020818,,*0A
$GPGGA,005307.00,3531.9812,N,13931.7024,E,1,00,0.0,78.385765,M,0.0,M,,*56
$GPGLL,3531.9812,N,13931.7024,E,005307.00,A,*27
$GPGSA,A,3,,,,,,,,,,,,,0.0,0.0,0.0*32
$GPRMC,005312.00,A,3531.9559,N,13931.6425,E,40.125359,242.517049,020818,,*0A
$GPGGA,005312.00,3531.9559,N,13931.6425,E,1,00,0.0,77.943871,M,0.0,M,,*51
$GPGLL,3531.9559,N,13931.6425,E,005312.00,A,*25
$GPGSA,A,3,,,,,,,,,,,,,0.0,0.0,0.0*32
$GPRMC,005317.00,A,3531.9332,N,13931.5813,E,39.165604,245.464050,020818,,*03
$GPGGA,005317.00,3531.9332,N,13931.5813,E,1,00,0.0,76.155548,M,0.0,M,,*5C
$GPGLL,3531.9332,N,13931.5813,E,005317.00,A,*21
$GPGSA,A,3,,,,,,,,,,,,,0.0,0.0,0.0*32
$GPRMC,005322.00,A,3531.9123,N,13931.5194,E,41.251057,247.537492,020818,,*05
$GPGGA,005322.00,3531.9123,N,13931.5194,E,1,00,0.0,73.260696,M,0.0,M,,*5E
$GPGLL,3531.9123,N,13931.5194,E,005322.00,A,*23
$GPGSA,A,3,,,,,,,,,,,,,0.0,0.0,0.0*32
$GPRMC,005327.00,A,3531.8913,N,13931.4522,E,43.819481,248.955340,020818,,*06
$GPGGA,005327.00,3531.8913,N,13931.4522,E,1,00,0.0,70.968704,M,0.0,M,,*53
$GPGLL,3531.8913,N,13931.4522,E,005327.00,A,*24
$GPGSA,A,3,,,,,,,,,,,,,0.0,0.0,0.0*32
$GPRMC,005332.00,A,3531.8699,N,13931.3820,E,44.019106,249.456187,020818,,*04
$GPGGA,005332.00,3531.8699,N,13931.3820,E,1,00,0.0,69.578026,M,0.0,M,,*50
$GPGLL,3531.8699,N,13931.3820,E,005332.00,A,*25
$GPGSA,A,3,,,,,,,,,,,,,0.0,0.0,0.0*32
$GPRMC,005337.00,A,3531.8490,N,13931.3121,E,44.257685,249.892872,020818,,*01
$GPGGA,005337.00,3531.8490,N,13931.3121,E,1,00,0.0,67.886024,M,0.0,M,,*56
$GPGLL,3531.8490,N,13931.3121,E,005337.00,A,*23
$GPGSA,A,3,,,,,,,,,,,,,0.0,0.0,0.0*32
$GPRMC,005342.00,A,3531.8284,N,13931.2422,E,42.920840,250.040606,020818,,*0F
$GPGGA,005342.00,3531.8284,N,13931.2422,E,1,00,0.0,66.291862,M,0.0,M,,*57
$GPGLL,3531.8284,N,13931.2422,E,005342.00,A,*25
$GPGSA,A,3,,,,,,,,,,,,,0.0,0.0,0.0*32
$GPRMC,005347.00,A,3531.8081,N,13931.1753,E,41.842150,249.588413,020818,,*0A
$GPGGA,005347.00,3531.8081,N,13931.1753,E,1,00,0.0,64.867043,M,0.0,M,,*59
$GPGLL,3531.8081,N,13931.1753,E,005347.00,A,*21
$GPGSA,A,3,,,,,,,,,,,,,0.0,0.0,0.0*32
$GPRMC,005352.00,A,3531.7867,N,13931.1079,E,42.664995,248.633102,020818,,*01
$GPGGA,005352.00,3531.7867,N,13931.1079,E,1,00,0.0,63.636669,M,0.0,M,,*5E
$GPGLL,3531.7867,N,13931.1079,E,005352.00,A,*25
$GPGSA,A,3,,,,,,,,,,,,,0.0,0.0,0.0*32
$GPRMC,005357.00,A,3531.7642,N,13931.0410,E,43.030807,247.582448,020818,,*06
$GPGGA,005357.00,3531.7642,N,13931.0410,E,1,00,0.0,63.122196,M,0.0,M,,*5D
$GPGLL,3531.7642,N,13931.0410,E,005357.00,A,*23
$GPGSA,A,3,,,,,,,,,,,,,0.0,0.0,0.0*32
$GPRMC,005402.00,A,3531.7396,N,13930.9729,E,44.479106,246.004983,020818,,*0A
$GPGGA,005402.00,3531.7396,N,13930.9729,E,1,00,0.0,63.115345,M,0.0,M,,*5F
$GPGLL,3531.7396,N,13930.9729,E,005402.00,A,*29
$GPGSA,A,3,,,,,,,,,,,,,0.0,0.0,0.0*32
$GPRMC,005407.00,A,3531.7125,N,13930.9035,E,45.509441,244.435335,020818,,*0D
$GPGGA,005407.00,3531.7125,N,13930.9035,E,1,00,0.0,63.904247,M,0.0,M,,*51
$GPGLL,3531.7125,N,13930.9035,E,005407.00,A,*2C
$GPGSA,A,3,,,,,,,,,,,,,0.0,0.0,0.0*32
$GPRMC,005412.00,A,3531.6827,N,13930.8344,E,46.000433,242.055082,020818,,*06
$GPGGA,005412.00,3531.6827,N,13930.8344,E,1,00,0.0,64.799370,M,0.0,M,,*53
$GPGLL,3531.6827,N,13930.8344,E,005412.00,A,*26
$GPGSA,A,3,,,,,,,,,,,,,0.0,0.0,0.0*32
$GPRMC,005417.00,A,3531.6504,N,13930.7668,E,42.517343,239.620900,020818,,*07
$GPGGA,005417.00,3531.6504,N,13930.7668,E,1,00,0.0,66.343857,M,0.0,M,,*51
$GPGLL,3531.6504,N,13930.7668,E,005417.00,A,*2B
$GPGSA,A,3,,,,,,,,,,,,,0.0,0.0,0.0*32
$GPRMC,005422.00,A,3531.6200,N,13930.7077,E,35.784361,237.672791,020818,,*0D
$GPGGA,005422.00,3531.6200,N,13930.7077,E,1,00,0.0,68.709999,M,0.0,M,,*5B
$GPGLL,3531.6200,N,13930.7077,E,005422.00,A,*26
$GPGSA,A,3,,,,,,,,,,,,,0.0,0.0,0.0*32
$GPRMC,005427.00,A,3531.5959,N,13930.6635,E,26.969562,236.163180,020818,,*07
$GPGGA,005427.00,3531.5959,N,13930.6635,E,1,00,0.0,70.590179,M,0.0,M,,*56
$GPGLL,3531.5959,N,13930.6635,E,005427.00,A,*26
$GPGSA,A,3,,,,,,,,,,,,,0.0,0.0,0.0*32
$GPRMC,005432.00,A,3531.5769,N,13930.6310,E,21.071030,234.313882,020818,,*05
$GPGGA,005432.00,3531.5769,N,13930.6310,E,1,00,0.0,72.340630,M,0.0,M,,*5E
$GPGLL,3531.5769,N,13930.6310,E,005432.00,A,*2D
$GPGSA,A,3,,,,,,,,,,,,,0.0,0.0,0.0*32
$GPRMC,005437.00,A,3531.5617,N,13930.6054,E,15.838944,233.936797,020818,,*02
$GPGGA,005437.00,3531.5617,N,13930.6054,E,1,00,0.0,74.150459,M,0.0,M,,*58
$GPGLL,3531.5617,N,13930.6054,E,005437.00,A,*23
$GPGSA,A,3,,,,,,,,,,,,,0.0,0.0,0.0*32
$GPRMC,005442.00,A,3531.5491,N,13930.5846,E,16.856897,233.395400,020818,,*0E
$GPGGA,005442.00,3531.5491,N,13930.5846,E,1,00,0.0,75.599312,M,0.0,M,,*56
$GPGLL,3531.5491,N,13930.5846,E,005442.00,A,*25
$GPGSA,A,3,,,,,,,,,,,,,0.0,0.0,0.0*32
$GPRMC,005447.00,A,3531.5334,N,13930.5597,E,20.297306,232.076068,020818,,*06
$GPGGA,005447.00,3531.5334,N,13930.5597,E,1,00,0.0,77.299240,M,0.0,M,,*59
$GPGLL,3531.5334,N,13930.5597,E,005447.00,A,*29
$GPGSA,A,3,,,,,,,,,,,,,0.0,0.0,0.0*32
$GPRMC,005452.00,A,3531.5147,N,13930.5311,E,22.218220,231.295849,020818,,*0B
$GPGGA,005452.00,3531.5147,N,13930.5311,E,1,00,0.0,78.770195,M,0.0,M,,*55
$GPGLL,3531.5147,N,13930.5311,E,005452.00,A,*23
$GPGSA,A,3,,,,,,,,,,,,,0.0,0.0,0.0*32
$GPRMC,005457.00,A,3531.4930,N,13930.4995,E,25.994542,229.871400,020818,,*03
$GPGGA,005457.00,3531.4930,N,13930.4995,E,1,00,0.0,80.442009,M,0.0,M,,*5F
$GPGLL,3531.4930,N,13930.4995,E,005457.00,A,*28
$GPGSA,A,3,,,,,,,,,,,,,0.0,0.0,0.0*32
$GPRMC,005502.00,A,3531.4694,N,13930.4659,E,24.639395,229.101225,020818,,*06
$GPGGA,005502.00,3531.4694,N,13930.4659,E,1,00,0.0,82.026787,M,0.0,M,,*55
$GPGLL,3531.4694,N,13930.4659,E,005502.00,A,*27
$GPGSA,A,3,,,,,,,,,,,,,0.0,0.0,0.0*32
$GPRMC,005507.00,A,3531.4465,N,13930.4349,E,24.622911,227.896965,020818,,*01
$GPGGA,005507.00,3531.4465,N,13930.4349,E,1,00,0.0,83.544975,M,0.0,M,,*5B
$GPGLL,3531.4465,N,13930.4349,E,005507.00,A,*2A
$GPGSA,A,3,,,,,,,,,,,,,0.0,0.0,0.0*32
$GPRMC,005512.00,A,3531.4239,N,13930.4053,E,24.434683,226.854742,020818,,*07
$GPGGA,005512.00,3531.4239,N,13930.4053,E,1,00,0.0,84.960320,M,0.0,M,,*5F
$GPGLL,3531.4239,N,13930.4053,E,005512.00,A,*29
$GPGSA,A,3,,,,,,,,,,,,,0.0,0.0,0.0*32
$GPRMC,005517.00,A,3531.4019,N,13930.3779,E,20.616832,225.280862,020818,,*05
$GPGGA,005517.00,3531.4019,N,13930.3779,E,1,00,0.0,85.956352,M,0.0,M,,*53
$GPGLL,3531.4019,N,13930.3779,E,005517.00,A,*24
$GPGSA,A,3,,,,,,,,,,,,,0.0,0.0,0.0*32
$GPRMC,005522.00,A,3531.3831,N,13930.3566,E,17.257661,222.725617,020818,,*06
$GPGGA,005522.00,3531.3831,N,13930.3566,E,1,00,0.0,86.982544,M,0.0,M,,*57
$GPGLL,3531.3831,N,13930.3566,E,005522.00,A,*2B
$GPGSA,A,3,,,,,,,,,,,,,0.0,0.0,0.0*32
$GPRMC,005527.00,A,3531.3665,N,13930.3374,E,15.915701,223.385637,020818,,*0C
$GPGGA,005527.00,3531.3665,N,13930.3374,E,1,00,0.0,88.001152,M,0.0,M,,*57
$GPGLL,3531.3665,N,13930.3374,E,005527.00,A,*24
$GPGSA,A,3,,,,,,,,,,,,,0.0,0.0,0.0*32
$GPRMC,005532.00,A,3531.3502,N,13930.3193,E,16.486045,222.021780,020818,,*03
$GPGGA,005532.00,3531.3502,N,13930.3193,E,1,00,0.0,87.984085,M,0.0,M,,*5A
$GPGLL,3531.3502,N,13930.3193,E,005532.00,A,*29
$GPGSA,A,3,,,,,,,,,,,,,0.0,0.0,0.0*32
$GPRMC,005537.00,A,3531.3331,N,13930.2997,E,18.236869,222.983625,020818,,*07
$GPGGA,005537.00,3531.3331,N,13930.2997,E,1,00,0.0,88.707062,M,0.0,M,,*57
$GPGLL,3531.3331,N,13930.2997,E,005537.00,A,*27
$GPGSA,A,3,,,,,,,,,,,,,0.0,0.0,0.0*32
$GPRMC,005542.00,A,3531.3127,N,13930.2765,E,21.861303,222.702845,020818,,*09
$GPGGA,005542.00,3531.3127,N,13930.2765,E,1,00,0.0,89.404053,M,0.0,M,,*50
$GPGLL,3531.3127,N,13930.2765,E,005542.00,A,*23
$GPGSA,A,3,,,,,,,,,,,,,0.0,0.0,0.0*32
$GPRMC,005547.00,A,3531.2897,N,13930.2509,E,23.400057,222.205612,020818,,*02
$GPGGA,005547.00,3531.2897,N,13930.2509,E,1,00,0.0,90.388245,M,0.0,M,,*50
$GPGLL,3531.2897,N,13930.2509,E,005547.00,A,*2D
$GPGSA,A,3,,,,,,,,,,,,,0.0,0.0,0.0*32
$GPRMC,005552.00,A,3531.2661,N,13930.2242,E,21.619931,222.719677,020818,,*03
$GPGGA,005552.00,3531.2661,N,13930.2242,E,1,00,0.0,91.789246,M,0.0,M,,*5C
$GPGLL,3531.2661,N,13930.2242,E,005552.00,A,*26
$GPGSA,A,3,,,,,,,,,,,,,0.0,0.0,0.0*32
$GPRMC,005557.00,A,3531.2446,N,13930.1997,E,21.041413,222.800742,020818,,*07
$GPGGA,005557.00,3531.2446,N,13930.1997,E,1,00,0.0,92.418976,M,0.0,M,,*5E
$GPGLL,3531.2446,N,13930.1997,E,005557.00,A,*24
$GPGSA,A,3,,,,,,,,,,,,,0.0,0.0,0.0*32
$GPRMC,005602.00,A,3531.2244,N,13930.1769,E,18.348125,222.573707,020818,,*07
$GPGGA,005602.00,3531.2244,N,13930.1769,E,1,00,0.0,92.964539,M,0.0,M,,*57
$GPGLL,3531.2244,N,13930.1769,E,005602.00,A,*2C
$GPGSA,A,3,,,,,,,,,,,,,0.0,0.0,0.0*32
$GPRMC,005607.00,A,3531.2064,N,13930.1558,E,17.979550,223.680447,020818,,*0A
$GPGGA,005607.00,3531.2064,N,13930.1558,E,1,00,0.0,92.754753,M,0.0,M,,*51
$GPGLL,3531.2064,N,13930.1558,E,005607.00,A,*29
$GPGSA,A,3,,,,,,,,,,,,,0.0,0.0,0.0*32
$GPRMC,005612.00,A,3531.1893,N,13930.1352,E,17.512614,224.460174,020818,,*0D
$GPGGA,005612.00,3531.1893,N,13930.1352,E,1,00,0.0,93.496056,M,0.0,M,,*54
$GPGLL,3531.1893,N,13930.1352,E,005612.00,A,*22
$GPGSA,A,3,,,,,,,,,,,,,0.0,0.0,0.0*32
$GPRMC,005617.00,A,3531.1707,N,13930.1128,E,20.036982,224.302313,020818,,*02
$GPGGA,005617.00,3531.1707,N,13930.1128,E,1,00,0.0,93.556717,M,0.0,M,,*53
$GPGLL,3531.1707,N,13930.1128,E,005617.00,A,*2A
$GPGSA,A,3,,,,,,,,,,,,,0.0,0.0,0.0*32
$GPRMC,005622.00,A,3531.1508,N,13930.0879,E,21.554479,225.543586,020818,,*04
$GPGGA,005622.00,3531.1508,N,13930.0879,E,1,00,0.0,93.754181,M,0.0,M,,*5D
$GPGLL,3531.1508,N,13930.0879,E,005622.00,A,*2D
$GPGSA,A,3,,,,,,,,,,,,,0.0,0.0,0.0*32
$GPRMC,005627.00,A,3531.1300,N,13930.0618,E,20.961397,225.585705,020818,,*09
$GPGGA,005627.00,3531.1300,N,13930.0618,E,1,00,0.0,93.898140,M,0.0,M,,*5D
$GPGLL,3531.1300,N,13930.0618,E,005627.00,A,*2F
$GPGSA,A,3,,,,,,,,,,,,,0.0,0.0,0.0*32
$GPRMC,005632.00,A,3531.1114,N,13930.0367,E,18.536440,227.771451,020818,,*06
$GPGGA,005632.00,3531.1114,N,13930.0367,E,1,00,0.0,94.105568,M,0.0,M,,*57
$GPGLL,3531.1114,N,13930.0367,E,005632.00,A,*21
$GPGSA,A,3,,,,,,,,,,,,,0.0,0.0,0.0*32
$GPRMC,005637.00,A,3531.0956,N,13930.0140,E,16.495600,229.526924,020818,,*0A
$GPGGA,005637.00,3531.0956,N,13930.0140,E,1,00,0.0,94.798492,M,0.0,M,,*5C
$GPGLL,3531.0956,N,13930.0140,E,005637.00,A,*2C
$GPGSA,A,3,,,,,,,,,,,,,0.0,0.0,0.0*32
$GPRMC,005642.00,A,3531.0824,N,13929.9934,E,14.836779,231.654106,020818,,*09
$GPGGA,005642.00,3531.0824,N,13929.9934,E,1,00,0.0,95.316574,M,0.0,M,,*5A
$GPGLL,3531.0824,N,13929.9934,E,005642.00,A,*20
$GPGSA,A,3,,,,,,,,,,,,,0.0,0.0,0.0*32
$GPRMC,005647.00,A,3531.0699,N,13929.9735,E,13.187453,232.390524,020818,,*0E
$GPGGA,005647.00,3531.0699,N,13929.9735,E,1,00,0.0,95.769585,M,0.0,M,,*5A
$GPGLL,3531.0699,N,13929.9735,E,005647.00,A,*22
$GPGSA,A,3,,,,,,,,,,,,,0.0,0.0,0.0*32
$GPRMC,005652.00,A,3531.0608,N,13929.9586,E,10.153287,233.080320,020818,,*0C
$GPGGA,005652.00,3531.0608,N,13929.9586,E,1,00,0.0,95.531548,M,0.0,M,,*52
$GPGLL,3531.0608,N,13929.9586,E,005652.00,A,*24
$GPGSA,A,3,,,,,,,,,,,,,0.0,0.0,0.0*32
$GPRMC,005657.00,A,3531.0523,N,13929.9445,E,11.867167,233.520501,020818,,*05
$GPGGA,005657.00,3531.0523,N,13929.9445,E,1,00,0.0,96.657410,M,0.0,M,,*5F
$GPGLL,3531.0523,N,13929.9445,E,005657.00,A,*25
$GPGSA,A,3,,,,,,,,,,,,,0.0,0.0,0.0*32
$GPRMC,005702.00,A,3531.0403,N,13929.9234,E,17.303710,235.005887,020818,,*09
$GPGGA,005702.00,3531.0403,N,13929.9234,E,1,00,0.0,97.272491,M,0.0,M,,*56
$GPGLL,3531.0403,N,13929.9234,E,005702.00,A,*27
$GPGSA,A,3,,,,,,,,,,,,,0.0,0.0,0.0*32
$GPRMC,005707.00,A,3531.0274,N,13929.9006,E,14.271298,235.322617,020818,,*0A
$GPGGA,005707.00,3531.0274,N,13929.9006,E,1,00,0.0,97.581566,M,0.0,M,,*54
$GPGLL,3531.0274,N,13929.9006,E,005707.00,A,*27
$GPGSA,A,3,,,,,,,,,,,,,0.0,0.0,0.0*32
$GPRMC,005712.00,A,3531.0186,N,13929.8852,E,5.521395,234.768934,020818,,*33
$GPGGA,005712.00,3531.0186,N,13929.8852,E,1,00,0.0,97.677979,M,0.0,M,,*5E
$GPGLL,3531.0186,N,13929.8852,E,005712.00,A,*25
$GPGSA,A,3,,,,,,,,,,,,,0.0,0.0,0.0*32
$GPRMC,005717.00,A,3531.0168,N,13929.8810,E,3.118264,242.970903,020818,,*35
$GPGGA,005717.00,3531.0168,N,13929.8810,E,1,00,0.0,96.818718,M,0.0,M,,*52
$GPGLL,3531.0168,N,13929.8810,E,005717.00,A,*26
$GPGSA,A,3,,,,,,,,,,,,,0.0,0.0,0.0*32
$GPRMC,005722.00,A,3531.0125,N,13929.8728,E,7.340119,236.747296,020818,,*32
$GPGGA,005722.00,3531.0125,N,13929.8728,E,1,00,0.0,96.980164,M,0.0,M,,*54
$GPGLL,3531.0125,N,13929.8728,E,005722.00,A,*2D
$GPGSA,A,3,,,,,,,,,,,,,0.0,0.0,0.0*32
$GPRMC,005727.00,A,3531.0055,N,13929.8594,E,10.972538,237.284606,020818,,*08
$GPGGA,005727.00,3531.0055,N,13929.8594,E,1,00,0.0,97.650894,M,0.0,M,,*57
$GPGLL,3531.0055,N,13929.8594,E,005727.00,A,*2B
$GPGSA,A,3,,,,,,,,,,,,,0.0,0.0,0.0*32
$GPRMC,005732.00,A,3530.9978,N,13929.8431,E,11.360625,239.780027,020818,,*01
$GPGGA,005732.00,3530.9978,N,13929.8431,E,1,00,0.0,98.161774,M,0.0,M,,*58
$GPGLL,3530.9978,N,13929.8431,E,005732.00,A,*2F
$GPGSA,A,3,,,,,,,,,,,,,0.0,0.0,0.0*32
$GPRMC,005737.00,A,3530.9889,N,13929.8249,E,12.231697,239.156218,020818,,*0E
$GPGGA,005737.00,3530.9889,N,13929.8249,E,1,00,0.0,98.698502,M,0.0,M,,*59
$GPGLL,3530.9889,N,13929.8249,E,005737.00,A,*2C
$GPGSA,A,3,,,,,,,,,,,,,0.0,0.0,0.0*32
$GPRMC,005742.00,A,3530.9806,N,13929.8072,E,12.564218,240.132506,020818,,*01
$GPGGA,005742.00,3530.9806,N,13929.8072,E,1,00,0.0,99.077148,M,0.0,M,,*5A
$GPGLL,3530.9806,N,13929.8072,E,005742.00,A,*23
$GPGSA,A,3,,,,,,,,,,,,,0.0,0.0,0.0*32
$GPRMC,005747.00,A,3530.9724,N,13929.7882,E,12.366322,241.955703,020818,,*00
$GPGGA,005747.00,3530.9724,N,13929.7882,E,1,00,0.0,99.388847,M,0.0,M,,*5D
$GPGLL,3530.9724,N,13929.7882,E,005747.00,A,*21
$GPGSA,A,3,,,,,,,,,,,,,0.0,0.0,0.0*32
$GPRMC,005752.00,A,3530.9653,N,13929.7706,E,10.943948,243.624140,020818,,*05
$GPGGA,005752.00,3530.9653,N,13929.7706,E,1,00,0.0,100.079872,M,0.0,M,,*61
$GPGLL,3530.9653,N,13929.7706,E,005752.00,A,*27
$GPGSA,A,3,,,,,,,,,,,,,0.0,0.0,0.0*32
$GPRMC,005757.00,A,3530.9592,N,13929.7551,E,9.677707,244.130418,020818,,*36
$GPGGA,005757.00,3530.9592,N,13929.7551,E,1,00,0.0,100.581032,M,0.0,M,,*64
$GPGLL,3530.9592,N,13929.7551,E,005757.00,A,*2C
$GPGSA,A,3,,,,,,,,,,,,,0.0,0.0,0.0*32
$GPRMC,005802.00,A,3530.9536,N,13929.7422,E,8.634062,242.000204,020818,,*3F
$GPGGA,005802.00,3530.9536,N,13929.7422,E,1,00,0.0,99.442619,M,0.0,M,,*50
$GPGLL,3530.9536,N,13929.7422,E,005802.00,A,*28
$GPGSA,A,3,,,,,,,,,,,,,0.0,0.0,0.0*32
$GPRMC,005807.00,A,3530.9482,N,13929.7288,E,8.596833,243.557648,020818,,*3F
$GPGGA,005807.00,3530.9482,N,13929.7288,E,1,00,0.0,99.180817,M,0.0,M,,*56
$GPGLL,3530.9482,N,13929.7288,E,005807.00,A,*25
$GPGSA,A,3,,,,,,,,,,,,,0.0,0.0,0.0*32
$GPRMC,005812.00,A,3530.9434,N,13929.7167,E,8.009495,243.994486,020818,,*34
$GPGGA,005812.00,3530.9434,N,13929.7167,E,1,00,0.0,98.976555,M,0.0,M,,*56
$GPGLL,3530.9434,N,13929.7167,E,005812.00,A,*2E
$GPGSA,A,3,,,,,,,,,,,,,0.0,0.0,0.0*32
$GPRMC,005817.00,A,3530.9380,N,13929.7013,E,11.339109,246.927176,020818,,*04
$GPGGA,005817.00,3530.9380,N,13929.7013,E,1,00,0.0,99.069649,M,0.0,M,,*51
$GPGLL,3530.9380,N,13929.7013,E,005817.00,A,*21
$GPGSA,A,3,,,,,,,,,,,,,0.0,0.0,0.0*32
$GPRMC,005822.00,A,3530.9311,N,13929.6817,E,14.321832,246.618473,020818,,*09
$GPGGA,005822.00,3530.9311,N,13929.6817,E,1,00,0.0,99.228188,M,0.0,M,,*5F
$GPGLL,3530.9311,N,13929.6817,E,005822.00,A,*22
$GPGSA,A,3,,,,,,,,,,,,,0.0,0.0,0.0*32
$GPRMC,005827.00,A,3530.9226,N,13929.6591,E,15.281061,245.168666,020818,,*0B
$GPGGA,005827.00,3530.9226,N,13929.6591,E,1,00,0.0,99.415344,M,0.0,M,,*56
$GPGLL,3530.9226,N,13929.6591,E,005827.00,A,*21
$GPGSA,A,3,,,,,,,,,,,,,0.0,0.0,0.0*32
$GPRMC,005832.00,A,3530.9141,N,13929.6358,E,14.929148,245.712852,020818,,*0E
$GPGGA,005832.00,3530.9141,N,13929.6358,E,1,00,0.0,99.302208,M,0.0,M,,*5B
$GPGLL,3530.9141,N,13929.6358,E,005832.00,A,*24
$GPGSA,A,3,,,,,,,,,,,,,0.0,0.0,0.0*32
$GPRMC,005837.00,A,3530.9051,N,13929.6116,E,15.459098,245.496770,020818,,*04
$GPGGA,005837.00,3530.9051,N,13929.6116,E,1,00,0.0,99.345070,M,0.0,M,,*58
$GPGLL,3530.9051,N,13929.6116,E,005837.00,A,*29
$GPGSA,A,3,,,,,,,,,,,,,0.0,0.0,0.0*32
$GPRMC,005842.00,A,3530.8960,N,13929.5864,E,16.385857,246.240274,020818,,*02
$GPGGA,005842.00,3530.8960,N,13929.5864,E,1,00,0.0,99.861008,M,0.0,M,,*5D
$GPGLL,3530.8960,N,13929.5864,E,005842.00,A,*2E
$GPGSA,A,3,,,,,,,,,,,,,0.0,0.0,0.0*32
$GPRMC,005847.00,A,3530.8870,N,13929.5617,E,15.169306,245.767940,020818,,*0E
$GPGGA,005847.00,3530.8870,N,13929.5617,E,1,00,0.0,100.247353,M,0.0,M,,*60
$GPGLL,3530.8870,N,13929.5617,E,005847.00,A,*21
$GPGSA,A,3,,,,,,,,,,,,,0.0,0.0,0.0*32
$GPRMC,005852.00,A,3530.8784,N,13929.5395,E,13.949703,244.630874,020818,,*08
$GPGGA,005852.00,3530.8784,N,13929.5395,E,1,00,0.0,100.352417,M,0.0,M,,*6D
$GPGLL,3530.8784,N,13929.5395,E,005852.00,A,*2E
$GPGSA,A,3,,,,,,,,,,,,,0.0,0.0,0.0*32
$GPRMC,005857.00,A,3530.8701,N,13929.5181,E,14.328896,244.469546,020818,,*0C
$GPGGA,005857.00,3530.8701,N,13929.5181,E,1,00,0.0,100.014542,M,0.0,M,,*62
$GPGLL,3530.8701,N,13929.5181,E,005857.00,A,*21
$GPGSA,A,3,,,,,,,,,,,,,0.0,0.0,0.0*32
$GPRMC,005902.00,A,3530.8617,N,13929.4967,E,13.097306,244.355515,020818,,*06
$GPGGA,005902.00,3530.8617,N,13929.4967,E,1,00,0.0,100.230225,M,0.0,M,,*66
$GPGLL,3530.8617,N,13929.4967,E,005902.00,A,*27
$GPGSA,A,3,,,,,,,,,,,,,0.0,0.0,0.0*32
$GPRMC,005907.00,A,3530.8537,N,13929.4776,E,11.516141,242.772507,020818,,*07
$GPGGA,005907.00,3530.8537,N,13929.4776,E,1,00,0.0,100.232239,M,0.0,M,,*63
$GPGLL,3530.8537,N,13929.4776,E,005907.00,A,*2D
$GPGSA,A,3,,,,,,,,,,,,,0.0,0.0,0.0*32
$GPRMC,005912.00,A,3530.8455,N,13929.4588,E,13.591839,241.579390,020818,,*0C
$GPGGA,005912.00,3530.8455,N,13929.4588,E,1,00,0.0,100.458015,M,0.0,M,,*67
$GPGLL,3530.8455,N,13929.4588,E,005912.00,A,*2F
$GPGSA,A,3,,,,,,,,,,,,,0.0,0.0,0.0*32
$GPRMC,005917.00,A,3530.8363,N,13929.4387,E,12.951190,240.776622,020818,,*09
$GPGGA,005917.00,3530.8363,N,13929.4387,E,1,00,0.0,100.705643,M,0.0,M,,*67
$GPGLL,3530.8363,N,13929.4387,E,005917.00,A,*21
$GPGSA,A,3,,,,,,,,,,,,,0.0,0.0,0.0*32
$GPRMC,005922.00,A,3530.8278,N,13929.4209,E,11.095651,239.519839,020818,,*0A
$GPGGA,005922.00,3530.8278,N,13929.4209,E,1,00,0.0,101.145531,M,0.0,M,,*68
$GPGLL,3530.8278,N,13929.4209,E,005922.00,A,*2B
$GPGSA,A,3,,,,,,,,,,,,,0.0,0.0,0.0*32
$GPRMC,005927.00,A,3530.8196,N,13929.4062,E,10.220749,235.583187,020818,,*05
$GPGGA,005927.00,3530.8196,N,13929.4062,E,1,00,0.0,101.226608,M,0.0,M,,*6E
$GPGLL,3530.8196,N,13929.4062,E,005927.00,A,*22
$GPGSA,A,3,,,,,,,,,,,,,0.0,0.0,0.0*32
$GPRMC,005932.00,A,3530.8152,N,13929.3976,E,3.444288,237.642117,020818,,*39
$GPGGA,005932.00,3530.8152,N,13929.3976,E,1,00,0.0,101.042130,M,0.0,M,,*65
$GPGLL,3530.8152,N,13929.3976,E,005932.00,A,*25
$GPGSA,A,3,,,,,,,,,,,,,0.0,0.0,0.0*32
$GPRMC,005937.00,A,3530.8111,N,13929.3904,E,7.452653,235.624244,020818,,*38
$GPGGA,005937.00,3530.8111,N,13929.3904,E,1,00,0.0,100.706818,M,0.0,M,,*67
$GPGLL,3530.8111,N,13929.3904,E,005937.00,A,*22
$GPGSA,A,3,,,,,,,,,,,,,0.0,0.0,0.0*32
$GPRMC,005942.00,A,3530.8044,N,13929.3788,E,9.596302,234.440550,020818,,*34
$GPGGA,005942.00,3530.8044,N,13929.3788,E,1,00,0.0,100.174713,M,0.0,M,,*69
$GPGLL,3530.8044,N,13929.3788,E,005942.00,A,*2B
$GPGSA,A,3,,,,,,,,,,,,,0.0,0.0,0.0*32
$GPRMC,005947.00,A,3530.7973,N,13929.3658,E,8.417338,236.181843,020818,,*3A
$GPGGA,005947.00,3530.7973,N,13929.3658,E,1,00,0.0,100.138451,M,0.0,M,,*6F
$GPGLL,3530.7973,N,13929.3658,E,005947.00,A,*20
$GPGSA,A,3,,,,,,,,,,,,,0.0,0.0,0.0*32
$GPRMC,005952.00,A,3530.7910,N,13929.3553,E,7.256209,233.815693,020818,,*3E
$GPGGA,005952.00,3530.7910,N,13929.3553,E,1,00,0.0,100.203316,M,0.0,M,,*69
$GPGLL,3530.7910,N,13929.3553,E,005952.00,A,*29
$GPGSA,A,3,,,,,,,,,,,,,0.0,0.0,0.0*32
$GPRMC,005957.00,A,3530.7863,N,13929.3474,E,5.204260,233.904038,020818,,*36
$GPGGA,005957.00,3530.7863,N,13929.3474,E,1,00,0.0,100.504387,M,0.0,M,,*65
$GPGLL,3530.7863,N,13929.3474,E,005957.00,A,*2D
$GPGSA,A,3,,,,,,,,,,,,,0.0,0.0,0.0*32
$GPRMC,010002.00,A,3530.7808,N,13929.3379,E,8.071725,234.267911,020818,,*3E
$GPGGA,010002.00,3530.7808,N,13929.3379,E,1,00,0.0,100.966858,M,0.0,M,,*6E
$GPGLL,3530.7808,N,13929.3379,E,010002.00,A,*27
$GPGSA,A,3,,,,,,,,,,,,,0.0,0.0,0.0*32
$GPRMC,010007.00,A,3530.7734,N,13929.3270,E,7.786490,230.055292,020818,,*39
$GPGGA,010007.00,3530.7734,N,13929.3270,E,1,00,0.0,100.752945,M,0.0,M,,*67
$GPGLL,3530.7734,N,13929.3270,E,010007.00,A,*2A
$GPGSA,A,3,,,,,,,,,,,,,0.0,0.0,0.0*32
$GPRMC,010012.00,A,3530.7684,N,13929.3194,E,2.861392,231.246949,020818,,*34
$GPGGA,010012.00,3530.7684,N,13929.3194,E,1,00,0.0,101.054596,M,0.0,M,,*62
$GPGLL,3530.7684,N,13929.3194,E,010012.00,A,*2D
$GPGSA,A,3,,,,,,,,,,,,,0.0,0.0,0.0*32
$GPRMC,010017.00,A,3530.7652,N,13929.3140,E,5.865671,234.242116,020818,,*3B
$GPGGA,010017.00,3530.7652,N,13929.3140,E,1,00,0.0,101.531487,M,0.0,M,,*62
$GPGLL,3530.7652,N,13929.3140,E,010017.00,A,*2A
$GPGSA,A,3,,,,,,,,,,,,,0.0,0.0,0.0*32
$GPRMC,010022.00,A,3530.7573,N,13929.3017,E,11.157655,231.361677,020818,,*00
$GPGGA,010022.00,3530.7573,N,13929.3017,E,1,00,0.0,101.935066,M,0.0,M,,*64
$GPGLL,3530.7573,N,13929.3017,E,010022.00,A,*2F
$GPGSA,A,3,,,,,,,,,,,,,0.0,0.0,0.0*32
$GPRMC,010027.00,A,3530.7458,N,13929.2864,E,12.160189,227.562285,020818,,*0A
$GPGGA,010027.00,3530.7458,N,13929.2864,E,1,00,0.0,102.300774,M,0.0,M,,*6F
$GPGLL,3530.7458,N,13929.2864,E,010027.00,A,*2F
$GPGSA,A,3,,,,,,,,,,,,,0.0,0.0,0.0*32
$GPRMC,010032.00,A,3530.7345,N,13929.2728,E,10.486785,224.126528,020818,,*00
$GPGGA,010032.00,3530.7345,N,13929.2728,E,1,00,0.0,102.449722,M,0.0,M,,*6E
$GPGLL,3530.7345,N,13929.2728,E,010032.00,A,*27
$GPGSA,A,3,,,,,,,,,,,,,0.0,0.0,0.0*32
$GPRMC,010037.00,A,3530.7248,N,13929.2614,E,9.861519,224.033612,020818,,*32
$GPGGA,010037.00,3530.7248,N,13929.2614,E,1,00,0.0,102.839745,M,0.0,M,,*63
$GPGLL,3530.7248,N,13929.2614,E,010037.00,A,*20
$GPGSA,A,3,,,,,,,,,,,,,0.0,0.0,0.0*32
$GPRMC,010042.00,A,3530.7141,N,13929.2498,E,11.118331,221.498161,020818,,*0D
$GPGGA,010042.00,3530.7141,N,13929.2498,E,1,00,0.0,102.524872,M,0.0,M,,*67
$GPGLL,3530.7141,N,13929.2498,E,010042.00,A,*2E
$GPGSA,A,3,,,,,,,,,,,,,0.0,0.0,0.0*32
$GPRMC,010047.00,A,3530.7008,N,13929.2355,E,13.980483,220.982830,020818,,*0D
$GPGGA,010047.00,3530.7008,N,13929.2355,E,1,00,0.0,102.412628,M,0.0,M,,*6D
$GPGLL,3530.7008,N,13929.2355,E,010047.00,A,*21
$GPGSA,A,3,,,,,,,,,,,,,0.0,0.0,0.0*32
$GPRMC,010052.00,A,3530.6867,N,13929.2208,E,12.720146,220.236130,020818,,*04
$GPGGA,010052.00,3530.6867,N,13929.2208,E,1,00,0.0,102.730148,M,0.0,M,,*62
$GPGLL,3530.6867,N,13929.2208,E,010052.00,A,*2C
$GPGSA,A,3,,,,,,,,,,,,,0.0,0.0,0.0*32
$GPRMC,010057.00,A,3530.6746,N,13929.2084,E,10.499235,219.873106,020818,,*0B
$GPGGA,010057.00,3530.6746,N,13929.2084,E,1,00,0.0,103.233276,M,0.0,M,,*64
$GPGLL,3530.6746,N,13929.2084,E,010057.00,A,*23
$GPGSA,A,3,,,,,,,,,,,,,0.0,0.0,0.0*32
$GPRMC,010102.00,A,3530.6624,N,13929.1962,E,12.006310,219.301730,020818,,*06
$GPGGA,010102.00,3530.6624,N,13929.1962,E,1,00,0.0,103.813416,M,0.0,M,,*6A
$GPGLL,3530.6624,N,13929.1962,E,010102.00,A,*25
$GPGSA,A,3,,,,,,,,,,,,,0.0,0.0,0.0*32
$GPRMC,010107.00,A,3530.6469,N,13929.1810,E,14.868406,218.582809,020818,,*03
$GPGGA,010107.00,3530.6469,N,13929.1810,E,1,00,0.0,104.569679,M,0.0,M,,*6C
$GPGLL,3530.6469,N,13929.1810,E,010107.00,A,*2F
$GPGSA,A,3,,,,,,,,,,,,,0.0,0.0,0.0*32
$GPRMC,010112.00,A,3530.6322,N,13929.1669,E,12.668590,217.882270,020818,,*0F
$GPGGA,010112.00,3530.6322,N,13929.1669,E,1,00,0.0,105.067574,M,0.0,M,,*64
$GPGLL,3530.6322,N,13929.1669,E,010112.00,A,*23
$GPGSA,A,3,,,,,,,,,,,,,0.0,0.0,0.0*32
$GPRMC,010117.00,A,3530.6169,N,13929.1536,E,14.067803,215.349513,020818,,*0A
$GPGGA,010117.00,3530.6169,N,13929.1536,E,1,00,0.0,105.755852,M,0.0,M,,*6A
$GPGLL,3530.6169,N,13929.1536,E,010117.00,A,*22
$GPGSA,A,3,,,,,,,,,,,,,0.0,0.0,0.0*32
$GPRMC,010122.00,A,3530.6016,N,13929.1413,E,12.164651,213.195306,020818,,*09
$GPGGA,010122.00,3530.6016,N,13929.1413,E,1,00,0.0,106.257683,M,0.0,M,,*65
$GPGLL,3530.6016,N,13929.1413,E,010122.00,A,*2B
$GPGSA,A,3,,,,,,,,,,,,,0.0,0.0,0.0*32
$GPRMC,010127.00,A,3530.5889,N,13929.1302,E,10.013876,215.452876,020818,,*0A
$GPGGA,010127.00,3530.5889,N,13929.1302,E,1,00,0.0,107.024414,M,0.0,M,,*61
$GPGLL,3530.5889,N,13929.1302,E,010127.00,A,*24
$GPGSA,A,3,,,,,,,,,,,,,0.0,0.0,0.0*32
$GPRMC,010132.00,A,3530.5787,N,13929.1225,E,7.262549,211.650208,020818,,*3F
$GPGGA,010132.00,3530.5787,N,13929.1225,E,1,00,0.0,107.598503,M,0.0,M,,*65
$GPGLL,3530.5787,N,13929.1225,E,010132.00,A,*25
$GPGSA,A,3,,,,,,,,,,,,,0.0,0.0,0.0*32
$GPRMC,010137.00,A,3530.5680,N,13929.1143,E,12.209110,211.906812,020818,,*03
$GPGGA,010137.00,3530.5680,N,13929.1143,E,1,00,0.0,107.776833,M,0.0,M,,*69
$GPGLL,3530.5680,N,13929.1143,E,010137.00,A,*25
$GPGSA,A,3,,,,,,,,,,,,,0.0,0.0,0.0*32
$GPRMC,010142.00,A,3530.5534,N,13929.1033,E,12.603468,211.667265,020818,,*0D
$GPGGA,010142.00,3530.5534,N,13929.1033,E,1,00,0.0,108.317848,M,0.0,M,,*61
$GPGLL,3530.5534,N,13929.1033,E,010142.00,A,*2D
$GPGSA,A,3,,,,,,,,,,,,,0.0,0.0,0.0*32
$GPRMC,010147.00,A,3530.5380,N,13929.0915,E,11.499070,211.832455,020818,,*09
$GPGGA,010147.00,3530.5380,N,13929.0915,E,1,00,0.0,109.210297,M,0.0,M,,*6E
$GPGLL,3530.5380,N,13929.0915,E,010147.00,A,*2D
$GPGSA,A,3,,,,,,,,,,,,,0.0,0.0,0.0*32
$GPRMC,010152.00,A,3530.5241,N,13929.0819,E,13.215556,209.267190,020818,,*02
$GPGGA,010152.00,3530.5241,N,13929.0819,E,1,00,0.0,109.744461,M,0.0,M,,*60
$GPGLL,3530.5241,N,13929.0819,E,010152.00,A,*28
$GPGSA,A,3,,,,,,,,,,,,,0.0,0.0,0.0*32
$GPRMC,010157.00,A,3530.5076,N,13929.0698,E,13.173768,210.770252,020818,,*0C
$GPGGA,010157.00,3530.5076,N,13929.0698,E,1,00,0.0,110.416626,M,0.0,M,,*69
$GPGLL,3530.5076,N,13929.0698,E,010157.00,A,*2C
$GPGSA,A,3,,,,,,,,,,,,,0.0,0.0,0.0*32
$GPRMC,010202.00,A,3530.4934,N,13929.0592,E,11.836800,211.329623,020818,,*08
$GPGGA,010202.00,3530.4934,N,13929.0592,E,1,00,0.0,111.299652,M,0.0,M,,*6E
$GPGLL,3530.4934,N,13929.0592,E,010202.00,A,*28
$GPGSA,A,3,,,,,,,,,,,,,0.0,0.0,0.0*32
$GPRMC,010207.00,A,3530.4797,N,13929.0492,E,10.214298,210.897518,020818,,*0F
$GPGGA,010207.00,3530.4797,N,13929.0492,E,1,00,0.0,111.675476,M,0.0,M,,*6F
$GPGLL,3530.4797,N,13929.0492,E,010207.00,A,*2B
$GPGSA,A,3,,,,,,,,,,,,,0.0,0.0,0.0*32
$GPRMC,010212.00,A,3530.4675,N,13929.0395,E,9.942092,212.828779,020818,,*3D
$GPGGA,010212.00,3530.4675,N,13929.0395,E,1,00,0.0,112.137238,M,0.0,M,,*68
$GPGLL,3530.4675,N,13929.0395,E,010212.00,A,*22
$GPGSA,A,3,,,,,,,,,,,,,0.0,0.0,0.0*32
$GPRMC,010217.00,A,3530.4574,N,13929.0318,E,8.410851,211.827510,020818,,*32
$GPGGA,010217.00,3530.4574,N,13929.0318,E,1,00,0.0,112.493416,M,0.0,M,,*6B
$GPGLL,3530.4574,N,13929.0318,E,010217.00,A,*20
$GPGSA,A,3,,,,,,,,,,,,,0.0,0.0,0.0*32
$GPRMC,010222.00,A,3530.4455,N,13929.0228,E,12.113629,211.493891,020818,,*0F
$GPGGA,010222.00,3530.4455,N,13929.0228,E,1,00,0.0,113.342491,M,0.0,M,,*68
$GPGLL,3530.4455,N,13929.0228,E,010222.00,A,*26
$GPGSA,A,3,,,,,,,,,,,,,0.0,0.0,0.0*32
$GPRMC,010227.00,A,3530.4293,N,13929.0100,E,14.930300,212.737353,020818,,*05
$GPGGA,010227.00,3530.4293,N,13929.0100,E,1,00,0.0,114.418419,M,0.0,M,,*67
$GPGLL,3530.4293,N,13929.0100,E,010227.00,A,*26
$GPGSA,A,3,,,,,,,,,,,,,0.0,0.0,0.0*32
$GPRMC,010232.00,A,3530.4105,N,13928.9953,E,16.381554,212.468695,020818,,*08
$GPGGA,010232.00,3530.4105,N,13928.9953,E,1,00,0.0,115.078682,M,0.0,M,,*6A
$GPGLL,3530.4105,N,13928.9953,E,010232.00,A,*28
$GPGSA,A,3,,,,,,,,,,,,,0.0,0.0,0.0*32
$GPRMC,010237.00,A,3530.3907,N,13928.9792,E,17.906916,213.696671,020818,,*05
$GPGGA,010237.00,3530.3907,N,13928.9792,E,1,00,0.0,115.623260,M,0.0,M,,*61
$GPGLL,3530.3907,N,13928.9792,E,010237.00,A,*23
$GPGSA,A,3,,,,,,,,,,,,,0.0,0.0,0.0*32
$GPRMC,010242.00,A,3530.3687,N,13928.9611,E,20.047260,213.720903,020818,,*0E
$GPGGA,010242.00,3530.3687,N,13928.9611,E,1,00,0.0,116.503960,M,0.0,M,,*67
$GPGLL,3530.3687,N,13928.9611,E,010242.00,A,*2C
$GPGSA,A,3,,,,,,,,,,,,,0.0,0.0,0.0*32
$GPRMC,010247.00,A,3530.3459,N,13928.9412,E,19.164450,215.360231,020818,,*08
$GPGGA,010247.00,3530.3459,N,13928.9412,E,1,00,0.0,117.577499,M,0.0,M,,*6B
$GPGLL,3530.3459,N,13928.9412,E,010247.00,A,*29
$GPGSA,A,3,,,,,,,,,,,,,0.0,0.0,0.0*32
$GPRMC,010252.00,A,3530.3286,N,13928.9228,E,16.630652,220.963106,020818,,*06
$GPGGA,010252.00,3530.3286,N,13928.9228,E,1,00,0.0,118.619774,M,0.0,M,,*60
$GPGLL,3530.3286,N,13928.9228,E,010252.00,A,*26
$GPGSA,A,3,,,,,,,,,,,,,0.0,0.0,0.0*32
$GPRMC,010257.00,A,3530.3087,N,13928.9057,E,14.543891,214.838812,020818,,*0A
$GPGGA,010257.00,3530.3087,N,13928.9057,E,1,00,0.0,119.659019,M,0.0,M,,*65
$GPGLL,3530.3087,N,13928.9057,E,010257.00,A,*2A
$GPGSA,A,3,,,,,,,,,,,,,0.0,0.0,0.0*32
$GPRMC,010302.00,A,3530.2905,N,13928.8883,E,17.777107,217.986047,020818,,*06
$GPGGA,010302.00,3530.2905,N,13928.8883,E,1,00,0.0,119.992157,M,0.0,M,,*65
$GPGLL,3530.2905,N,13928.8883,E,010302.00,A,*29
$GPGSA,A,3,,,,,,,,,,,,,0.0,0.0,0.0*32
$GPRMC,010307.00,A,3530.2692,N,13928.8663,E,20.823102,220.136999,020818,,*00
$GPGGA,010307.00,3530.2692,N,13928.8663,E,1,00,0.0,120.218651,M,0.0,M,,*63
$GPGLL,3530.2692,N,13928.8663,E,010307.00,A,*2D
$GPGSA,A,3,,,,,,,,,,,,,0.0,0.0,0.0*32
$GPRMC,010312.00,A,3530.2468,N,13928.8427,E,21.889540,220.603507,020818,,*08
$GPGGA,010312.00,3530.2468,N,13928.8427,E,1,00,0.0,120.398300,M,0.0,M,,*6A
$GPGLL,3530.2468,N,13928.8427,E,010312.00,A,*2C
$GPGSA,A,3,,,,,,,,,,,,,0.0,0.0,0.0*32
$GPRMC,010317.00,A,3530.2220,N,13928.8165,E,24.799644,220.713278,020818,,*07
$GPGGA,010317.00,3530.2220,N,13928.8165,E,1,00,0.0,119.745766,M,0.0,M,,*6C
$GPGLL,3530.2220,N,13928.8165,E,010317.00,A,*20
$GPGSA,A,3,,,,,,,,,,,,,0.0,0.0,0.0*32
$GPRMC,010322.00,A,3530.1962,N,13928.7882,E,24.407834,221.632435,020818,,*01
$GPGGA,010322.00,3530.1962,N,13928.7882,E,1,00,0.0,119.083755,M,0.0,M,,*66
$GPGLL,3530.1962,N,13928.7882,E,010322.00,A,*27
$GPGSA,A,3,,,,,,,,,,,,,0.0,0.0,0.0*32
$GPRMC,010327.00,A,3530.1712,N,13928.7604,E,24.069803,222.213417,020818,,*01
$GPGGA,010327.00,3530.1712,N,13928.7604,E,1,00,0.0,117.982109,M,0.0,M,,*63
$GPGLL,3530.1712,N,13928.7604,E,010327.00,A,*2B
$GPGSA,A,3,,,,,,,,,,,,,0.0,0.0,0.0*32
$GPRMC,010332.00,A,3530.1453,N,13928.7316,E,26.530599,222.222825,020818,,*0F
$GPGGA,010332.00,3530.1453,N,13928.7316,E,1,00,0.0,116.523674,M,0.0,M,,*6C
$GPGLL,3530.1453,N,13928.7316,E,010332.00,A,*2F
$GPGSA,A,3,,,,,,,,,,,,,0.0,0.0,0.0*32
$GPRMC,010337.00,A,3530.1167,N,13928.7004,E,27.597866,221.506770,020818,,*04
$GPGGA,010337.00,3530.1167,N,13928.7004,E,1,00,0.0,114.923752,M,0.0,M,,*60
$GPGLL,3530.1167,N,13928.7004,E,010337.00,A,*28
$GPGSA,A,3,,,,,,,,,,,,,0.0,0.0,0.0*32
$GPRMC,010342.00,A,3530.0876,N,13928.6697,E,27.570282,220.705384,020818,,*05
$GPGGA,010342.00,3530.0876,N,13928.6697,E,1,00,0.0,113.272118,M,0.0,M,,*67
$GPGLL,3530.0876,N,13928.6697,E,010342.00,A,*2F
$GPGSA,A,3,,,,,,,,,,,,,0.0,0.0,0.0*32
$GPRMC,010347.00,A,3530.0576,N,13928.6401,E,27.721236,218.697167,020818,,*07
$GPGGA,010347.00,3530.0576,N,13928.6401,E,1,00,0.0,111.694382,M,0.0,M,,*6D
$GPGLL,3530.0576,N,13928.6401,E,010347.00,A,*2A
$GPGSA,A,3,,,,,,,,,,,,,0.0,0.0,0.0*32
$GPRMC,010352.00,A,3530.0278,N,13928.6118,E,25.921511,217.745908,020818,,*09
$GPGGA,010352.00,3530.0278,N,13928.6118,E,1,00,0.0,110.648003,M,0.0,M,,*67
$GPGLL,3530.0278,N,13928.6118,E,010352.00,A,*2A
$GPGSA,A,3,,,,,,,,,,,,,0.0,0.0,0.0*32
$GPRMC,010357.00,A,3530.0005,N,13928.5879,E,23.925258,215.457406,020818,,*00
$GPGGA,010357.00,3530.0005,N,13928.5879,E,1,00,0.0,109.526955,M,0.0,M,,*6E
$GPGLL,3530.0005,N,13928.5879,E,010357.00,A,*2A
$GPGSA,A,3,,,,,,,,,,,,,0.0,0.0,0.0*32
$GPRMC,010402.00,A,3529.9728,N,13928.5650,E,23.831347,214.043473,020818,,*02
$GPGGA,010402.00,3529.9728,N,13928.5650,E,1,00,0.0,108.432007,M,0.0,M,,*6E
$GPGLL,3529.9728,N,13928.5650,E,010402.00,A,*21
$GPGSA,A,3,,,,,,,,,,,,,0.0,0.0,0.0*32
$GPRMC,010407.00,A,3529.9441,N,13928.5426,E,25.337660,212.367614,020818,,*03
$GPGGA,010407.00,3529.9441,N,13928.5426,E,1,00,0.0,107.479950,M,0.0,M,,*6F
$GPGLL,3529.9441,N,13928.5426,E,010407.00,A,*2B
$GPGSA,A,3,,,,,,,,,,,,,0.0,0.0,0.0*32
$GPRMC,010412.00,A,3529.9139,N,13928.5199,E,25.180318,211.545581,020818,,*02
$GPGGA,010412.00,3529.9139,N,13928.5199,E,1,00,0.0,107.001869,M,0.0,M,,*60
$GPGLL,3529.9139,N,13928.5199,E,010412.00,A,*24
$GPGSA,A,3,,,,,,,,,,,,,0.0,0.0,0.0*32
$GPRMC,010417.00,A,3529.8854,N,13928.4988,E,25.083251,210.970812,020818,,*0F
$GPGGA,010417.00,3529.8854,N,13928.4988,E,1,00,0.0,105.226677,M,0.0,M,,*6B
$GPGLL,3529.8854,N,13928.4988,E,010417.00,A,*2B
$GPGSA,A,3,,,,,,,,,,,,,0.0,0.0,0.0*32
$GPRMC,010422.00,A,3529.8561,N,13928.4794,E,20.583239,208.319096,020818,,*07
$GPGGA,010422.00,3529.8561,N,13928.4794,E,1,00,0.0,105.293777,M,0.0,M,,*6A
$GPGLL,3529.8561,N,13928.4794,E,010422.00,A,*25
$GPGSA,A,3,,,,,,,,,,,,,0.0,0.0,0.0*32
$GPRMC,010427.00,A,3529.8320,N,13928.4638,E,17.217678,207.789679,020818,,*0C
$GPGGA,010427.00,3529.8320,N,13928.4638,E,1,00,0.0,105.274162,M,0.0,M,,*60
$GPGLL,3529.8320,N,13928.4638,E,010427.00,A,*24
$GPGSA,A,3,,,,,,,,,,,,,0.0,0.0,0.0*32
$GPRMC,010432.00,A,3529.8108,N,13928.4508,E,15.169541,206.584565,020818,,*01
$GPGGA,010432.00,3529.8108,N,13928.4508,E,1,00,0.0,105.436241,M,0.0,M,,*6E
$GPGLL,3529.8108,N,13928.4508,E,010432.00,A,*28
$GPGSA,A,3,,,,,,,,,,,,,0.0,0.0,0.0*32
$GPRMC,010437.00,A,3529.7945,N,13928.4427,E,11.220541,202.132870,020818,,*08
$GPGGA,010437.00,3529.7945,N,13928.4427,E,1,00,0.0,105.420013,M,0.0,M,,*6B
$GPGLL,3529.7945,N,13928.4427,E,010437.00,A,*2F
$GPGSA,A,3,,,,,,,,,,,,,0.0,0.0,0.0*32
$GPRMC,010442.00,A,3529.7773,N,13928.4332,E,17.313636,204.243586,020818,,*01
$GPGGA,010442.00,3529.7773,N,13928.4332,E,1,00,0.0,105.295052,M,0.0,M,,*6C
$GPGLL,3529.7773,N,13928.4332,E,010442.00,A,*25
$GPGSA,A,3,,,,,,,,,,,,,0.0,0.0,0.0*32
$GPRMC,010447.00,A,3529.7524,N,13928.4198,E,19.701463,203.558260,020818,,*08
$GPGGA,010447.00,3529.7524,N,13928.4198,E,1,00,0.0,105.476715,M,0.0,M,,*64
$GPGLL,3529.7524,N,13928.4198,E,010447.00,A,*22
$GPGSA,A,3,,,,,,,,,,,,,0.0,0.0,0.0*32
$GPRMC,010452.00,A,3529.7269,N,13928.4067,E,18.851311,202.822663,020818,,*0C
$GPGGA,010452.00,3529.7269,N,13928.4067,E,1,00,0.0,105.468666,M,0.0,M,,*65
$GPGLL,3529.7269,N,13928.4067,E,010452.00,A,*29
$GPGSA,A,3,,,,,,,,,,,,,0.0,0.0,0.0*32
$GPRMC,010457.00,A,3529.7007,N,13928.3939,E,20.727852,201.664410,020818,,*06
$GPGGA,010457.00,3529.7007,N,13928.3939,E,1,00,0.0,105.462875,M,0.0,M,,*69
$GPGLL,3529.7007,N,13928.3939,E,010457.00,A,*23
$GPGSA,A,3,,,,,,,,,,,,,0.0,0.0,0.0*32
$GPRMC,010502.00,A,3529.6716,N,13928.3801,E,24.468511,201.110876,020818,,*05
$GPGGA,010502.00,3529.6716,N,13928.3801,E,1,00,0.0,105.164925,M,0.0,M,,*63
$GPGLL,3529.6716,N,13928.3801,E,010502.00,A,*2E
$GPGSA,A,3,,,,,,,,,,,,,0.0,0.0,0.0*32
$GPRMC,010507.00,A,3529.6371,N,13928.3639,E,28.131627,200.830133,020818,,*01
$GPGGA,010507.00,3529.6371,N,13928.3639,E,1,00,0.0,104.910255,M,0.0,M,,*60
$GPGLL,3529.6371,N,13928.3639,E,010507.00,A,*2B
$GPGSA,A,3,,,,,,,,,,,,,0.0,0.0,0.0*32
$GPRMC,010512.00,A,3529.5985,N,13928.3455,E,30.850958,201.300397,020818,,*0A
$GPGGA,010512.00,3529.5985,N,13928.3455,E,1,00,0.0,104.094833,M,0.0,M,,*61
$GPGLL,3529.5985,N,13928.3455,E,010512.00,A,*25
$GPGSA,A,3,,,,,,,,,,,,,0.0,0.0,0.0*32
$GPRMC,010517.00,A,3529.5572,N,13928.3256,E,32.769829,201.382673,020818,,*0B
$GPGGA,010517.00,3529.5572,N,13928.3256,E,1,00,0.0,103.955727,M,0.0,M,,*6C
$GPGLL,3529.5572,N,13928.3256,E,010517.00,A,*21
$GPGSA,A,3,,,,,,,,,,,,,0.0,0.0,0.0*32
$GPRMC,010522.00,A,3529.5148,N,13928.3036,E,32.959032,202.901767,020818,,*0D
$GPGGA,010522.00,3529.5148,N,13928.3036,E,1,00,0.0,103.718796,M,0.0,M,,*6E
$GPGLL,3529.5148,N,13928.3036,E,010522.00,A,*2E
$GPGSA,A,3,,,,,,,,,,,,,0.0,0.0,0.0*32
$GPRMC,010527.00,A,3529.4748,N,13928.2816,E,29.285618,204.181589,020818,,*0E
$GPGGA,010527.00,3529.4748,N,13928.2816,E,1,00,0.0,103.622910,M,0.0,M,,*6F
$GPGLL,3529.4748,N,13928.2816,E,010527.00,A,*27
$GPGSA,A,3,,,,,,,,,,,,,0.0,0.0,0.0*32
$GPRMC,010532.00,A,3529.4408,N,13928.2605,E,25.928854,206.728084,020818,,*08
$GPGGA,010532.00,3529.4408,N,13928.2605,E,1,00,0.0,104.012192,M,0.0,M,,*60
$GPGLL,3529.4408,N,13928.2605,E,010532.00,A,*28
$GPGSA,A,3,,,,,,,,,,,,,0.0,0.0,0.0*32
$GPRMC,010537.00,A,3529.4117,N,13928.2417,E,20.621926,207.781287,020818,,*03
$GPGGA,010537.00,3529.4117,N,13928.2417,E,1,00,0.0,103.428551,M,0.0,M,,*6E
$GPGLL,3529.4117,N,13928.2417,E,010537.00,A,*27
$GPGSA,A,3,,,,,,,,,,,,,0.0,0.0,0.0*32
$GPRMC,010542.00,A,3529.3892,N,13928.2252,E,18.621070,210.794006,020818,,*0D
$GPGGA,010542.00,3529.3892,N,13928.2252,E,1,00,0.0,103.299751,M,0.0,M,,*66
$GPGLL,3529.3892,N,13928.2252,E,010542.00,A,*21
$GPGSA,A,3,,,,,,,,,,,,,0.0,0.0,0.0*32
$GPRMC,010547.00,A,3529.3681,N,13928.2083,E,17.632870,213.208398,020818,,*08
$GPGGA,010547.00,3529.3681,N,13928.2083,E,1,00,0.0,103.876404,M,0.0,M,,*69
$GPGLL,3529.3681,N,13928.2083,E,010547.00,A,*26
$GPGSA,A,3,,,,,,,,,,,,,0.0,0.0,0.0*32
$GPRMC,010552.00,A,3529.3465,N,13928.1907,E,20.936245,213.549968,020818,,*06
$GPGGA,010552.00,3529.3465,N,13928.1907,E,1,00,0.0,104.215637,M,0.0,M,,*69
$GPGLL,3529.3465,N,13928.1907,E,010552.00,A,*2C
$GPGSA,A,3,,,,,,,,,,,,,0.0,0.0,0.0*32
$GPRMC,010557.00,A,3529.3233,N,13928.1702,E,20.277240,215.601526,020818,,*09
$GPGGA,010557.00,3529.3233,N,13928.1702,E,1,00,0.0,104.837364,M,0.0,M,,*6B
$GPGLL,3529.3233,N,13928.1702,E,010557.00,A,*27
$GPGSA,A,3,,,,,,,,,,,,,0.0,0.0,0.0*32
$GPRMC,010602.00,A,3529.3009,N,13928.1485,E,20.545609,218.322339,020818,,*03
$GPGGA,010602.00,3529.3009,N,13928.1485,E,1,00,0.0,105.509575,M,0.0,M,,*68
$GPGLL,3529.3009,N,13928.1485,E,010602.00,A,*23
$GPGSA,A,3,,,,,,,,,,,,,0.0,0.0,0.0*32
$GPRMC,010607.00,A,3529.2783,N,13928.1244,E,23.589952,220.953105,020818,,*01
$GPGGA,010607.00,3529.2783,N,13928.1244,E,1,00,0.0,106.364334,M,0.0,M,,*6F
$GPGLL,3529.2783,N,13928.1244,E,010607.00,A,*29
$GPGSA,A,3,,,,,,,,,,,,,0.0,0.0,0.0*32
$GPRMC,010612.00,A,3529.2525,N,13928.0948,E,26.615948,223.068686,020818,,*0B
$GPGGA,010612.00,3529.2525,N,13928.0948,E,1,00,0.0,107.363358,M,0.0,M,,*6F
$GPGLL,3529.2525,N,13928.0948,E,010612.00,A,*25
$GPGSA,A,3,,,,,,,,,,,,,0.0,0.0,0.0*32
$GPRMC,010617.00,A,3529.2268,N,13928.0625,E,25.665775,225.632912,020818,,*0D
$GPGGA,010617.00,3529.2268,N,13928.0625,E,1,00,0.0,108.948532,M,0.0,M,,*66
$GPGLL,3529.2268,N,13928.0625,E,010617.00,A,*2A
$GPGSA,A,3,,,,,,,,,,,,,0.0,0.0,0.0*32
$GPRMC,010622.00,A,3529.2029,N,13928.0299,E,25.922034,228.012461,020818,,*01
$GPGGA,010622.00,3529.2029,N,13928.0299,E,1,00,0.0,110.586441,M,0.0,M,,*66
$GPGLL,3529.2029,N,13928.0299,E,010622.00,A,*28
$GPGSA,A,3,,,,,,,,,,,,,0.0,0.0,0.0*32
$GPRMC,010627.00,A,3529.1796,N,13927.9951,E,27.032481,230.576894,020818,,*05
$GPGGA,010627.00,3529.1796,N,13927.9951,E,1,00,0.0,112.235931,M,0.0,M,,*6D
$GPGLL,3529.1796,N,13927.9951,E,010627.00,A,*24
$GPGSA,A,3,,,,,,,,,,,,,0.0,0.0,0.0*32
$GPRMC,010632.00,A,3529.1558,N,13927.9567,E,29.345552,232.738186,020818,,*0A
$GPGGA,010632.00,3529.1558,N,13927.9567,E,1,00,0.0,113.487511,M,0.0,M,,*60
$GPGLL,3529.1558,N,13927.9567,E,010632.00,A,*29
$GPGSA,A,3,,,,,,,,,,,,,0.0,0.0,0.0*32
$GPRMC,010637.00,A,3529.1312,N,13927.9139,E,31.272334,234.838132,020818,,*04
$GPGGA,010637.00,3529.1312,N,13927.9139,E,1,00,0.0,114.967560,M,0.0,M,,*60
$GPGLL,3529.1312,N,13927.9139,E,010637.00,A,*2B
$GPGSA,A,3,,,,,,,,,,,,,0.0,0.0,0.0*32
$GPRMC,010642.00,A,3529.1071,N,13927.8701,E,30.772535,235.837690,020818,,*0E
$GPGGA,010642.00,3529.1071,N,13927.8701,E,1,00,0.0,116.107719,M,0.0,M,,*68
$GPGLL,3529.1071,N,13927.8701,E,010642.00,A,*23
$GPGSA,A,3,,,,,,,,,,,,,0.0,0.0,0.0*32
$GPRMC,010647.00,A,3529.0834,N,13927.8245,E,32.398566,237.488224,020818,,*03
$GPGGA,010647.00,3529.0834,N,13927.8245,E,1,00,0.0,116.877800,M,0.0,M,,*69
$GPGLL,3529.0834,N,13927.8245,E,010647.00,A,*2B
$GPGSA,A,3,,,,,,,,,,,,,0.0,0.0,0.0*32
$GPRMC,010652.00,A,3529.0596,N,13927.7759,E,33.279812,238.984550,020818,,*0E
$GPGGA,010652.00,3529.0596,N,13927.7759,E,1,00,0.0,117.632042,M,0.0,M,,*6F
$GPGLL,3529.0596,N,13927.7759,E,010652.00,A,*2D
$GPGSA,A,3,,,,,,,,,,,,,0.0,0.0,0.0*32
$GPRMC,010657.00,A,3529.0355,N,13927.7255,E,34.977441,239.615292,020818,,*0C
$GPGGA,010657.00,3529.0355,N,13927.7255,E,1,00,0.0,118.866638,M,0.0,M,,*61
$GPGLL,3529.0355,N,13927.7255,E,010657.00,A,*28
$GPGSA,A,3,,,,,,,,,,,,,0.0,0.0,0.0*32
$GPRMC,010702.00,A,3529.0108,N,13927.6736,E,35.216082,239.601666,020818,,*0A
$GPGGA,010702.00,3529.0108,N,13927.6736,E,1,00,0.0,119.438133,M,0.0,M,,*61
$GPGLL,3529.0108,N,13927.6736,E,010702.00,A,*22
$GPGSA,A,3,,,,,,,,,,,,,0.0,0.0,0.0*32
$GPRMC,010707.00,A,3528.9856,N,13927.6211,E,36.028242,239.522923,020818,,*0B
$GPGGA,010707.00,3528.9856,N,13927.6211,E,1,00,0.0,119.527435,M,0.0,M,,*62
$GPGLL,3528.9856,N,13927.6211,E,010707.00,A,*2D
$GPGSA,A,3,,,,,,,,,,,,,0.0,0.0,0.0*32
$GPRMC,010712.00,A,3528.9595,N,13927.5674,E,37.255433,239.179375,020818,,*03
$GPGGA,010712.00,3528.9595,N,13927.5674,E,1,00,0.0,119.635010,M,0.0,M,,*63
$GPGLL,3528.9595,N,13927.5674,E,010712.00,A,*2F
$GPGSA,A,3,,,,,,,,,,,,,0.0,0.0,0.0*32
$GPRMC,010717.00,A,3528.9316,N,13927.5123,E,38.642517,238.076062,020818,,*0E
$GPGGA,010717.00,3528.9316,N,13927.5123,E,1,00,0.0,119.151741,M,0.0,M,,*68
$GPGLL,3528.9316,N,13927.5123,E,010717.00,A,*22
$GPGSA,A,3,,,,,,,,,,,,,0.0,0.0,0.0*32
$GPRMC,010722.00,A,3528.9011,N,13927.4566,E,40.017921,236.142178,020818,,*0A
$GPGGA,010722.00,3528.9011,N,13927.4566,E,1,00,0.0,118.260170,M,0.0,M,,*6A
$GPGLL,3528.9011,N,13927.4566,E,010722.00,A,*24
$GPGSA,A,3,,,,,,,,,,,,,0.0,0.0,0.0*32
$GPRMC,010727.00,A,3528.8680,N,13927.4002,E,41.577411,234.238322,020818,,*0A
$GPGGA,010727.00,3528.8680,N,13927.4002,E,1,00,0.0,116.887558,M,0.0,M,,*64
$GPGLL,3528.8680,N,13927.4002,E,010727.00,A,*29
$GPGSA,A,3,,,,,,,,,,,,,0.0,0.0,0.0*32
$GPRMC,010732.00,A,3528.8317,N,13927.3432,E,43.536967,231.972256,020818,,*0C
$GPGGA,010732.00,3528.8317,N,13927.3432,E,1,00,0.0,115.212273,M,0.0,M,,*60
$GPGLL,3528.8317,N,13927.3432,E,010732.00,A,*26
$GPGSA,A,3,,,,,,,,,,,,,0.0,0.0,0.0*32
$GPRMC,010737.00,A,3528.7931,N,13927.2872,E,42.245523,229.727612,020818,,*0C
$GPGGA,010737.00,3528.7931,N,13927.2872,E,1,00,0.0,112.477600,M,0.0,M,,*6F
$GPGLL,3528.7931,N,13927.2872,E,010737.00,A,*2B
$GPGSA,A,3,,,,,,,,,,,,,0.0,0.0,0.0*32
$GPRMC,010742.00,A,3528.7548,N,13927.2348,E,41.600205,228.126673,020818,,*0A
$GPGGA,010742.00,3528.7548,N,13927.2348,E,1,00,0.0,109.971092,M,0.0,M,,*61
$GPGLL,3528.7548,N,13927.2348,E,010742.00,A,*29
$GPGSA,A,3,,,,,,,,,,,,,0.0,0.0,0.0*32
$GPRMC,010747.00,A,3528.7146,N,13927.1840,E,41.749237,225.773912,020818,,*0B
$GPGGA,010747.00,3528.7146,N,13927.1840,E,1,00,0.0,106.996620,M,0.0,M,,*67
$GPGLL,3528.7146,N,13927.1840,E,010747.00,A,*26
$GPGSA,A,3,,,,,,,,,,,,,0.0,0.0,0.0*32
$GPRMC,010752.00,A,3528.6731,N,13927.1351,E,40.875977,223.853593,020818,,*03
$GPGGA,010752.00,3528.6731,N,13927.1351,E,1,00,0.0,104.104805,M,0.0,M,,*67
$GPGLL,3528.6731,N,13927.1351,E,010752.00,A,*2E
$GPGSA,A,3,,,,,,,,,,,,,0.0,0.0,0.0*32
$GPRMC,010757.00,A,3528.6316,N,13927.0892,E,39.964944,221.976416,020818,,*05
$GPGGA,010757.00,3528.6316,N,13927.0892,E,1,00,0.0,101.436417,M,0.0,M,,*68
$GPGLL,3528.6316,N,13927.0892,E,010757.00,A,*2F
$GPGSA,A,3,,,,,,,,,,,,,0.0,0.0,0.0*32
$GPRMC,010802.00,A,3528.5848,N,13927.0448,E,42.130538,217.706446,020818,,*09
$GPGGA,010802.00,3528.5848,N,13927.0448,E,1,00,0.0,104.095459,M,0.0,M,,*6D
$GPGLL,3528.5848,N,13927.0448,E,010802.00,A,*28
$GPGSA,A,3,,,,,,,,,,,,,0.0,0.0,0.0*32
$GPRMC,010813.00,A,3528.4873,N,13926.9426,E,41.896124,220.490775,020818,,*04
$GPGGA,010813.00,3528.4873,N,13926.9426,E,1,00,0.0,91.903725,M,0.0,M,,*57
$GPGLL,3528.4873,N,13926.9426,E,010813.00,A,*21
$GPGSA,A,3,,,,,,,,,,,,,0.0,0.0,0.0*32
$GPRMC,010818.00,A,3528.4416,N,13926.8977,E,43.618213,218.604250,020818,,*03
$GPGGA,010818.00,3528.4416,N,13926.8977,E,1,00,0.0,89.522148,M,0.0,M,,*50
$GPGLL,3528.4416,N,13926.8977,E,010818.00,A,*2D
$GPGSA,A,3,,,,,,,,,,,,,0.0,0.0,0.0*32
$GPRMC,010823.00,A,3528.3957,N,13926.8487,E,43.615531,221.027180,020818,,*0F
$GPGGA,010823.00,3528.3957,N,13926.8487,E,1,00,0.0,89.697517,M,0.0,M,,*56
$GPGLL,3528.3957,N,13926.8487,E,010823.00,A,*28
$GPGSA,A,3,,,,,,,,,,,,,0.0,0.0,0.0*32
$GPRMC,010828.00,A,3528.3519,N,13926.7977,E,44.709854,223.484368,020818,,*01
$GPGGA,010828.00,3528.3519,N,13926.7977,E,1,00,0.0,90.407303,M,0.0,M,,*56
$GPGLL,3528.3519,N,13926.7977,E,010828.00,A,*28
$GPGSA,A,3,,,,,,,,,,,,,0.0,0.0,0.0*32
$GPRMC,010833.00,A,3528.3093,N,13926.7460,E,43.346866,224.677549,020818,,*02
$GPGGA,010833.00,3528.3093,N,13926.7460,E,1,00,0.0,90.849602,M,0.0,M,,*52
$GPGLL,3528.3093,N,13926.7460,E,010833.00,A,*2E
$GPGSA,A,3,,,,,,,,,,,,,0.0,0.0,0.0*32
$GPRMC,010838.00,A,3528.2682,N,13926.6928,E,43.104625,226.471833,020818,,*05
$GPGGA,010838.00,3528.2682,N,13926.6928,E,1,00,0.0,91.331703,M,0.0,M,,*5B
$GPGLL,3528.2682,N,13926.6928,E,010838.00,A,*22
$GPGSA,A,3,,,,,,,,,,,,,0.0,0.0,0.0*32
$GPRMC,010843.00,A,3528.2286,N,13926.6371,E,43.918774,228.932208,020818,,*09
$GPGGA,010843.00,3528.2286,N,13926.6371,E,1,00,0.0,92.630302,M,0.0,M,,*53
$GPGLL,3528.2286,N,13926.6371,E,010843.00,A,*28
$GPGSA,A,3,,,,,,,,,,,,,0.0,0.0,0.0*32
$GPRMC,010848.00,A,3528.1903,N,13926.5793,E,43.996667,230.862366,020818,,*0D
$GPGGA,010848.00,3528.1903,N,13926.5793,E,1,00,0.0,94.161964,M,0.0,M,,*59
$GPGLL,3528.1903,N,13926.5793,E,010848.00,A,*2D
$GPGSA,A,3,,,,,,,,,,,,,0.0,0.0,0.0*32
$GPRMC,010853.00,A,3528.1523,N,13926.5195,E,45.577360,231.981950,020818,,*0C
$GPGGA,010853.00,3528.1523,N,13926.5195,E,1,00,0.0,93.531250,M,0.0,M,,*57
$GPGLL,3528.1523,N,13926.5195,E,010853.00,A,*29
$GPGSA,A,3,,,,,,,,,,,,,0.0,0.0,0.0*32
$GPRMC,010858.00,A,3528.1132,N,13926.4574,E,45.556618,232.345891,020818,,*0D
$GPGGA,010858.00,3528.1132,N,13926.4574,E,1,00,0.0,94.215546,M,0.0,M,,*54
$GPGLL,3528.1132,N,13926.4574,E,010858.00,A,*2C
$GPGSA,A,3,,,,,,,,,,,,,0.0,0.0,0.0*32
$GPRMC,010903.00,A,3528.0747,N,13926.3935,E,45.835100,233.469168,020818,,*08
$GPGGA,010903.00,3528.0747,N,13926.3935,E,1,00,0.0,93.463531,M,0.0,M,,*50
$GPGLL,3528.0747,N,13926.3935,E,010903.00,A,*28
$GPGSA,A,3,,,,,,,,,,,,,0.0,0.0,0.0*32
$GPRMC,010908.00,A,3528.0357,N,13926.3330,E,43.864524,231.693706,020818,,*02
$GPGGA,010908.00,3528.0357,N,13926.3330,E,1,00,0.0,94.659737,M,0.0,M,,*59
$GPGLL,3528.0357,N,13926.3330,E,010908.00,A,*29
$GPGSA,A,3,,,,,,,,,,,,,0.0,0.0,0.0*32
$GPRMC,010913.00,A,3527.9963,N,13926.2750,E,42.016093,230.119287,020818,,*0D
$GPGGA,010913.00,3527.9963,N,13926.2750,E,1,00,0.0,94.969940,M,0.0,M,,*59
$GPGLL,3527.9963,N,13926.2750,E,010913.00,A,*2B
$GPGSA,A,3,,,,,,,,,,,,,0.0,0.0,0.0*32
$GPRMC,010918.00,A,3527.9547,N,13926.2185,E,44.817239,227.901890,020818,,*04
$GPGGA,010918.00,3527.9547,N,13926.2185,E,1,00,0.0,94.928230,M,0.0,M,,*5F
$GPGLL,3527.9547,N,13926.2185,E,010918.00,A,*24
$GPGSA,A,3,,,,,,,,,,,,,0.0,0.0,0.0*32
$GPRMC,010923.00,A,3527.9119,N,13926.1642,E,43.536633,225.908674,020818,,*04
$GPGGA,010923.00,3527.9119,N,13926.1642,E,1,00,0.0,94.680328,M,0.0,M,,*52
$GPGLL,3527.9119,N,13926.1642,E,010923.00,A,*2C
$GPGSA,A,3,,,,,,,,,,,,,0.0,0.0,0.0*32
$GPRMC,010928.00,A,3527.8680,N,13926.1135,E,42.527629,223.328226,020818,,*09
$GPGGA,010928.00,3527.8680,N,13926.1135,E,1,00,0.0,94.640923,M,0.0,M,,*55
$GPGLL,3527.8680,N,13926.1135,E,010928.00,A,*26
$GPGSA,A,3,,,,,,,,,,,,,0.0,0.0,0.0*32
$GPRMC,010933.00,A,3527.8230,N,13926.0672,E,42.272007,219.925701,020818,,*0A
$GPGGA,010933.00,3527.8230,N,13926.0672,E,1,00,0.0,91.131859,M,0.0,M,,*5D
$GPGLL,3527.8230,N,13926.0672,E,010933.00,A,*26
$GPGSA,A,3,,,,,,,,,,,,,0.0,0.0,0.0*32
$GPRMC,010938.00,A,3527.7788,N,13926.0239,E,38.545477,218.585160,020818,,*08
$GPGGA,010938.00,3527.7788,N,13926.0239,E,1,00,0.0,89.595909,M,0.0,M,,*53
$GPGLL,3527.7788,N,13926.0239,E,010938.00,A,*2F
$GPGSA,A,3,,,,,,,,,,,,,0.0,0.0,0.0*32
$GPRMC,010943.00,A,3527.7386,N,13925.9866,E,33.969313,217.059821,020818,,*0F
$GPGGA,010943.00,3527.7386,N,13925.9866,E,1,00,0.0,89.025238,M,0.0,M,,*58
$GPGLL,3527.7386,N,13925.9866,E,010943.00,A,*23
$GPGSA,A,3,,,,,,,,,,,,,0.0,0.0,0.0*32
$GPRMC,010948.00,A,3527.7015,N,13925.9542,E,31.495117,215.429035,020818,,*00
$GPGGA,010948.00,3527.7015,N,13925.9542,E,1,00,0.0,89.018906,M,0.0,M,,*59
$GPGLL,3527.7015,N,13925.9542,E,010948.00,A,*2A
$GPGSA,A,3,,,,,,,,,,,,,0.0,0.0,0.0*32
$GPRMC,010953.00,A,3527.6671,N,13925.9254,E,28.945933,214.308698,020818,,*0D
$GPGGA,010953.00,3527.6671,N,13925.9254,E,1,00,0.0,89.182289,M,0.0,M,,*58
$GPGLL,3527.6671,N,13925.9254,E,010953.00,A,*25
$GPGSA,A,3,,,,,,,,,,,,,0.0,0.0,0.0*32
$GPRMC,010958.00,A,3527.6330,N,13925.8998,E,29.625297,211.423543,020818,,*0F
$GPGGA,010958.00,3527.6330,N,13925.8998,E,1,00,0.0,89.821404,M,0.0,M,,*5A
$GPGLL,3527.6330,N,13925.8998,E,010958.00,A,*24
$GPGSA,A,3,,,,,,,,,,,,,0.0,0.0,0.0*32
$GPRMC,011003.00,A,3527.5950,N,13925.8712,E,34.292050,211.495014,020818,,*0D
$GPGGA,011003.00,3527.5950,N,13925.8712,E,1,00,0.0,91.288933,M,0.0,M,,*56
$GPGLL,3527.5950,N,13925.8712,E,011003.00,A,*21
$GPGSA,A,3,,,,,,,,,,,,,0.0,0.0,0.0*32
$GPRMC,011008.00,A,3527.5522,N,13925.8410,E,36.274632,209.883762,020818,,*02
$GPGGA,011008.00,3527.5522,N,13925.8410,E,1,00,0.0,91.693192,M,0.0,M,,*58
$GPGLL,3527.5522,N,13925.8410,E,011008.00,A,*22
$GPGSA,A,3,,,,,,,,,,,,,0.0,0.0,0.0*32
$GPRMC,011013.00,A,3527.5091,N,13925.8119,E,35.386104,208.884267,020818,,*02
$GPGGA,011013.00,3527.5091,N,13925.8119,E,1,00,0.0,91.658279,M,0.0,M,,*52
$GPGLL,3527.5091,N,13925.8119,E,011013.00,A,*29
$GPGSA,A,3,,,,,,,,,,,,,0.0,0.0,0.0*32
$GPRMC,011018.00,A,3527.4653,N,13925.7830,E,35.903239,208.263374,020818,,*07
$GPGGA,011018.00,3527.4653,N,13925.7830,E,1,00,0.0,91.754929,M,0.0,M,,*5E
$GPGLL,3527.4653,N,13925.7830,E,011018.00,A,*26
$GPGSA,A,3,,,,,,,,,,,,,0.0,0.0,0.0*32
$GPRMC,011023.00,A,3527.4208,N,13925.7536,E,37.108044,208.212521,020818,,*07
$GPGGA,011023.00,3527.4208,N,13925.7536,E,1,00,0.0,92.225502,M,0.0,M,,*52
$GPGLL,3527.4208,N,13925.7536,E,011023.00,A,*2F
$GPGSA,A,3,,,,,,,,,,,,,0.0,0.0,0.0*32
$GPRMC,011028.00,A,3527.3752,N,13925.7217,E,38.350165,209.727705,020818,,*01
$GPGGA,011028.00,3527.3752,N,13925.7217,E,1,00,0.0,92.365227,M,0.0,M,,*55
$GPGLL,3527.3752,N,13925.7217,E,011028.00,A,*2D
$GPGSA,A,3,,,,,,,,,,,,,0.0,0.0,0.0*32
$GPRMC,011033.00,A,3527.3303,N,13925.6897,E,35.436465,210.135906,020818,,*07
$GPGGA,011033.00,3527.3303,N,13925.6897,E,1,00,0.0,93.276398,M,0.0,M,,*5B
$GPGLL,3527.3303,N,13925.6897,E,011033.00,A,*24
$GPGSA,A,3,,,,,,,,,,,,,0.0,0.0,0.0*32
$GPRMC,011038.00,A,3527.2886,N,13925.6584,E,34.990500,211.395406,020818,,*02
$GPGGA,011038.00,3527.2886,N,13925.6584,E,1,00,0.0,95.731628,M,0.0,M,,*56
$GPGLL,3527.2886,N,13925.6584,E,011038.00,A,*27
$GPGSA,A,3,,,,,,,,,,,,,0.0,0.0,0.0*32
$GPRMC,011043.00,A,3527.2475,N,13925.6234,E,36.015084,214.715765,020818,,*02
$GPGGA,011043.00,3527.2475,N,13925.6234,E,1,00,0.0,96.003334,M,0.0,M,,*5B
$GPGLL,3527.2475,N,13925.6234,E,011043.00,A,*27
$GPGSA,A,3,,,,,,,,,,,,,0.0,0.0,0.0*32
$GPRMC,011048.00,A,3527.2059,N,13925.5865,E,37.432594,215.882722,020818,,*09
$GPGGA,011048.00,3527.2059,N,13925.5865,E,1,00,0.0,96.232849,M,0.0,M,,*56
$GPGLL,3527.2059,N,13925.5865,E,011048.00,A,*2B
$GPGSA,A,3,,,,,,,,,,,,,0.0,0.0,0.0*32
$GPRMC,011053.00,A,3527.1642,N,13925.5466,E,38.486823,217.932741,020818,,*0F
$GPGGA,011053.00,3527.1642,N,13925.5466,E,1,00,0.0,95.890244,M,0.0,M,,*5A
$GPGLL,3527.1642,N,13925.5466,E,011053.00,A,*21
$GPGSA,A,3,,,,,,,,,,,,,0.0,0.0,0.0*32
$GPRMC,011058.00,A,3527.1233,N,13925.5040,E,39.058158,220.321618,020818,,*04
$GPGGA,011058.00,3527.1233,N,13925.5040,E,1,00,0.0,95.642242,M,0.0,M,,*54
$GPGLL,3527.1233,N,13925.5040,E,011058.00,A,*28
$GPGSA,A,3,,,,,,,,,,,,,0.0,0.0,0.0*32
$GPRMC,011103.00,A,3527.0834,N,13925.4591,E,39.058249,222.527514,020818,,*01
$GPGGA,011103.00,3527.0834,N,13925.4591,E,1,00,0.0,93.452675,M,0.0,M,,*5A
$GPGLL,3527.0834,N,13925.4591,E,011103.00,A,*23
$GPGSA,A,3,,,,,,,,,,,,,0.0,0.0,0.0*32
$GPRMC,011108.00,A,3527.0433,N,13925.4089,E,41.285274,225.551529,020818,,*06
$GPGGA,011108.00,3527.0433,N,13925.4089,E,1,00,0.0,93.574837,M,0.0,M,,*5B
$GPGLL,3527.0433,N,13925.4089,E,011108.00,A,*2F
$GPGSA,A,3,,,,,,,,,,,,,0.0,0.0,0.0*32
$GPRMC,011113.00,A,3527.0030,N,13925.3545,E,43.838246,227.740395,020818,,*07
$GPGGA,011113.00,3527.0030,N,13925.3545,E,1,00,0.0,93.525162,M,0.0,M,,*59
$GPGLL,3527.0030,N,13925.3545,E,011113.00,A,*20
$GPGSA,A,3,,,,,,,,,,,,,0.0,0.0,0.0*32
$GPRMC,011118.00,A,3526.9648,N,13925.2987,E,41.365102,229.904620,020818,,*07
$GPGGA,011118.00,3526.9648,N,13925.2987,E,1,00,0.0,92.945595,M,0.0,M,,*57
$GPGLL,3526.9648,N,13925.2987,E,011118.00,A,*29
$GPGSA,A,3,,,,,,,,,,,,,0.0,0.0,0.0*32
$GPRMC,011123.00,A,3526.9288,N,13925.2419,E,42.714735,232.207874,020818,,*03
$GPGGA,011123.00,3526.9288,N,13925.2419,E,1,00,0.0,92.577835,M,0.0,M,,*57
$GPGLL,3526.9288,N,13925.2419,E,011123.00,A,*23
$GPGSA,A,3,,,,,,,,,,,,,0.0,0.0,0.0*32
$GPRMC,011128.00,A,3526.8957,N,13925.1835,E,41.318346,235.147971,020818,,*0E
$GPGGA,011128.00,3526.8957,N,13925.1835,E,1,00,0.0,93.248848,M,0.0,M,,*55
$GPGLL,3526.8957,N,13925.1835,E,011128.00,A,*21
$GPGSA,A,3,,,,,,,,,,,,,0.0,0.0,0.0*32
$GPRMC,011133.00,A,3526.8633,N,13925.1271,E,39.507794,234.752965,020818,,*09
$GPGGA,011133.00,3526.8633,N,13925.1271,E,1,00,0.0,91.207069,M,0.0,M,,*5A
$GPGLL,3526.8633,N,13925.1271,E,011133.00,A,*2C
$GPGSA,A,3,,,,,,,,,,,,,0.0,0.0,0.0*32
$GPRMC,011138.00,A,3526.8335,N,13925.0723,E,37.845953,236.295358,020818,,*0A
$GPGGA,011138.00,3526.8335,N,13925.0723,E,1,00,0.0,89.200615,M,0.0,M,,*52
$GPGLL,3526.8335,N,13925.0723,E,011138.00,A,*27
$GPGSA,A,3,,,,,,,,,,,,,0.0,0.0,0.0*32
$GPRMC,011143.00,A,3526.8065,N,13925.0210,E,33.325387,237.123190,020818,,*06
$GPGGA,011143.00,3526.8065,N,13925.0210,E,1,00,0.0,87.760536,M,0.0,M,,*52
$GPGLL,3526.8065,N,13925.0210,E,011143.00,A,*28
$GPGSA,A,3,,,,,,,,,,,,,0.0,0.0,0.0*32
$GPRMC,011148.00,A,3526.7820,N,13924.9753,E,31.180691,236.651145,020818,,*07
$GPGGA,011148.00,3526.7820,N,13924.9753,E,1,00,0.0,86.383247,M,0.0,M,,*5C
$GPGLL,3526.7820,N,13924.9753,E,011148.00,A,*2F
$GPGSA,A,3,,,,,,,,,,,,,0.0,0.0,0.0*32
$GPRMC,011153.00,A,3526.7590,N,13924.9307,E,31.078959,237.665756,020818,,*01
$GPGGA,011153.00,3526.7590,N,13924.9307,E,1,00,0.0,84.807510,M,0.0,M,,*55
$GPGLL,3526.7590,N,13924.9307,E,011153.00,A,*26
$GPGSA,A,3,,,,,,,,,,,,,0.0,0.0,0.0*32
$GPRMC,011158.00,A,3526.7346,N,13924.8834,E,35.033994,237.650786,020818,,*0C
$GPGGA,011158.00,3526.7346,N,13924.8834,E,1,00,0.0,83.677795,M,0.0,M,,*58
$GPGLL,3526.7346,N,13924.8834,E,011158.00,A,*2A
$GPGSA,A,3,,,,,,,,,,,,,0.0,0.0,0.0*32
$GPRMC,011203.00,A,3526.7067,N,13924.8320,E,37.551332,236.404999,020818,,*08
$GPGGA,011203.00,3526.7067,N,13924.8320,E,1,00,0.0,81.891571,M,0.0,M,,*57
$GPGLL,3526.7067,N,13924.8320,E,011203.00,A,*29
$GPGSA,A,3,,,,,,,,,,,,,0.0,0.0,0.0*32
$GPRMC,011208.00,A,3526.6758,N,13924.7773,E,39.875924,235.164208,020818,,*0F
$GPGGA,011208.00,3526.6758,N,13924.7773,E,1,00,0.0,80.459099,M,0.0,M,,*51
$GPGLL,3526.6758,N,13924.7773,E,011208.00,A,*25
$GPGSA,A,3,,,,,,,,,,,,,0.0,0.0,0.0*32
$GPRMC,011213.00,A,3526.6428,N,13924.7215,E,40.833331,234.089464,020818,,*09
$GPGGA,011213.00,3526.6428,N,13924.7215,E,1,00,0.0,79.604347,M,0.0,M,,*56
$GPGLL,3526.6428,N,13924.7215,E,011213.00,A,*2E
$GPGSA,A,3,,,,,,,,,,,,,0.0,0.0,0.0*32
$GPRMC,011218.00,A,3526.6077,N,13924.6663,E,41.434640,231.992741,020818,,*03
$GPGGA,011218.00,3526.6077,N,13924.6663,E,1,00,0.0,79.055847,M,0.0,M,,*5E
$GPGLL,3526.6077,N,13924.6663,E,011218.00,A,*2F
$GPGSA,A,3,,,,,,,,,,,,,0.0,0.0,0.0*32
$GPRMC,011223.00,A,3526.5695,N,13924.6113,E,43.515619,229.551035,020818,,*00
$GPGGA,011223.00,3526.5695,N,13924.6113,E,1,00,0.0,79.037399,M,0.0,M,,*53
$GPGLL,3526.5695,N,13924.6113,E,011223.00,A,*2E
$GPGSA,A,3,,,,,,,,,,,,,0.0,0.0,0.0*32
$GPRMC,011228.00,A,3526.5276,N,13924.5571,E,43.154854,226.500381,020818,,*00
$GPGGA,011228.00,3526.5276,N,13924.5571,E,1,00,0.0,79.932785,M,0.0,M,,*57
$GPGLL,3526.5276,N,13924.5571,E,011228.00,A,*2F
$GPGSA,A,3,,,,,,,,,,,,,0.0,0.0,0.0*32
$GPRMC,011233.00,A,3526.4869,N,13924.5077,E,39.922731,224.682562,020818,,*04
$GPGGA,011233.00,3526.4869,N,13924.5077,E,1,00,0.0,81.427757,M,0.0,M,,*5A
$GPGLL,3526.4869,N,13924.5077,E,011233.00,A,*23
$GPGSA,A,3,,,,,,,,,,,,,0.0,0.0,0.0*32
$GPRMC,011238.00,A,3526.4457,N,13924.4622,E,39.873115,221.998969,020818,,*0A
$GPGGA,011238.00,3526.4457,N,13924.4622,E,1,00,0.0,83.162613,M,0.0,M,,*50
$GPGLL,3526.4457,N,13924.4622,E,011238.00,A,*2E
$GPGSA,A,3,,,,,,,,,,,,,0.0,0.0,0.0*32
$GPRMC,011243.00,A,3526.4019,N,13924.4187,E,40.750475,218.932544,020818,,*0A
$GPGGA,011243.00,3526.4019,N,13924.4187,E,1,00,0.0,83.956085,M,0.0,M,,*5C
$GPGLL,3526.4019,N,13924.4187,E,011243.00,A,*24
$GPGSA,A,3,,,,,,,,,,,,,0.0,0.0,0.0*32
$GPRMC,011248.00,A,3526.3557,N,13924.3765,E,40.304505,216.696023,020818,,*0C
$GPGGA,011248.00,3526.3557,N,13924.3765,E,1,00,0.0,85.083664,M,0.0,M,,*5C
$GPGLL,3526.3557,N,13924.3765,E,011248.00,A,*2A
$GPGSA,A,3,,,,,,,,,,,,,0.0,0.0,0.0*32
$GPRMC,011253.00,A,3526.3095,N,13924.3382,E,40.653258,214.081860,020818,,*05
$GPGGA,011253.00,3526.3095,N,13924.3382,E,1,00,0.0,85.098984,M,0.0,M,,*5B
$GPGLL,3526.3095,N,13924.3382,E,011253.00,A,*26
$GPGSA,A,3,,,,,,,,,,,,,0.0,0.0,0.0*32
$GPRMC,011258.00,A,3526.2613,N,13924.3031,E,40.743336,210.665708,020818,,*0C
$GPGGA,011258.00,3526.2613,N,13924.3031,E,1,00,0.0,84.304138,M,0.0,M,,*5A
$GPGLL,3526.2613,N,13924.3031,E,011258.00,A,*2F
$GPGSA,A,3,,,,,,,,,,,,,0.0,0.0,0.0*32
$GPRMC,011303.00,A,3526.2119,N,13924.2676,E,41.868366,210.327407,020818,,*07
$GPGGA,011303.00,3526.2119,N,13924.2676,E,1,00,0.0,83.392563,M,0.0,M,,*5E
$GPGLL,3526.2119,N,13924.2676,E,011303.00,A,*29
$GPGSA,A,3,,,,,,,,,,,,,0.0,0.0,0.0*32
$GPRMC,011308.00,A,3526.1619,N,13924.2324,E,41.474023,209.824260,020818,,*0E
$GPGGA,011308.00,3526.1619,N,13924.2324,E,1,00,0.0,83.402100,M,0.0,M,,*5C
$GPGLL,3526.1619,N,13924.2324,E,011308.00,A,*24
$GPGSA,A,3,,,,,,,,,,,,,0.0,0.0,0.0*32
$GPRMC,011313.00,A,3526.1120,N,13924.1968,E,41.576344,210.172919,020818,,*0E
$GPGGA,011313.00,3526.1120,N,13924.1968,E,1,00,0.0,82.978020,M,0.0,M,,*58
$GPGLL,3526.1120,N,13924.1968,E,011313.00,A,*22
$GPGSA,A,3,,,,,,,,,,,,,0.0,0.0,0.0*32
$GPRMC,011318.00,A,3526.0630,N,13924.1595,E,42.211038,211.776880,020818,,*03
