Script started on Tue May 23 18:48:17 2017
bash-3.2$ exitclearat g000.csvbash-3.2$ ls[Kscreen /dev/tty.G-Rays1-SPPslave
[?1h=[0m(B[1;24r[H[J[H[J5.700,A,3540.4432,N,13943.1907,E,0.64,242.29,230517,,,A*6F
$GPRMC,094545.800,A,3540.4432,N,13943.1907,E,0.67,241.23,230517,,,A*6A
$GPRMC,094545.900,A,3540.4432,N,13943.1906,E,0.72,240.59,230517,,,A*62
$GPRMC,094546.000,A,3540.4432,N,13943.1906,E,0.64,239.92,230517,,,A*66
$GPRMC,094953.700,A,3540.4963,N,13943.1660,E,7.06,327.64,230517,,,A*6B
$GPRMC,094953.800,A,3540.4965,N,13943.1659,E,7.18,327.03,230517,,,A*66
$GPRMC,094953.900,A,3540.4966,N,13943.1657,E,7.28,326.25,230517,,,A*6C
$GPRMC,094954.000,A,3540.4968,N,13943.1655,E,7.41,325.71,230517,,,A*63
$GPRMC,094954.100,A,3540.4970,N,13943.1653,E,7.50,324.71,230517,,,A*6C
$GPRMC,094954.200,A,3540.4972,N,13943.1651,E,7.62,323.77,230517,,,A*6F
$GPRMC,094954.300,A,3540.4973,N,13943.1649,E,7.72,322.74,230517,,,A*65
$GPRMC,094954.400,A,3540.4975,N,13943.1647,E,7.84,321.76,230517,,,A*62
$GPRMC,094954.500,A,3540.4977,N,13943.1645,E,7.96,320.85,230517,,,A*6D
$GPRMC,094954.600,A,3540.4979,N,13943.1643,E,8.08,320.14,230517,,,A*66
$GPRMC,094954.700,A,3540.4980,N,13943.1641,E,8.19,319.33,230517,,,A*6C
$GPRMC,094954.800,A,3540.4982,N,13943.1638,E,8.32,318.47,230517,,,A*64
$GPRMC,094954.900,A,3540.4984,N,13943.1636,E,8.44,317.58,230517,,,A*6D
$GPRMC,094955.000,A,3540.4986,N,13943.1633,E,8.60,316.77,230517,,,A*68
$GPRMC,094955.100,A,3540.4987,N,13943.1631,E,8.74,315.90,230517,,,A*65
$GPRMC,094955.200,A,3540.4989,N,13943.1628,E,8.88,314.97,230517,,,A*65
$GPRMC,094955.300,A,3540.4991,N,13943.1625,E,9.04,313.88,230517,,,A*6C
$GPRMC,094955.400,A,3540.4992,N,13943.1622,E,9.16,312.89,230517,,,A*6C
$GPRMC,094955.500,A,3540.4994,N,13943.1619,E,9.31,311.83,230517,,,A*6F
$GPRMC,094955.600,A,3540.4995,N,13943.1616,E,9.44,310.78,230517,,,A*65
$GPRMC,094955.700,A,3540.4997,N,13943.1613,E,9.57,309.67,230517,,,A*67
$GPRMC,094955.800,A,3540.4998,N,13943.1610,E,9.72,308.60,230517,,,A*65
$GPRMC,094955.900,A,3540.5000,N,13943.1607,E,9.86,307.42,230517,,,A*6F
$GPRMC,094956.000,A,3540.5001,N,13943.1603,E,10.00,306.44,230517,,,A*51
$GPRMC,094956.100,A,3540.5003,N,13943.1600,E,10.16,305.40,230517,,,A*51
$GPRMC,094956.200,A,3540.5004,N,13943.1596,E,10.31,304.29,230517,,,A*52
$GPRMC,094956.300,A,3540.5005,N,13943.1593,E,10.48,303.30,230517,,,A*56
$GPRMC,094956.400,A,3540.5007,N,13943.1589,E,10.65,302.37,230517,,,A*51
$GPRMC,094956.500,A,3540.5008,N,13943.1585,E,10.80,301.44,230517,,,A*5F
$GPRMC,094956.600,A,3540.5009,N,13943.1581,E,10.96,300.65,230517,,,A*5C
$GPRMC,094956.700,A,3540.5010,N,13943.1577,E,11.14,299.80,230517,,,A*5D
$GPRMC,094956.800,A,3540.5012,N,13943.1573,E,11.32,298.79,230517,,,A*57
$GPRMC,094956.900,A,3540.5013,N,13943.1569,E,11.51,297.71,230517,,,A*5E
$GPRMC,094957.000,A,3540.5014,N,13943.1565,E,11.65,296.58,230517,,,A*50
$GPRMC,094957.100,A,3540.5014,N,13943.1560,E,11.73,295.38,230517,,,A*56
$GPRMC,094957.200,A,3540.5015,N,13943.1556,E,11.82,294.22,230517,,,A*55
$GPRMC,094957.300,A,3540.5016,N,13943.1552,E,11.92,292.90,230517,,,A*5D
$GPRMC,094957.400,A,3540.5016,N,13943.1547,E,12.02,291.48,230517,,,A*52
$GPRMC,094957.500,A,3540.5016,N,13943.1543,E,12.15,290.07,230517,,,A*5B
$GPRMC,094957.600,A,3540.5016,N,13943.1538,E,12.28,288.52,230517,,,A*53
$GPRMC,094957.700,A,3540.5016,N,13943.1533,E,12.42,287.00,230517,,,A*5D
$GPRMC,094957.800,A,3540.5016,N,13943.1529,E,12.56,285.53,230517,,,A*58
$GPRMC,094957.900,A,3540.5016,N,13943.1524,E,12.71,284.19,230517,,,A*5E
$GPRMC,094958.000,A,3540.5016,N,13943.1519,E,12.88,282.73,230517,,,A*5A
$GPRMC,094958.100,A,3540.5016,N,13943.1513,E,13.07,281.40,230517,,,A*54
$GPRMC,094958.200,A,3540.5016,N,13943.1508,E,13.30,280.03,230517,,,A*5F
$GPRMC,094958.300,A,3540.5015,N,13943.1503,E,13.51,278.79,230517,,,A*5B
$GPRMC,094958.400,A,3540.5015,N,13943.1497,E,13.72,277.66,230517,,,A*50
$GPRMC,094958.500,A,3540.5015,N,13943.1492,E,13.93,276.66,230517,,,A*5A
$GPRMC,094958.600,A,3540.5014,N,13943.1486,E,14.13,275.73,230517,,,A*55
$GPRMC,094958.700,A,3540.5014,N,13943.1480,E,14.35,274.79,230517,,,A*5D
$GPRMC,094958.800,A,3540.5014,N,13943.1475,E,14.57,273.94,230517,,,A*58
$GPRMC,094958.900,A,3540.5013,N,13943.1469,E,14.79,273.16,230517,,,A*55
$GPRMC,094959.000,A,3540.5013,N,13943.1463,E,15.01,272.51,230517,,,A*5B
$GPRMC,094959.100,A,3540.5012,N,13943.1457,E,15.24,271.82,230517,,,A*56
$GPRMC,094959.200,A,3540.5012,N,13943.1451,E,15.47,271.26,230517,,,A*58
$GPRMC,094959.300,A,3540.5012,N,13943.1445,E,15.70,270.69,230517,,,A*52
$GPRMC,094959.400,A,3540.5011,N,13943.1438,E,15.93,270.20,230517,,,A*5C
$GPRMC,094959.500,A,3540.5011,N,13943.1432,E,16.18,269.81,230517,,,A*54
$GPRMC,094959.600,A,3540.5011,N,13943.1425,E,16.41,269.41,230517,,,A*51
$GPRMC,094959.700,A,3540.5011,N,13943.1419,E,16.64,269.04,230517,,,A*59
$GPRMC,094959.800,A,3540.5010,N,13943.1412,E,16.88,268.67,230517,,,A*5A
$GPRMC,094959.900,A,3540.5010,N,13943.1406,E,17.13,268.37,230517,,,A*58
$GPRMC,095000.000,A,3540.5009,N,13943.1399,E,17.36,268.03,230517,,,A*5C
$GPRMC,095000.100,A,3540.5009,N,13943.1392,E,17.61,267.82,230517,,,A*52
$GPRMC,095000.200,A,3540.5009,N,13943.1385,E,17.84,267.60,230517,,,A*50
$GPRMC,095000.300,A,3540.5009,N,13943.1378,E,18.08,267.37,230517,,,A*5A
$GPRMC,095000.400,A,3540.5008,N,13943.1371,E,18.31,267.28,230517,,,A*51
$GPRMC,095000.500,A,3540.5008,N,13943.1364,E,18.52,267.21,230517,,,A*58
$GPRMC,095000.600,A,3540.5008,N,13943.1356,E,18.74,267.16,230517,,,A*5A
$GPRMC,095000.700,A,3540.5008,N,13943.1349,E,18.92,267.19,230517,,,A*52
$GPRMC,095000.800,A,3540.5008,N,13943.1342,E,19.11,267.29,230517,,,A*5F
$GPRMC,095000.900,A,3540.5008,N,13943.1334,E,19.28,267.36,230517,,,A*5B
$GPRMC,095001.000,A,3540.5008,N,13943.1327,E,19.46,267.40,230517,,,A*58
$GPRMC,095001.100,A,3540.5008,N,13943.1320,E,19.62,267.48,230517,,,A*50
$GPRMC,095001.200,A,3540.5008,N,13943.1312,E,19.78,267.60,230517,,,A*53
$GPRMC,095001.300,A,3540.5008,N,13943.1305,E,19.94,267.70,230517,,,A*57
$GPRMC,095001.400,A,3540.5008,N,13943.1297,E,20.08,267.85,230517,,,A*5F
$GPRMC,095001.500,A,3540.5009,N,13943.1290,E,20.20,267.97,230517,,,A*51
$GPRMC,095001.600,A,3540.5009,N,13943.1282,E,20.33,268.12,230517,,,A*51
$GPRMC,095001.700,A,3540.5009,N,13943.1275,E,20.46,268.29,230517,,,A*52
$GPRMC,095001.800,A,3540.5009,N,13943.1267,E,20.59,268.46,230517,,,A*59
$GPRMC,095001.900,A,3540.5010,N,13943.1259,E,20.72,268.70,230517,,,A*51
$GPRMC,095002.000,A,3540.5010,N,13943.1252,E,20.84,268.93,230517,,,A*54
$GPRMC,095002.100,A,3540.5011,N,13943.1244,E,20.96,269.21,230517,,,A*58
$GPRMC,095002.200,A,3540.5011,N,13943.1236,E,21.06,269.49,230517,,,A*58
$GPRMC,095002.300,A,3540.5012,N,13943.1228,E,21.13,269.73,230517,,,A*58
$GPRMC,095002.400,A,3540.5012,N,13943.1221,E,21.23,270.00,230517,,,A*59
$GPRMC,095002.500,A,3540.5013,N,13943.1213,E,21.30,270.35,230517,,,A*5C
$GPRMC,095002.600,A,3540.5014,N,13943.1205,E,21.40,270.68,230517,,,A*50
$GPRMC,095002.700,A,3540.5015,N,13943.1197,E,21.49,271.00,230517,,,A*5E
$GPRMC,095002.800,A,3540.5016,N,13943.1189,E,21.58,271.38,230517,,,A*56
$GPRMC,095002.900,A,3540.5017,N,13943.1181,E,21.68,271.75,230517,,,A*54
$GPRMC,095003.000,A,3540.5018,N,13943.1173,E,21.75,272.27,230517,,,A*56
$GPRMC,095003.100,A,3540.5019,N,13943.1165,E,21.83,272.74,230517,,,A*5E
$GPRMC,095003.200,A,3540.5021,N,13943.1157,E,21.89,273.27,230517,,,A*5A
$GPRMC,095003.300,A,3540.5022,N,13943.1149,E,21.97,273.79,230517,,,A*53
$GPRMC,095003.400,A,3540.5024,N,13943.1141,E,22.03,274.34,230517,,,A*5A
$GPRMC,095003.500,A,3540.5026,N,13943.1133,E,22.11,274.92,230517,,,A*53
$GPRMC,095003.600,A,3540.5028,N,13943.1125,E,22.16,275.53,230517,,,A*52
$GPRMC,095003.700,A,3540.5030,N,13943.1117,E,22.22,276.15,230517,,,A*5D
$GPRMC,095003.800,A,3540.5032,N,13943.1109,E,22.28,276.82,230517,,,A*5B
$GPRMC,095003.900,A,3540.5034,N,13943.1101,E,22.33,277.35,230517,,,A*53
$GPRMC,095004.000,A,3540.5036,N,13943.1093,E,22.35,277.93,230517,,,A*5F
$GPRMC,095004.100,A,3540.5039,N,13943.1085,E,22.40,278.56,230517,,,A*52
$GPRMC,095004.200,A,3540.5041,N,13943.1077,E,22.43,279.21,230517,,,A*51
$GPRMC,095004.300,A,3540.5044,N,13943.1069,E,22.48,279.80,230517,,,A*5A
$GPRMC,095004.400,A,3540.5046,N,13943.1061,E,22.51,280.35,230517,,,A*57
$GPRMC,095004.500,A,3540.5049,N,13943.1053,E,22.54,281.00,230517,,,A*5A
$GPRMC,095004.600,A,3540.5051,N,13943.1045,E,22.56,281.61,230517,,,A*52
$GPRMC,095004.700,A,3540.5054,N,13943.1037,E,22.73,282.11,230517,,,A*50
$GPRMC,095004.800,A,3540.5057,N,13943.1028,E,22.93,282.63,230517,,,A*59
$GPRMC,095004.900,A,3540.5060,N,13943.1020,E,23.03,283.05,230517,,,A*5D
$GPRMC,095005.000,A,3540.5063,N,13943.1011,E,23.15,283.40,230517,,,A*52
$GPRMC,095005.100,A,3540.5065,N,13943.1003,E,23.27,283.74,230517,,,A*50
$GPRMC,095005.200,A,3540.5068,N,13943.0994,E,23.39,284.08,230517,,,A*5B
$GPRMC,095005.300,A,3540.5071,N,13943.0986,E,23.49,284.43,230517,,,A*59
$GPRMC,095005.400,A,3540.5074,N,13943.0978,E,23.59,284.77,230517,,,A*5C
$GPRMC,095005.500,A,3540.5077,N,13943.0969,E,23.69,285.29,230517,,,A*57
$GPRMC,095005.600,A,3540.5080,N,13943.0961,E,23.79,285.65,230517,,,A*5D
$GPRMC,095005.700,A,3540.5083,N,13943.0952,E,23.87,285.99,230517,,,A*5D
$GPRMC,095005.800,A,3540.5086,N,13943.0944,E,23.93,286.42,230517,,,A*50
$GPRMC,095005.900,A,3540.5090,N,13943.0936,E,24.00,286.75,230517,,,A*5A
$GPRMC,095006.000,A,3540.5093,N,13943.0928,E,24.04,287.10,230517,,,A*5A
$GPRMC,095006.100,A,3540.5096,N,13943.0920,E,24.05,287.40,230517,,,A*52
$GPRMC,095006.200,A,3540.5099,N,13943.0912,E,24.06,287.71,230517,,,A*5E
$GPRMC,095006.300,A,3540.5102,N,13943.0904,E,24.06,288.05,230517,,,A*57
$GPRMC,095006.400,A,3540.5105,N,13943.0896,E,24.05,288.39,230517,,,A*51
$GPRMC,095006.500,A,3540.5108,N,13943.0889,E,23.99,288.73,230517,,,A*5F
$GPRMC,095006.600,A,3540.5111,N,13943.0881,E,23.97,289.11,230517,,,A*57
$GPRMC,095006.700,A,3540.5115,N,13943.0873,E,23.93,289.52,230517,,,A*5C
$GPRMC,095006.800,A,3540.5119,N,13943.0865,E,23.88,289.97,230517,,,A*5B
$GPRMC,095006.900,A,3540.5123,N,13943.0858,E,23.83,290.43,230517,,,A*57
$GPRMC,095007.000,A,3540.5126,N,13943.0850,E,23.82,290.82,230517,,,A*5E
$GPRMC,095007.100,A,3540.5131,N,13943.0843,E,23.77,291.51,230517,,,A*5E
$GPRMC,095007.200,A,3540.5135,N,13943.0835,E,23.74,291.92,230517,,,A*54
$GPRMC,095007.300,A,3540.5139,N,13943.0828,E,23.68,292.46,230517,,,A*52
$GPRMC,095007.400,A,3540.5143,N,13943.0821,E,23.62,292.98,230517,,,A*58
$GPRMC,095007.500,A,3540.5148,N,13943.0813,E,23.58,293.55,230517,,,A*5A
$GPRMC,095007.600,A,3540.5152,N,13943.0806,E,23.53,294.15,230517,,,A*5E
$GPRMC,095007.700,A,3540.5157,N,13943.0799,E,23.47,294.74,230517,,,A*51
$GPRMC,095007.800,A,3540.5161,N,13943.0792,E,23.42,295.27,230517,,,A*52
$GPRMC,095007.900,A,3540.5166,N,13943.0785,E,23.36,295.90,230517,,,A*5D
$GPRMC,095008.000,A,3540.5171,N,13943.0779,E,23.34,296.59,230517,,,A*5A
$GPRMC,095008.100,A,3540.5176,N,13943.0772,E,23.29,297.25,230517,,,A*51
$GPRMC,095008.200,A,3540.5181,N,13943.0765,E,23.23,297.86,230517,,,A*5F
$GPRMC,095008.300,A,3540.5186,N,13943.0759,E,23.18,298.52,230517,,,A*58
$GPRMC,095008.400,A,3540.5191,N,13943.0753,E,23.07,299.27,230517,,,A*5E
$GPRMC,095008.500,A,3540.5195,N,13943.0747,E,22.94,299.70,230517,,,A*57
$GPRMC,095008.600,A,3540.5199,N,13943.0741,E,22.82,300.12,230517,,,A*5C
$GPRMC,095008.700,A,3540.5204,N,13943.0735,E,22.70,300.59,230517,,,A*5B
$GPRMC,095008.800,A,3540.5208,N,13943.0729,E,22.58,301.12,230517,,,A*51
$GPRMC,095008.900,A,3540.5213,N,13943.0723,E,22.46,301.65,230517,,,A*5F
$GPRMC,095009.000,A,3540.5219,N,13943.0718,E,22.38,302.56,230517,,,A*5F
$GPRMC,095009.100,A,3540.5224,N,13943.0713,E,22.26,303.21,230517,,,A*55
$GPRMC,095009.200,A,3540.5229,N,13943.0707,E,22.13,303.88,230517,,,A*5B
$GPRMC,095009.300,A,3540.5234,N,13943.0702,E,22.01,304.55,230517,,,A*57
$GPRMC,095009.400,A,3540.5240,N,13943.0697,E,21.92,305.27,230517,,,A*53
$GPRMC,095009.500,A,3540.5245,N,13943.0692,E,21.78,305.95,230517,,,A*5F
$GPRMC,095009.600,A,3540.5250,N,13943.0687,E,21.67,306.56,230517,,,A*5E
$GPRMC,095009.700,A,3540.5255,N,13943.0682,E,21.63,307.15,230517,,,A*5D
$GPRMC,095009.800,A,3540.5260,N,13943.0677,E,21.60,307.75,230517,,,A*5B
$GPRMC,095009.900,A,3540.5265,N,13943.0671,E,21.59,308.33,230517,,,A*5E
$GPRMC,095010.000,A,3540.5271,N,13943.0666,E,21.62,308.95,230517,,,A*58
$GPRMC,095010.100,A,3540.5276,N,13943.0661,E,21.62,309.48,230517,,,A*58
$GPRMC,095010.200,A,3540.5282,N,13943.0656,E,21.61,310.06,230517,,,A*55
$GPRMC,095010.300,A,3540.5287,N,13943.0651,E,21.60,310.67,230517,,,A*50
$GPRMC,095010.400,A,3540.5293,N,13943.0646,E,21.61,311.25,230517,,,A*52
$GPRMC,095010.500,A,3540.5299,N,13943.0642,E,21.61,311.85,230517,,,A*57
$GPRMC,095010.600,A,3540.5305,N,13943.0637,E,21.60,312.53,230517,,,A*5B
$GPRMC,095010.700,A,3540.5310,N,13943.0633,E,21.58,313.18,230517,,,A*5F
$GPRMC,095010.800,A,3540.5316,N,13943.0629,E,21.56,313.82,230517,,,A*50
$GPRMC,095010.900,A,3540.5322,N,13943.0624,E,21.54,314.33,230517,,,A*54
$GPRMC,095011.000,A,3540.5327,N,13943.0620,E,21.51,314.89,230517,,,A*59
$GPRMC,095011.100,A,3540.5333,N,13943.0616,E,21.47,315.39,230517,,,A*55
$GPRMC,095011.200,A,3540.5339,N,13943.0612,E,21.43,316.21,230517,,,A*56
$GPRMC,095011.300,A,3540.5345,N,13943.0609,E,21.38,317.00,230517,,,A*58
$GPRMC,095011.400,A,3540.5351,N,13943.0606,E,21.31,317.96,230517,,,A*53
$GPRMC,095011.500,A,3540.5357,N,13943.0602,E,21.23,318.44,230517,,,A*53
$GPRMC,095011.600,A,3540.5362,N,13943.0599,E,21.14,319.00,230517,,,A*52
$GPRMC,095011.700,A,3540.5367,N,13943.0595,E,21.04,319.49,230517,,,A*56
$GPRMC,095011.800,A,3540.5373,N,13943.0592,E,20.93,319.95,230517,,,A*55
$GPRMC,095011.900,A,3540.5378,N,13943.0589,E,20.82,320.38,230517,,,A*58
$GPRMC,095012.000,A,3540.5382,N,13943.0586,E,20.69,320.70,230517,,,A*51
$GPRMC,095012.100,A,3540.5387,N,13943.0582,E,20.55,320.98,230517,,,A*58
$GPRMC,095012.200,A,3540.5392,N,13943.0580,E,20.34,321.70,230517,,,A*5D
$GPRMC,095012.300,A,3540.5396,N,13943.0577,E,20.16,322.03,230517,,,A*57
$GPRMC,095012.400,A,3540.5400,N,13943.0574,E,19.98,322.40,230517,,,A*50
$GPRMC,095012.500,A,3540.5404,N,13943.0571,E,19.76,322.75,230517,,,A*56
$GPRMC,095012.600,A,3540.5408,N,13943.0569,E,19.56,322.99,230517,,,A*50
$GPRMC,095012.700,A,3540.5412,N,13943.0566,E,19.31,323.32,230517,,,A*54
$GPRMC,095012.800,A,3540.5415,N,13943.0564,E,19.08,323.61,230517,,,A*52
$GPRMC,095012.900,A,3540.5419,N,13943.0561,E,18.83,323.96,230517,,,A*50
$GPRMC,095013.000,A,3540.5422,N,13943.0559,E,18.57,324.27,230517,,,A*5F
$GPRMC,095013.100,A,3540.5426,N,13943.0557,E,18.30,324.61,230517,,,A*57
$GPRMC,095013.200,A,3540.5429,N,13943.0556,E,18.01,325.16,230517,,,A*59
$GPRMC,095013.300,A,3540.5432,N,13943.0554,E,17.75,325.58,230517,,,A*56
$GPRMC,095013.400,A,3540.5436,N,13943.0552,E,17.49,325.88,230517,,,A*51
$GPRMC,095013.500,A,3540.5439,N,13943.0551,E,17.20,326.17,230517,,,A*56
$GPRMC,095013.600,A,3540.5442,N,13943.0549,E,16.93,326.48,230517,,,A*53
$GPRMC,095013.700,A,3540.5445,N,13943.0548,E,16.64,326.90,230517,,,A*59
$GPRMC,095013.800,A,3540.5448,N,13943.0547,E,16.36,327.37,230517,,,A*5F
$GPRMC,095013.900,A,3540.5451,N,13943.0546,E,16.07,327.85,230517,,,A*5C
$GPRMC,095014.000,A,3540.5454,N,13943.0545,E,15.78,328.29,230517,,,A*56
$GPRMC,095014.100,A,3540.5457,N,13943.0544,E,15.50,328.93,230517,,,A*5E
$GPRMC,095014.200,A,3540.5460,N,13943.0543,E,15.20,329.44,230517,,,A*52
$GPRMC,095014.300,A,3540.5463,N,13943.0542,E,14.93,329.99,230517,,,A*58
$GPRMC,095014.400,A,3540.5465,N,13943.0542,E,14.64,330.53,230517,,,A*5F
$GPRMC,095014.500,A,3540.5468,N,13943.0541,E,14.38,331.03,230517,,,A*5D
$GPRMC,095014.600,A,3540.5471,N,13943.0540,E,14.11,331.56,230517,,,A*5C
$GPRMC,095014.700,A,3540.5473,N,13943.0539,E,13.85,331.92,230517,,,A*53
$GPRMC,095014.800,A,3540.5476,N,13943.0538,E,13.59,332.23,230517,,,A*50
$GPRMC,095014.900,A,3540.5478,N,13943.0537,E,13.34,332.48,230517,,,A*56
$GPRMC,095015.000,A,3540.5480,N,13943.0536,E,13.06,332.72,230517,,,A*50
$GPRMC,095015.100,A,3540.5482,N,13943.0535,E,12.80,332.95,230517,,,A*56
$GPRMC,095015.200,A,3540.5485,N,13943.0534,E,12.55,333.20,230517,,,A*54
$GPRMC,095015.300,A,3540.5487,N,13943.0534,E,12.29,333.46,230517,,,A*5C
$GPRMC,095015.400,A,3540.5489,N,13943.0533,E,12.05,333.72,230517,,,A*5B
$GPRMC,095015.500,A,3540.5491,N,13943.0532,E,11.83,333.90,230517,,,A*53
$GPRMC,095015.600,A,3540.5493,N,13943.0531,E,11.61,334.15,230517,,,A*57
$GPRMC,095015.700,A,3540.5495,N,13943.0530,E,11.40,334.43,230517,,,A*51
$GPRMC,095015.800,A,3540.5498,N,13943.0529,E,11.18,334.67,230517,,,A*50
$GPRMC,095015.900,A,3540.5500,N,13943.0529,E,10.99,335.10,230517,,,A*58
$GPRMC,095016.000,A,3540.5502,N,13943.0528,E,10.80,335.33,230517,,,A*58
$GPRMC,095016.100,A,3540.5504,N,13943.0528,E,10.59,335.65,230517,,,A*58
$GPRMC,095016.200,A,3540.5506,N,13943.0527,E,10.38,335.91,230517,,,A*5A
$GPRMC,095016.300,A,3540.5508,N,13943.0526,E,10.16,336.21,230517,,,A*50
$GPRMC,095016.400,A,3540.5511,N,13943.0526,E,9.98,336.54,230517,,,A*63
$GPRMC,095016.500,A,3540.5513,N,13943.0526,E,9.76,336.92,230517,,,A*6A
$GPRMC,095016.600,A,3540.5515,N,13943.0525,E,9.54,337.27,230517,,,A*63
$GPRMC,095016.700,A,3540.5516,N,13943.0525,E,9.33,337.49,230517,,,A*68
$GPRMC,095016.800,A,3540.5518,N,13943.0524,E,9.13,337.64,230517,,,A*65
$GPRMC,095016.900,A,3540.5520,N,13943.0523,E,8.91,337.85,230517,,,A*6C
$GPRMC,095017.000,A,3540.5521,N,13943.0523,E,8.72,338.07,230517,,,A*6D
$GPRMC,095017.100,A,3540.5523,N,13943.0522,E,8.52,338.27,230517,,,A*6F
$GPRMC,095017.200,A,3540.5525,N,13943.0521,E,8.35,338.49,230517,,,A*60
$GPRMC,095017.300,A,3540.5526,N,13943.0521,E,8.17,338.73,230517,,,A*6B
$GPRMC,095017.400,A,3540.5528,N,13943.0521,E,8.01,339.13,230517,,,A*62
$GPRMC,095017.500,A,3540.5530,N,13943.0520,E,7.85,339.34,230517,,,A*6D
$GPRMC,095017.600,A,3540.5531,N,13943.0520,E,7.70,339.54,230517,,,A*63
$GPRMC,095017.700,A,3540.5533,N,13943.0519,E,7.56,339.67,230517,,,A*6E
$GPRMC,095017.800,A,3540.5534,N,13943.0519,E,7.43,339.87,230517,,,A*6C
$GPRMC,095017.900,A,3540.5536,N,13943.0518,E,7.31,340.04,230517,,,A*6E
$GPRMC,095018.000,A,3540.5538,N,13943.0518,E,7.20,340.03,230517,,,A*61
$GPRMC,095018.100,A,3540.5539,N,13943.0516,E,7.04,339.10,230517,,,A*65
$GPRMC,095018.200,A,3540.5540,N,13943.0516,E,6.95,339.20,230517,,,A*62
$GPRMC,095018.300,A,3540.5542,N,13943.0515,E,6.85,338.91,230517,,,A*68
$GPRMC,095018.400,A,3540.5544,N,13943.0514,E,6.81,339.01,230517,,,A*64
$GPRMC,095018.500,A,3540.5545,N,13943.0513,E,6.73,338.97,230517,,,A*60
$GPRMC,095018.600,A,3540.5547,N,13943.0513,E,6.68,339.04,230517,,,A*60
$GPRMC,095018.700,A,3540.5549,N,13943.0512,E,6.66,339.55,230517,,,A*64
$GPRMC,095018.800,A,3540.5551,N,13943.0511,E,6.60,338.87,230517,,,A*69
$GPRMC,095018.900,A,3540.5553,N,13943.0511,E,6.57,338.74,230517,,,A*62
$GPRMC,095019.000,A,3540.5554,N,13943.0510,E,6.56,338.67,230517,,,A*6F
$GPRMC,095019.100,A,3540.5556,N,13943.0509,E,6.55,338.43,230517,,,A*61
$GPRMC,095019.200,A,3540.5558,N,13943.0508,E,6.55,338.38,230517,,,A*61
$GPRMC,095019.300,A,3540.5560,N,13943.0507,E,6.55,337.81,230517,,,A*69
$GPRMC,095019.400,A,3540.5562,N,13943.0507,E,6.58,337.54,230517,,,A*69
$GPRMC,095019.500,A,3540.5565,N,13943.0506,E,6.63,337.47,230517,,,A*64
$GPRMC,095019.600,A,3540.5567,N,13943.0505,E,6.67,337.19,230517,,,A*69
$GPRMC,095019.700,A,3540.5569,N,13943.0504,E,6.72,336.89,230517,,,A*6B
$GPRMC,095019.800,A,3540.5571,N,13943.0503,E,6.77,336.54,230517,,,A*6F
$GPRMC,095019.900,A,3540.5573,N,13943.0502,E,6.85,335.86,230517,,,A*6C
$GPRMC,095020.000,A,3540.5575,N,13943.0500,E,6.94,335.51,230517,,,A*61
$GPRMC,095020.100,A,3540.5578,N,13943.0499,E,7.02,335.25,230517,,,A*61
$GPRMC,095020.200,A,3540.5580,N,13943.0498,E,7.13,334.75,230517,,,A*60
$GPRMC,095020.300,A,3540.5582,N,13943.0497,E,7.24,334.27,230517,,,A*6F
$GPRMC,095020.400,A,3540.5585,N,13943.0495,E,7.36,333.93,230517,,,A*66
$GPRMC,095020.500,A,3540.5587,N,13943.0494,E,7.51,333.39,230517,,,A*65
$GPRMC,095020.600,A,3540.5590,N,13943.0492,E,7.64,332.99,230517,,,A*6B
$GPRMC,095020.700,A,3540.5592,N,13943.0490,E,7.83,332.40,230517,,,A*67
$GPRMC,095020.800,A,3540.5595,N,13943.0488,E,8.02,332.00,230517,,,A*64
$GPRMC,095020.900,A,3540.5597,N,13943.0487,E,8.19,331.61,230517,,,A*66
$GPRMC,095021.000,A,3540.5600,N,13943.0485,E,8.39,331.24,230517,,,A*62
$GPRMC,095021.100,A,3540.5603,N,13943.0483,E,8.62,330.89,230517,,,A*6E
$GPRMC,095021.200,A,3540.5606,N,13943.0481,E,8.83,330.76,230517,,,A*65
$GPRMC,095021.300,A,3540.5609,N,13943.0479,E,9.04,330.73,230517,,,A*67
$GPRMC,095021.400,A,3540.5612,N,13943.0477,E,9.26,330.64,230517,,,A*62
$GPRMC,095021.500,A,3540.5615,N,13943.0475,E,9.47,330.73,230517,,,A*67
$GPRMC,095021.600,A,3540.5619,N,13943.0474,E,9.66,330.97,230517,,,A*60
$GPRMC,095021.700,A,3540.5622,N,13943.0472,E,9.88,330.98,230517,,,A*60
$GPRMC,095021.800,A,3540.5626,N,13943.0470,E,10.08,331.15,230517,,,A*5D
$GPRMC,095021.900,A,3540.5629,N,13943.0468,E,10.29,331.18,230517,,,A*54
$GPRMC,095022.000,A,3540.5633,N,13943.0466,E,10.47,331.55,230517,,,A*5A
$GPRMC,095022.100,A,3540.5636,N,13943.0465,E,10.68,331.86,230517,,,A*5E
$GPRMC,095022.200,A,3540.5640,N,13943.0463,E,10.88,332.12,230517,,,A*5A
$GPRMC,095022.300,A,3540.5644,N,13943.0461,E,11.11,332.48,230517,,,A*53
$GPRMC,095022.400,A,3540.5648,N,13943.0459,E,11.32,332.96,230517,,,A*51
$GPRMC,095022.500,A,3540.5652,N,13943.0458,E,11.56,333.44,230517,,,A*56
$GPRMC,095022.600,A,3540.5656,N,13943.0456,E,11.78,333.92,230517,,,A*58
$GPRMC,095022.700,A,3540.5661,N,13943.0455,E,12.04,334.48,230517,,,A*56
$GPRMC,095022.800,A,3540.5665,N,13943.0453,E,12.30,334.90,230517,,,A*59
$GPRMC,095022.900,A,3540.5669,N,13943.0451,E,12.57,335.33,230517,,,A*5F
$GPRMC,095023.000,A,3540.5674,N,13943.0450,E,12.84,335.72,230517,,,A*51
$GPRMC,095023.100,A,3540.5679,N,13943.0448,E,13.11,336.03,230517,,,A*5C
$GPRMC,095023.200,A,3540.5684,N,13943.0447,E,13.38,336.41,230517,,,A*5F
$GPRMC,095023.300,A,3540.5689,N,13943.0445,E,13.67,336.78,230517,,,A*51
$GPRMC,095023.400,A,3540.5694,N,13943.0443,E,13.94,337.07,230517,,,A*59
$GPRMC,095023.500,A,3540.5699,N,13943.0442,E,14.22,337.53,230517,,,A*5F
$GPRMC,095023.600,A,3540.5704,N,13943.0440,E,14.49,337.93,230517,,,A*5A
$GPRMC,095023.700,A,3540.5709,N,13943.0439,E,14.74,338.31,230517,,,A*51
$GPRMC,095023.800,A,3540.5714,N,13943.0437,E,15.01,338.61,230517,,,A*5A
$GPRMC,095023.900,A,3540.5720,N,13943.0436,E,15.27,338.81,230517,,,A*57
$GPRMC,095024.000,A,3540.5725,N,13943.0434,E,15.54,339.03,230517,,,A*51
$GPRMC,095024.100,A,3540.5731,N,13943.0432,E,15.80,339.21,230517,,,A*5A
$GPRMC,095024.200,A,3540.5736,N,13943.0431,E,16.05,339.48,230517,,,A*5C
$GPRMC,095024.300,A,3540.5742,N,13943.0430,E,16.32,340.26,230517,,,A*5D
$GPRMC,095024.400,A,3540.5747,N,13943.0428,E,16.56,340.40,230517,,,A*54
$GPRMC,095024.500,A,3540.5753,N,13943.0426,E,16.80,340.52,230517,,,A*56
$GPRMC,095024.600,A,3540.5758,N,13943.0424,E,17.02,340.66,230517,,,A*50
$GPRMC,095024.700,A,3540.5764,N,13943.0422,E,17.27,340.70,230517,,,A*58
$GPRMC,095024.800,A,3540.5770,N,13943.0420,E,17.51,340.99,230517,,,A*56
$GPRMC,095024.900,A,3540.5775,N,13943.0418,E,17.72,341.10,230517,,,A*58
$GPRMC,095025.000,A,3540.5781,N,13943.0417,E,17.94,341.27,230517,,,A*58
$GPRMC,095025.100,A,3540.5787,N,13943.0414,E,18.14,341.34,230517,,,A*59
$GPRMC,095025.200,A,3540.5793,N,13943.0413,E,18.36,341.43,230517,,,A*58
$GPRMC,095025.300,A,3540.5799,N,13943.0411,E,18.54,341.44,230517,,,A*52
$GPRMC,095025.400,A,3540.5804,N,13943.0407,E,18.77,340.77,230517,,,A*59
$GPRMC,095025.500,A,3540.5810,N,13943.0404,E,18.97,340.48,230517,,,A*5C
$GPRMC,095025.600,A,3540.5816,N,13943.0402,E,19.16,340.55,230517,,,A*5B
$GPRMC,095025.700,A,3540.5821,N,13943.0399,E,19.34,340.42,230517,,,A*5D
$GPRMC,095025.800,A,3540.5827,N,13943.0396,E,19.52,340.33,230517,,,A*5D
$GPRMC,095025.900,A,3540.5833,N,13943.0393,E,19.71,340.18,230517,,,A*54
$GPRMC,095026.000,A,3540.5839,N,13943.0390,E,19.88,340.05,230517,,,A*5D
$GPRMC,095026.100,A,3540.5845,N,13943.0388,E,20.05,340.02,230517,,,A*56
$GPRMC,095026.200,A,3540.5851,N,13943.0385,E,20.21,340.04,230517,,,A*5D
$GPRMC,095026.300,A,3540.5857,N,13943.0382,E,20.37,339.85,230517,,,A*5D
$GPRMC,095026.400,A,3540.5863,N,13943.0379,E,20.51,339.86,230517,,,A*5A
$GPRMC,095026.500,A,3540.5869,N,13943.0376,E,20.65,339.85,230517,,,A*5A
$GPRMC,095026.600,A,3540.5875,N,13943.0373,E,20.78,339.76,230517,,,A*51
$GPRMC,095026.700,A,3540.5881,N,13943.0370,E,20.90,339.53,230517,,,A*59
$GPRMC,095026.800,A,3540.5887,N,13943.0366,E,21.03,339.30,230517,,,A*59
$GPRMC,095026.900,A,3540.5893,N,13943.0363,E,21.16,338.96,230517,,,A*51
$GPRMC,095027.000,A,3540.5899,N,13943.0358,E,21.29,338.52,230517,,,A*5F
$GPRMC,095027.100,A,3540.5905,N,13943.0354,E,21.41,338.20,230517,,,A*5D
$GPRMC,095027.200,A,3540.5911,N,13943.0350,E,21.53,337.98,230517,,,A*50
$GPRMC,095027.300,A,3540.5917,N,13943.0347,E,21.65,337.74,230517,,,A*56
$GPRMC,095027.400,A,3540.5923,N,13943.0343,E,21.73,337.53,230517,,,A*50
$GPRMC,095027.500,A,3540.5928,N,13943.0339,E,21.82,337.28,230517,,,A*55
$GPRMC,095027.600,A,3540.5934,N,13943.0335,E,21.93,337.01,230517,,,A*5C
$GPRMC,095027.700,A,3540.5940,N,13943.0330,E,22.02,336.69,230517,,,A*5F
$GPRMC,095027.800,A,3540.5946,N,13943.0326,E,22.11,336.49,230517,,,A*51
$GPRMC,095027.900,A,3540.5952,N,13943.0322,E,22.17,336.39,230517,,,A*50
$GPRMC,095028.000,A,3540.5958,N,13943.0319,E,22.22,336.38,230517,,,A*53
$GPRMC,095028.100,A,3540.5964,N,13943.0315,E,22.32,336.26,230517,,,A*5F
$GPRMC,095028.200,A,3540.5970,N,13943.0311,E,22.36,336.31,230517,,,A*5F
$GPRMC,095028.300,A,3540.5976,N,13943.0308,E,22.39,336.41,230517,,,A*58
$GPRMC,095028.400,A,3540.5982,N,13943.0304,E,22.42,336.41,230517,,,A*54
$GPRMC,095028.500,A,3540.5987,N,13943.0300,E,22.44,336.41,230517,,,A*52
$GPRMC,095028.600,A,3540.5993,N,13943.0297,E,22.48,336.37,230517,,,A*56
$GPRMC,095028.700,A,3540.5999,N,13943.0293,E,22.51,336.34,230517,,,A*52
$GPRMC,095028.800,A,3540.6005,N,13943.0289,E,22.54,336.26,230517,,,A*5F
$GPRMC,095028.900,A,3540.6010,N,13943.0285,E,22.57,336.21,230517,,,A*52
$GPRMC,095029.000,A,3540.6016,N,13943.0281,E,22.61,336.27,230517,,,A*5B
$GPRMC,095029.100,A,3540.6022,N,13943.0278,E,22.64,336.20,230517,,,A*59
$GPRMC,095029.200,A,3540.6028,N,13943.0274,E,22.66,336.13,230517,,,A*5E
$GPRMC,095029.300,A,3540.6034,N,13943.0270,E,22.70,336.06,230517,,,A*55
$GPRMC,095029.400,A,3540.6039,N,13943.0266,E,22.72,336.03,230517,,,A*5F
$GPRMC,095029.500,A,3540.6045,N,13943.0262,E,22.73,336.03,230517,,,A*50
$GPRMC,095029.600,A,3540.6051,N,13943.0259,E,22.72,336.24,230517,,,A*5A
$GPRMC,095029.700,A,3540.6057,N,13943.0256,E,22.72,336.29,230517,,,A*5F
$GPRMC,095029.800,A,3540.6063,N,13943.0253,E,22.69,336.37,230517,,,A*57
$GPRMC,095029.900,A,3540.6069,N,13943.0249,E,22.69,336.41,230517,,,A*56
$GPRMC,095030.000,A,3540.6074,N,13943.0246,E,22.67,336.48,230517,,,A*53
$GPRMC,095030.100,A,3540.6080,N,13943.0243,E,22.62,336.64,230517,,,A*57
$GPRMC,095030.200,A,3540.6086,N,13943.0239,E,22.62,336.41,230517,,,A*58
$GPRMC,095030.300,A,3540.6092,N,13943.0236,E,22.60,336.44,230517,,,A*54
$GPRMC,095030.400,A,3540.6097,N,13943.0233,E,22.56,336.46,230517,,,A*54
$GPRMC,095030.500,A,3540.6103,N,13943.0231,E,22.45,336.65,230517,,,A*58
$GPRMC,095030.600,A,3540.6108,N,13943.0229,E,22.36,336.83,230517,,,A*55
$GPRMC,095030.700,A,3540.6114,N,13943.0226,E,22.28,336.91,230517,,,A*5A
$GPRMC,095030.800,A,3540.6119,N,13943.0223,E,22.23,336.90,230517,,,A*57
$GPRMC,095030.900,A,3540.6125,N,13943.0220,E,22.21,336.82,230517,,,A*5B
$GPRMC,095031.000,A,3540.6130,N,13943.0217,E,22.17,336.84,230517,,,A*50
$GPRMC,095031.100,A,3540.6136,N,13943.0214,E,22.13,336.92,230517,,,A*57
$GPRMC,095031.200,A,3540.6142,N,13943.0211,E,22.11,336.98,230517,,,A*5A
$GPRMC,095031.300,A,3540.6147,N,13943.0209,E,22.08,337.00,230517,,,A*5F
$GPRMC,095031.400,A,3540.6153,N,13943.0206,E,22.06,337.09,230517,,,A*55
$GPRMC,095031.500,A,3540.6159,N,13943.0204,E,22.06,337.20,230517,,,A*57
$GPRMC,095031.600,A,3540.6165,N,13943.0201,E,22.05,337.30,230517,,,A*5C
$GPRMC,095031.700,A,3540.6171,N,13943.0198,E,22.06,337.34,230517,,,A*5C
$GPRMC,095031.800,A,3540.6176,N,13943.0195,E,22.08,337.27,230517,,,A*55
$GPRMC,095031.900,A,3540.6182,N,13943.0193,E,22.06,337.49,230517,,,A*5F
$GPRMC,095032.000,A,3540.6188,N,13943.0191,E,22.07,337.57,230517,,,A*53
$GPRMC,095032.100,A,3540.6194,N,13943.0188,E,22.09,337.62,230517,,,A*5F
$GPRMC,095032.200,A,3540.6200,N,13943.0185,E,22.11,337.72,230517,,,A*57
$GPRMC,095032.300,A,3540.6205,N,13943.0183,E,22.12,337.83,230517,,,A*58
$GPRMC,095032.400,A,3540.6211,N,13943.0181,E,22.14,337.98,230517,,,A*54
$GPRMC,095032.500,A,3540.6217,N,13943.0178,E,22.17,338.12,230517,,,A*5B
$GPRMC,095032.600,A,3540.6223,N,13943.0176,E,22.20,338.25,230517,,,A*51
$GPRMC,095032.700,A,3540.6229,N,13943.0173,E,22.24,338.36,230517,,,A*59
$GPRMC,095032.800,A,3540.6235,N,13943.0171,E,22.27,338.47,230517,,,A*5C
$GPRMC,095032.900,A,3540.6241,N,13943.0168,E,22.35,338.48,230517,,,A*5A
$GPRMC,095033.000,A,3540.6248,N,13943.0166,E,22.44,338.52,230517,,,A*58
$GPRMC,095033.100,A,3540.6254,N,13943.0163,E,22.52,338.56,230517,,,A*52
$GPRMC,095033.200,A,3540.6260,N,13943.0161,E,22.61,338.57,230517,,,A*55
$GPRMC,095033.300,A,3540.6267,N,13943.0158,E,22.68,338.58,230517,,,A*5F
$GPRMC,095033.400,A,3540.6273,N,13943.0155,E,22.77,338.63,230517,,,A*56
$GPRMC,095033.500,A,3540.6280,N,13943.0152,E,22.86,338.64,230517,,,A*55
$GPRMC,095033.600,A,3540.6286,N,13943.0150,E,22.93,338.71,230517,,,A*52
$GPRMC,095033.700,A,3540.6292,N,13943.0148,E,23.00,338.78,230517,,,A*5D
$GPRMC,095033.800,A,3540.6299,N,13943.0145,E,23.10,338.83,230517,,,A*51
$GPRMC,095033.900,A,3540.6306,N,13943.0143,E,23.18,338.89,230517,,,A*53
$GPRMC,095034.000,A,3540.6312,N,13943.0140,E,23.27,338.90,230517,,,A*5F
$GPRMC,095034.100,A,3540.6319,N,13943.0137,E,23.35,338.94,230517,,,A*52
$GPRMC,095034.200,A,3540.6325,N,13943.0134,E,23.43,338.98,230517,,,A*50
$GPRMC,095034.300,A,3540.6332,N,13943.0131,E,23.51,338.98,230517,,,A*51
$GPRMC,095034.400,A,3540.6338,N,13943.0129,E,23.59,339.00,230517,,,A*5D
$GPRMC,095034.500,A,3540.6345,N,13943.0126,E,23.65,339.03,230517,,,A*55
$GPRMC,095034.600,A,3540.6351,N,13943.0123,E,23.74,339.04,230517,,,A*51
$GPRMC,095034.700,A,3540.6358,N,13943.0120,E,23.81,339.03,230517,,,A*57
$GPRMC,095034.800,A,3540.6364,N,13943.0117,E,23.88,339.05,230517,,,A*5C
$GPRMC,095034.900,A,3540.6371,N,13943.0114,E,23.93,339.06,230517,,,A*53
$GPRMC,095035.000,A,3540.6377,N,13943.0111,E,24.02,339.07,230517,,,A*56
$GPRMC,095035.100,A,3540.6384,N,13943.0108,E,24.10,339.04,230517,,,A*53
$GPRMC,095035.200,A,3540.6391,N,13943.0104,E,24.17,338.98,230517,,,A*5B
$GPRMC,095035.300,A,3540.6397,N,13943.0101,E,24.25,338.97,230517,,,A*57
$GPRMC,095035.400,A,3540.6404,N,13943.0098,E,24.32,338.95,230517,,,A*58
$GPRMC,095035.500,A,3540.6411,N,13943.0095,E,24.38,338.94,230517,,,A*5B
$GPRMC,095035.600,A,3540.6417,N,13943.0092,E,24.45,338.90,230517,,,A*57
$GPRMC,095035.700,A,3540.6424,N,13943.0089,E,24.54,338.88,230517,,,A*55
$GPRMC,095035.800,A,3540.6431,N,13943.0086,E,24.60,338.86,230517,,,A*58
$GPRMC,095035.900,A,3540.6438,N,13943.0083,E,24.67,338.86,230517,,,A*52
$GPRMC,095036.000,A,3540.6445,N,13943.0080,E,24.74,338.89,230517,,,A*5C
$GPRMC,095036.100,A,3540.6451,N,13943.0077,E,24.78,338.92,230517,,,A*56
$GPRMC,095036.200,A,3540.6458,N,13943.0074,E,24.85,338.93,230517,,,A*5C
$GPRMC,095036.300,A,3540.6465,N,13943.0071,E,24.90,338.96,230517,,,A*57
$GPRMC,095036.400,A,3540.6472,N,13943.0068,E,24.97,338.96,230517,,,A*59
$GPRMC,095036.500,A,3540.6479,N,13943.0065,E,25.03,338.96,230517,,,A*52
$GPRMC,095036.600,A,3540.6486,N,13943.0062,E,25.09,338.95,230517,,,A*5F
$GPRMC,095036.700,A,3540.6493,N,13943.0059,E,25.15,338.94,230517,,,A*5E
$GPRMC,095036.800,A,3540.6500,N,13943.0056,E,25.20,338.91,230517,,,A*56
$GPRMC,095036.900,A,3540.6507,N,13943.0053,E,25.26,338.86,230517,,,A*55
$GPRMC,095037.000,A,3540.6513,N,13943.0050,E,25.32,338.82,230517,,,A*5A
$GPRMC,095037.100,A,3540.6520,N,13943.0047,E,25.39,338.75,230517,,,A*5E
$GPRMC,095037.200,A,3540.6527,N,13943.0044,E,25.46,338.76,230517,,,A*52
$GPRMC,095037.300,A,3540.6534,N,13943.0041,E,25.53,338.76,230517,,,A*50
$GPRMC,095037.400,A,3540.6541,N,13943.0038,E,25.59,338.75,230517,,,A*52
$GPRMC,095037.500,A,3540.6549,N,13943.0035,E,25.66,338.69,230517,,,A*57
$GPRMC,095037.600,A,3540.6556,N,13943.0031,E,25.72,338.63,230517,,,A*51
$GPRMC,095037.700,A,3540.6563,N,13943.0028,E,25.78,338.62,230517,,,A*55
$GPRMC,095037.800,A,3540.6570,N,13943.0025,E,25.84,338.61,230517,,,A*55
$GPRMC,095037.900,A,3540.6578,N,13943.0022,E,25.90,338.63,230517,,,A*5C
$GPRMC,095038.000,A,3540.6585,N,13943.0019,E,25.95,338.64,230517,,,A*52
$GPRMC,095038.100,A,3540.6593,N,13943.0016,E,26.01,338.66,230517,,,A*57
$GPRMC,095038.200,A,3540.6600,N,13943.0013,E,26.06,338.68,230517,,,A*51
$GPRMC,095038.300,A,3540.6607,N,13943.0010,E,26.13,338.72,230517,,,A*5B
$GPRMC,095038.400,A,3540.6615,N,13943.0007,E,26.17,338.74,230517,,,A*5B
$GPRMC,095038.500,A,3540.6622,N,13943.0004,E,26.22,338.77,230517,,,A*58
$GPRMC,095038.600,A,3540.6630,N,13943.0002,E,26.29,338.83,230517,,,A*5E
$GPRMC,095038.700,A,3540.6637,N,13942.9998,E,26.34,338.86,230517,,,A*53
$GPRMC,095038.800,A,3540.6645,N,13942.9995,E,26.40,338.88,230517,,,A*59
$GPRMC,095038.900,A,3540.6652,N,13942.9992,E,26.46,338.90,230517,,,A*56
$GPRMC,095039.000,A,3540.6660,N,13942.9989,E,26.53,338.92,230517,,,A*53
$GPRMC,095039.100,A,3540.6667,N,13942.9986,E,26.59,338.95,230517,,,A*57
$GPRMC,095039.200,A,3540.6674,N,13942.9983,E,26.66,338.99,230517,,,A*53
$GPRMC,095039.300,A,3540.6682,N,13942.9980,E,26.75,339.00,230517,,,A*5B
$GPRMC,095039.400,A,3540.6689,N,13942.9976,E,26.82,339.02,230517,,,A*54
$GPRMC,095039.500,A,3540.6697,N,13942.9973,E,26.90,339.04,230517,,,A*5A
$GPRMC,095039.600,A,3540.6705,N,13942.9970,E,26.98,339.08,230517,,,A*54
$GPRMC,095039.700,A,3540.6712,N,13942.9967,E,27.07,339.10,230517,,,A*5B
$GPRMC,095039.800,A,3540.6720,N,13942.9963,E,27.16,339.06,230517,,,A*56
$GPRMC,095039.900,A,3540.6728,N,13942.9960,E,27.25,339.11,230517,,,A*5A
$GPRMC,095040.000,A,3540.6735,N,13942.9957,E,27.33,339.10,230517,,,A*53
$GPRMC,095040.100,A,3540.6743,N,13942.9954,E,27.44,339.10,230517,,,A*50
$GPRMC,095040.200,A,3540.6751,N,13942.9950,E,27.54,339.11,230517,,,A*54
$GPRMC,095040.300,A,3540.6759,N,13942.9947,E,27.63,339.11,230517,,,A*5F
$GPRMC,095040.400,A,3540.6767,N,13942.9944,E,27.73,339.09,230517,,,A*5E
$GPRMC,095040.500,A,3540.6775,N,13942.9940,E,27.83,339.06,230517,,,A*58
$GPRMC,095040.600,A,3540.6783,N,13942.9936,E,27.94,339.02,230517,,,A*51
$GPRMC,095040.700,A,3540.6790,N,13942.9933,E,28.05,339.00,230517,,,A*52
$GPRMC,095040.800,A,3540.6798,N,13942.9929,E,28.15,338.85,230517,,,A*53
$GPRMC,095040.900,A,3540.6806,N,13942.9925,E,28.25,338.85,230517,,,A*55
$GPRMC,095041.000,A,3540.6814,N,13942.9922,E,28.35,338.85,230517,,,A*58
$GPRMC,095041.100,A,3540.6822,N,13942.9918,E,28.45,338.83,230517,,,A*54
$GPRMC,095041.200,A,3540.6830,N,13942.9914,E,28.54,338.80,230517,,,A*5B
$GPRMC,095041.300,A,3540.6838,N,13942.9910,E,28.64,338.69,230517,,,A*52
$GPRMC,095041.400,A,3540.6846,N,13942.9906,E,28.73,338.62,230517,,,A*56
$GPRMC,095041.500,A,3540.6854,N,13942.9902,E,28.83,338.56,230517,,,A*58
$GPRMC,095041.600,A,3540.6862,N,13942.9899,E,28.90,338.58,230517,,,A*51
$GPRMC,095041.700,A,3540.6870,N,13942.9895,E,28.97,338.53,230517,,,A*53
$GPRMC,095041.800,A,3540.6879,N,13942.9891,E,29.04,338.48,230517,,,A*50
$GPRMC,095041.900,A,3540.6887,N,13942.9888,E,29.09,338.52,230517,,,A*5E
$GPRMC,095042.000,A,3540.6895,N,13942.9884,E,29.15,338.54,230517,,,A*50
$GPRMC,095042.100,A,3540.6903,N,13942.9881,E,29.20,338.55,230517,,,A*5D
$GPRMC,095042.200,A,3540.6911,N,13942.9877,E,29.24,338.57,230517,,,A*52
$GPRMC,095042.300,A,3540.6920,N,13942.9874,E,29.26,338.58,230517,,,A*5F
$GPRMC,095042.400,A,3540.6928,N,13942.9870,E,29.30,338.62,230517,,,A*5A
$GPRMC,095042.500,A,3540.6936,N,13942.9867,E,29.32,338.62,230517,,,A*50
$GPRMC,095042.600,A,3540.6944,N,13942.9863,E,29.33,338.64,230517,,,A*55
$GPRMC,095042.700,A,3540.6952,N,13942.9860,E,29.33,338.59,230517,,,A*5E
$GPRMC,095042.800,A,3540.6960,N,13942.9856,E,29.30,338.64,230517,,,A*58
$GPRMC,095042.900,A,3540.6968,N,13942.9853,E,29.29,338.70,230517,,,A*59
$GPRMC,095043.000,A,3540.6976,N,13942.9849,E,29.28,338.75,230517,,,A*51
$GPRMC,095043.100,A,3540.6984,N,13942.9846,E,29.24,338.82,230517,,,A*56
$GPRMC,095043.200,A,3540.6991,N,13942.9843,E,29.21,338.90,230517,,,A*52
$GPRMC,095043.300,A,3540.6999,N,13942.9839,E,29.17,339.02,230517,,,A*59
$GPRMC,095043.400,A,3540.7007,N,13942.9836,E,29.14,339.13,230517,,,A*5D
$GPRMC,095043.500,A,3540.7015,N,13942.9833,E,29.09,339.21,230517,,,A*57
$GPRMC,095043.600,A,3540.7023,N,13942.9830,E,29.05,339.34,230517,,,A*5A
$GPRMC,095043.700,A,3540.7031,N,13942.9827,E,29.00,339.48,230517,,,A*50
$GPRMC,095043.800,A,3540.7039,N,13942.9823,E,28.94,339.50,230517,,,A*56
$GPRMC,095043.900,A,3540.7046,N,13942.9819,E,28.87,339.44,230517,,,A*51
$GPRMC,095044.000,A,3540.7054,N,13942.9816,E,28.78,339.49,230517,,,A*5E
$GPRMC,095044.100,A,3540.7061,N,13942.9813,E,28.69,339.60,230517,,,A*57
$GPRMC,095044.200,A,3540.7069,N,13942.9810,E,28.57,339.71,230517,,,A*52
$GPRMC,095044.300,A,3540.7076,N,13942.9807,E,28.44,339.86,230517,,,A*51
$GPRMC,095044.400,A,3540.7084,N,13942.9805,E,28.31,340.04,230517,,,A*5F
$GPRMC,095044.500,A,3540.7091,N,13942.9802,E,28.20,340.17,230517,,,A*5F
$GPRMC,095044.600,A,3540.7098,N,13942.9800,E,28.03,340.48,230517,,,A*5C
$GPRMC,095044.700,A,3540.7106,N,13942.9798,E,27.86,340.80,230517,,,A*53
$GPRMC,095044.800,A,3540.7113,N,13942.9796,E,27.82,341.10,230517,,,A*5A
$GPRMC,095044.900,A,3540.7121,N,13942.9794,E,27.77,341.36,230517,,,A*56
$GPRMC,095045.000,A,3540.7128,N,13942.9792,E,27.73,341.56,230517,,,A*53
$GPRMC,095045.100,A,3540.7136,N,13942.9789,E,27.72,341.72,230517,,,A*50
$GPRMC,095045.200,A,3540.7144,N,13942.9787,E,27.71,341.92,230517,,,A*55
$GPRMC,095045.300,A,3540.7151,N,13942.9785,E,27.68,342.18,230517,,,A*5B
$GPRMC,095045.400,A,3540.7159,N,13942.9783,E,27.64,342.39,230517,,,A*5D
$GPRMC,095045.500,A,3540.7167,N,13942.9781,E,27.59,342.66,230517,,,A*57
$GPRMC,095045.600,A,3540.7174,N,13942.9779,E,27.53,342.87,230517,,,A*54
$GPRMC,095045.700,A,3540.7181,N,13942.9777,E,27.42,343.12,230517,,,A*5C
$GPRMC,095045.800,A,3540.7189,N,13942.9776,E,27.32,343.48,230517,,,A*52
$GPRMC,095045.900,A,3540.7196,N,13942.9775,E,27.24,343.84,230517,,,A*59
$GPRMC,095046.000,A,3540.7203,N,13942.9774,E,27.16,344.19,230517,,,A*5F
$GPRMC,095046.100,A,3540.7211,N,13942.9773,E,27.05,344.56,230517,,,A*53
$GPRMC,095046.200,A,3540.7218,N,13942.9772,E,26.95,344.99,230517,,,A*53
$GPRMC,095046.300,A,3540.7225,N,13942.9771,E,26.82,345.38,230517,,,A*53
$GPRMC,095046.400,A,3540.7232,N,13942.9770,E,26.68,345.81,230517,,,A*55
$GPRMC,095046.500,A,3540.7239,N,13942.9770,E,26.53,346.26,230517,,,A*59
$GPRMC,095046.600,A,3540.7245,N,13942.9769,E,26.34,346.73,230517,,,A*58
$GPRMC,095046.700,A,3540.7252,N,13942.9769,E,26.10,347.25,230517,,,A*5B
$GPRMC,095046.800,A,3540.7258,N,13942.9769,E,25.97,347.61,230517,,,A*52
$GPRMC,095046.900,A,3540.7265,N,13942.9768,E,25.84,347.97,230517,,,A*57
$GPRMC,095047.000,A,3540.7271,N,13942.9768,E,25.70,348.34,230517,,,A*57
$GPRMC,095047.100,A,3540.7278,N,13942.9768,E,25.56,348.77,230517,,,A*5C
$GPRMC,095047.200,A,3540.7284,N,13942.9768,E,25.42,349.20,230517,,,A*5A
$GPRMC,095047.300,A,3540.7290,N,13942.9768,E,25.22,349.71,230517,,,A*5C
$GPRMC,095047.400,A,3540.7296,N,13942.9769,E,25.02,350.31,230517,,,A*52
$GPRMC,095047.500,A,3540.7302,N,13942.9769,E,24.83,350.80,230517,,,A*5D
$GPRMC,095047.600,A,3540.7308,N,13942.9769,E,24.64,351.30,230517,,,A*57
$GPRMC,095047.700,A,3540.7314,N,13942.9770,E,24.44,351.80,230517,,,A*5A
$GPRMC,095047.800,A,3540.7319,N,13942.9770,E,24.21,352.36,230517,,,A*55
$GPRMC,095047.900,A,3540.7325,N,13942.9771,E,23.97,352.95,230517,,,A*59
$GPRMC,095048.000,A,3540.7330,N,13942.9772,E,23.73,353.52,230517,,,A*58
$GPRMC,095048.100,A,3540.7335,N,13942.9774,E,23.52,354.19,230517,,,A*51
$GPRMC,095048.200,A,3540.7341,N,13942.9775,E,23.31,354.77,230517,,,A*5D
$GPRMC,095048.300,A,3540.7345,N,13942.9776,E,23.02,355.36,230517,,,A*5F
$GPRMC,095048.400,A,3540.7350,N,13942.9778,E,22.77,356.04,230517,,,A*53
$GPRMC,095048.500,A,3540.7355,N,13942.9779,E,22.52,356.73,230517,,,A*51
$GPRMC,095048.600,A,3540.7360,N,13942.9781,E,22.31,357.36,230517,,,A*56
$GPRMC,095048.700,A,3540.7365,N,13942.9783,E,22.09,358.01,230517,,,A*50
$GPRMC,095048.800,A,3540.7369,N,13942.9784,E,21.82,358.63,230517,,,A*50
$GPRMC,095048.900,A,3540.7373,N,13942.9785,E,21.56,359.28,230517,,,A*5C
$GPRMC,095049.000,A,3540.7378,N,13942.9787,E,21.31,359.93,230517,,,A*5C
$GPRMC,095049.100,A,3540.7382,N,13942.9789,E,21.09,0.54,230517,,,A*59
$GPRMC,095049.200,A,3540.7387,N,13942.9791,E,20.86,1.19,230517,,,A*58
$GPRMC,095049.300,A,3540.7391,N,13942.9793,E,20.64,1.85,230517,,,A*55
$GPRMC,095049.400,A,3540.7396,N,13942.9795,E,20.41,2.52,230517,,,A*5D
$GPRMC,095049.500,A,3540.7400,N,13942.9797,E,20.18,3.10,230517,,,A*5D
$GPRMC,095049.600,A,3540.7403,N,13942.9798,E,19.93,3.71,230517,,,A*5C
$GPRMC,095049.700,A,3540.7408,N,13942.9800,E,19.72,4.29,230517,,,A*5D
$GPRMC,095049.800,A,3540.7411,N,13942.9802,E,19.49,4.91,230517,,,A*53
$GPRMC,095049.900,A,3540.7415,N,13942.9804,E,19.25,5.58,230517,,,A*5E
$GPRMC,095050.000,A,3540.7419,N,13942.9806,E,19.03,6.32,230517,,,A*5A
$GPRMC,095050.100,A,3540.7423,N,13942.9807,E,18.83,6.87,230517,,,A*54
$GPRMC,095050.200,A,3540.7427,N,13942.9809,E,18.64,7.43,230517,,,A*5D
$GPRMC,095050.300,A,3540.7430,N,13942.9811,E,18.46,8.08,230517,,,A*53
$GPRMC,095050.400,A,3540.7434,N,13942.9813,E,18.27,8.66,230517,,,A*5D
$GPRMC,095050.500,A,3540.7438,N,13942.9815,E,18.09,9.14,230517,,,A*5E
$GPRMC,095050.600,A,3540.7442,N,13942.9816,E,17.92,9.73,230517,,,A*5F
$GPRMC,095050.700,A,3540.7445,N,13942.9819,E,17.75,10.39,230517,,,A*69
$GPRMC,095050.800,A,3540.7449,N,13942.9820,E,17.58,10.81,230517,,,A*6C
$GPRMC,095050.900,A,3540.7453,N,13942.9821,E,17.41,11.10,230517,,,A*66
$GPRMC,095051.000,A,3540.7457,N,13942.9822,E,17.27,11.25,230517,,,A*6F
$GPRMC,095051.100,A,3540.7461,N,13942.9824,E,17.14,11.23,230517,,,A*6B
$GPRMC,095051.200,A,3540.7464,N,13942.9825,E,17.02,11.32,230517,,,A*6B
$GPRMC,095051.300,A,3540.7468,N,13942.9826,E,16.90,11.40,230517,,,A*6A
$GPRMC,095051.400,A,3540.7472,N,13942.9827,E,16.79,11.51,230517,,,A*60
$GPRMC,095051.500,A,3540.7476,N,13942.9829,E,16.68,11.66,230517,,,A*6F
$GPRMC,095051.600,A,3540.7480,N,13942.9830,E,16.56,11.84,230517,,,A*6C
$GPRMC,095051.700,A,3540.7484,N,13942.9831,E,16.45,11.99,230517,,,A*66
$GPRMC,095051.800,A,3540.7488,N,13942.9832,E,16.31,12.24,230517,,,A*60
$GPRMC,095051.900,A,3540.7491,N,13942.9833,E,16.18,12.51,230517,,,A*61
$GPRMC,095052.000,A,3540.7495,N,13942.9835,E,16.07,12.67,230517,,,A*62
$GPRMC,095052.100,A,3540.7499,N,13942.9836,E,16.04,12.67,230517,,,A*6F
$GPRMC,095052.200,A,3540.7503,N,13942.9837,E,16.02,12.63,230517,,,A*6D
$GPRMC,095052.300,A,3540.7508,N,13942.9838,E,15.99,12.60,230517,,,A*6A
$GPRMC,095052.400,A,3540.7512,N,13942.9839,E,15.96,12.58,230517,,,A*63
$GPRMC,095052.500,A,3540.7516,N,13942.9840,E,15.94,12.61,230517,,,A*60
$GPRMC,095052.600,A,3540.7520,N,13942.9842,E,15.90,12.69,230517,,,A*68
$GPRMC,095052.700,A,3540.7524,N,13942.9843,E,15.88,12.63,230517,,,A*6F
$GPRMC,095052.800,A,3540.7528,N,13942.9844,E,15.85,12.61,230517,,,A*64
$GPRMC,095052.900,A,3540.7532,N,13942.9845,E,15.82,12.65,230517,,,A*6C
$GPRMC,095053.000,A,3540.7537,N,13942.9846,E,15.80,12.68,230517,,,A*6D
$GPRMC,095053.100,A,3540.7541,N,13942.9848,E,15.78,12.67,230517,,,A*6B
$GPRMC,095053.200,A,3540.7545,N,13942.9849,E,15.76,12.66,230517,,,A*62
$GPRMC,095053.300,A,3540.7549,N,13942.9850,E,15.72,12.62,230517,,,A*67
$GPRMC,095053.400,A,3540.7552,N,13942.9850,E,15.67,12.61,230517,,,A*6D
$GPRMC,095053.500,A,3540.7557,N,13942.9852,E,15.66,12.67,230517,,,A*6C
$GPRMC,095053.600,A,3540.7561,N,13942.9853,E,15.64,12.70,230517,,,A*6F
$GPRMC,095053.700,A,3540.7564,N,13942.9854,E,15.60,12.63,230517,,,A*6A
$GPRMC,095053.800,A,3540.7568,N,13942.9855,E,15.56,12.63,230517,,,A*6D
$GPRMC,095053.900,A,3540.7572,N,13942.9857,E,15.53,12.67,230517,,,A*64
$GPRMC,095054.000,A,3540.7576,N,13942.9858,E,15.51,12.87,230517,,,A*6D
$GPRMC,095054.100,A,3540.7580,N,13942.9860,E,15.50,13.05,230517,,,A*64
$GPRMC,095054.200,A,3540.7584,N,13942.9862,E,15.50,13.25,230517,,,A*63
$GPRMC,095054.300,A,3540.7588,N,13942.9864,E,15.47,13.50,230517,,,A*6C
$GPRMC,095054.400,A,3540.7592,N,13942.9866,E,15.44,13.80,230517,,,A*6C
$GPRMC,095054.500,A,3540.7596,N,13942.9868,E,15.45,14.08,230517,,,A*61
$GPRMC,095054.600,A,3540.7599,N,13942.9870,E,15.38,14.57,230517,,,A*64
$GPRMC,095054.700,A,3540.7603,N,13942.9873,E,15.36,14.91,230517,,,A*62
$GPRMC,095054.800,A,3540.7607,N,13942.9875,E,15.35,15.30,230517,,,A*66
$GPRMC,095054.900,A,3540.7610,N,13942.9877,E,15.31,15.64,230517,,,A*66
$GPRMC,095055.000,A,3540.7614,N,13942.9879,E,15.27,16.12,230517,,,A*61
$GPRMC,095055.100,A,3540.7617,N,13942.9881,E,15.24,16.43,230517,,,A*63
$GPRMC,095055.200,A,3540.7621,N,13942.9884,E,15.21,16.79,230517,,,A*6C
$GPRMC,095055.300,A,3540.7625,N,13942.9886,E,15.19,17.03,230517,,,A*6C
$GPRMC,095055.400,A,3540.7629,N,13942.9888,E,15.22,17.28,230517,,,A*68
$GPRMC,095055.500,A,3540.7632,N,13942.9890,E,15.24,17.60,230517,,,A*60
$GPRMC,095055.600,A,3540.7636,N,13942.9893,E,15.26,18.00,230517,,,A*6F
$GPRMC,095055.700,A,3540.7640,N,13942.9896,E,15.27,18.34,230517,,,A*6C
$GPRMC,095055.800,A,3540.7643,N,13942.9899,E,15.24,18.74,230517,,,A*68
$GPRMC,095055.900,A,3540.7647,N,13942.9902,E,15.22,19.16,230517,,,A*6D
$GPRMC,095056.000,A,3540.7650,N,13942.9905,E,15.19,19.60,230517,,,A*6F
$GPRMC,095056.100,A,3540.7654,N,13942.9907,E,15.17,19.94,230517,,,A*6D
$GPRMC,095056.200,A,3540.7657,N,13942.9910,E,15.17,20.29,230517,,,A*67
$GPRMC,095056.300,A,3540.7661,N,13942.9914,E,15.19,20.69,230517,,,A*6D
$GPRMC,095056.400,A,3540.7664,N,13942.9916,E,15.19,21.02,230517,,,A*61
$GPRMC,095056.500,A,3540.7668,N,13942.9919,E,15.19,21.32,230517,,,A*60
$GPRMC,095056.600,A,3540.7671,N,13942.9922,E,15.18,21.67,230517,,,A*62
$GPRMC,095056.700,A,3540.7675,N,13942.9925,E,15.19,22.16,230517,,,A*64
$GPRMC,095056.800,A,3540.7678,N,13942.9928,E,15.18,22.76,230517,,,A*6C
$GPRMC,095056.900,A,3540.7681,N,13942.9931,E,15.18,23.21,230517,,,A*60
$GPRMC,095057.000,A,3540.7684,N,13942.9934,E,15.18,23.66,230517,,,A*6B
$GPRMC,095057.100,A,3540.7687,N,13942.9937,E,15.20,24.12,230517,,,A*65
$GPRMC,095057.200,A,3540.7691,N,13942.9941,E,15.23,24.56,230517,,,A*63
$GPRMC,095057.300,A,3540.7694,N,13942.9943,E,15.21,24.73,230517,,,A*60
$GPRMC,095057.400,A,3540.7697,N,13942.9946,E,15.21,25.01,230517,,,A*65
$GPRMC,095057.500,A,3540.7700,N,13942.9949,E,15.21,25.12,230517,,,A*66
$GPRMC,095057.600,A,3540.7704,N,13942.9952,E,15.19,25.24,230517,,,A*65
$GPRMC,095057.700,A,3540.7707,N,13942.9955,E,15.18,25.60,230517,,,A*61
$GPRMC,095057.800,A,3540.7710,N,13942.9957,E,15.15,25.79,230517,,,A*6F
$GPRMC,095057.900,A,3540.7713,N,13942.9960,E,15.11,25.85,230517,,,A*6E
$GPRMC,095058.000,A,3540.7716,N,13942.9962,E,15.07,25.96,230517,,,A*6A
$GPRMC,095058.100,A,3540.7720,N,13942.9965,E,15.04,26.08,230517,,,A*6E
$GPRMC,095058.200,A,3540.7723,N,13942.9967,E,14.99,26.23,230517,,,A*60
$GPRMC,095058.300,A,3540.7726,N,13942.9970,E,14.95,26.40,230517,,,A*6B
$GPRMC,095058.400,A,3540.7729,N,13942.9973,E,14.96,26.73,230517,,,A*63
$GPRMC,095058.500,A,3540.7732,N,13942.9976,E,14.97,27.06,230517,,,A*6F
$GPRMC,095058.600,A,3540.7736,N,13942.9979,E,14.98,27.36,230517,,,A*6B
$GPRMC,095058.700,A,3540.7739,N,13942.9982,E,14.98,27.69,230517,,,A*6B
$GPRMC,095058.800,A,3540.7742,N,13942.9985,E,14.99,27.99,230517,,,A*61
$GPRMC,095058.900,A,3540.7745,N,13942.9989,E,14.97,28.58,230517,,,A*67
$GPRMC,095059.000,A,3540.7748,N,13942.9992,E,14.98,28.82,230517,,,A*60
$GPRMC,095059.100,A,3540.7751,N,13942.9996,E,15.02,29.28,230517,,,A*6E
$GPRMC,095059.200,A,3540.7754,N,13942.9999,E,15.03,29.61,230517,,,A*6B
$GPRMC,095059.300,A,3540.7757,N,13943.0003,E,15.03,29.91,230517,,,A*64
$GPRMC,095059.400,A,3540.7760,N,13943.0006,E,15.04,30.18,230517,,,A*6C
$GPRMC,095059.500,A,3540.7763,N,13943.0010,E,15.05,30.48,230517,,,A*6D
$GPRMC,095059.600,A,3540.7766,N,13943.0014,E,15.07,30.83,230517,,,A*6A
$GPRMC,095059.700,A,3540.7769,N,13943.0018,E,15.09,31.19,230517,,,A*64
$GPRMC,095059.800,A,3540.7771,N,13943.0022,E,15.09,31.62,230517,,,A*67
$GPRMC,095059.900,A,3540.7774,N,13943.0026,E,15.10,32.06,230517,,,A*6E
$GPRMC,095100.000,A,3540.7776,N,13943.0030,E,15.11,32.56,230517,,,A*6B
$GPRMC,095100.100,A,3540.7778,N,13943.0035,E,15.17,33.41,230517,,,A*60
$GPRMC,095100.200,A,3540.7780,N,13943.0040,E,15.29,34.39,230517,,,A*63
$GPRMC,095100.300,A,3540.7782,N,13943.0046,E,15.34,35.53,230517,,,A*67
$GPRMC,095100.400,A,3540.7784,N,13943.0051,E,15.46,36.38,230517,,,A*6B
$GPRMC,095100.500,A,3540.7786,N,13943.0057,E,15.59,37.56,230517,,,A*69
$GPRMC,095100.600,A,3540.7788,N,13943.0062,E,15.70,38.69,230517,,,A*6A
$GPRMC,095100.700,A,3540.7790,N,13943.0068,E,15.83,39.91,230517,,,A*62
$GPRMC,095100.800,A,3540.7792,N,13943.0073,E,15.99,41.09,230517,,,A*60
$GPRMC,095100.900,A,3540.7795,N,13943.0079,E,16.14,42.13,230517,,,A*62
$GPRMC,095101.000,A,3540.7797,N,13943.0085,E,16.30,43.49,230517,,,A*63
$GPRMC,095101.100,A,3540.7799,N,13943.0091,E,16.45,44.88,230517,,,A*61
$GPRMC,095101.200,A,3540.7801,N,13943.0097,E,16.62,46.00,230517,,,A*6D
$GPRMC,095101.300,A,3540.7803,N,13943.0102,E,16.76,47.08,230517,,,A*6F
$GPRMC,095101.400,A,3540.7805,N,13943.0108,E,16.87,48.07,230517,,,A*6A
$GPRMC,095101.500,A,3540.7808,N,13943.0114,E,16.99,48.75,230517,,,A*61
$GPRMC,095101.600,A,3540.7811,N,13943.0119,E,17.10,49.14,230517,,,A*61
$GPRMC,095101.700,A,3540.7813,N,13943.0124,E,17.20,49.78,230517,,,A*65
$GPRMC,095101.800,A,3540.7816,N,13943.0130,E,17.24,50.06,230517,,,A*6F
$GPRMC,095101.900,A,3540.7819,N,13943.0135,E,17.31,50.28,230517,,,A*6C
$GPRMC,095102.000,A,3540.7821,N,13943.0140,E,17.34,51.00,230517,,,A*61
$GPRMC,095102.100,A,3540.7824,N,13943.0146,E,17.42,51.83,230517,,,A*69
$GPRMC,095102.200,A,3540.7826,N,13943.0152,E,17.47,52.54,230517,,,A*61
$GPRMC,095102.300,A,3540.7828,N,13943.0157,E,17.48,53.37,230517,,,A*60
$GPRMC,095102.400,A,3540.7830,N,13943.0163,E,17.52,53.96,230517,,,A*69
$GPRMC,095102.500,A,3540.7832,N,13943.0169,E,17.56,54.62,230517,,,A*68
$GPRMC,095102.600,A,3540.7834,N,13943.0175,E,17.60,55.50,230517,,,A*65
$GPRMC,095102.700,A,3540.7835,N,13943.0181,E,17.65,55.64,230517,,,A*6C
$GPRMC,095102.800,A,3540.7837,N,13943.0187,E,17.69,55.90,230517,,,A*60
$GPRMC,095102.900,A,3540.7839,N,13943.0193,E,17.74,56.06,230517,,,A*6A
$GPRMC,095103.000,A,3540.7841,N,13943.0199,E,17.78,56.26,230517,,,A*69
$GPRMC,095103.100,A,3540.7843,N,13943.0205,E,17.83,56.70,230517,,,A*6B
$GPRMC,095103.200,A,3540.7846,N,13943.0211,E,17.91,57.11,230517,,,A*6D
$GPRMC,095103.300,A,3540.7847,N,13943.0217,E,17.97,57.50,230517,,,A*68
$GPRMC,095103.400,A,3540.7848,N,13943.0224,E,18.03,58.25,230517,,,A*6F
$GPRMC,095103.500,A,3540.7849,N,13943.0231,E,18.13,58.97,230517,,,A*63
$GPRMC,095103.600,A,3540.7850,N,13943.0238,E,18.17,59.60,230517,,,A*6C
$GPRMC,095103.700,A,3540.7850,N,13943.0245,E,18.30,60.28,230517,,,A*64
$GPRMC,095103.800,A,3540.7851,N,13943.0252,E,18.33,61.02,230517,,,A*66
$GPRMC,095103.900,A,3540.7852,N,13943.0258,E,18.37,61.68,230517,,,A*66
$GPRMC,095104.000,A,3540.7853,N,13943.0265,E,18.46,62.18,230517,,,A*65
$GPRMC,095104.100,A,3540.7854,N,13943.0272,E,18.46,63.00,230517,,,A*6D
$GPRMC,095104.200,A,3540.7855,N,13943.0279,E,18.52,63.45,230517,,,A*60
$GPRMC,095104.300,A,3540.7856,N,13943.0286,E,18.56,63.95,230517,,,A*6B
$GPRMC,095104.400,A,3540.7857,N,13943.0293,E,18.62,64.52,230517,,,A*62
$GPRMC,095104.500,A,3540.7858,N,13943.0300,E,18.56,65.25,230517,,,A*61
$GPRMC,095104.600,A,3540.7859,N,13943.0306,E,18.59,65.84,230517,,,A*61
$GPRMC,095104.700,A,3540.7859,N,13943.0313,E,18.63,66.63,230517,,,A*67
$GPRMC,095104.800,A,3540.7861,N,13943.0320,E,18.62,67.15,230517,,,A*62
$GPRMC,095104.900,A,3540.7862,N,13943.0327,E,18.71,67.53,230517,,,A*67
$GPRMC,095105.000,A,3540.7863,N,13943.0334,E,18.71,68.23,230517,,,A*64
$GPRMC,095105.100,A,3540.7864,N,13943.0341,E,18.68,68.75,230517,,,A*6B
$GPRMC,095105.200,A,3540.7865,N,13943.0348,E,18.65,69.37,230517,,,A*6A
$GPRMC,095105.300,A,3540.7866,N,13943.0354,E,18.68,69.91,230517,,,A*64
$GPRMC,095105.400,A,3540.7866,N,13943.0362,E,18.66,70.56,230517,,,A*6B
$GPRMC,095105.500,A,3540.7867,N,13943.0369,E,18.61,71.34,230517,,,A*62
$GPRMC,095105.600,A,3540.7868,N,13943.0375,E,18.58,71.72,230517,,,A*6B
$GPRMC,095105.700,A,3540.7868,N,13943.0382,E,18.64,72.55,230517,,,A*6B
$GPRMC,095105.800,A,3540.7869,N,13943.0389,E,18.60,73.11,230517,,,A*6B
$GPRMC,095105.900,A,3540.7870,N,13943.0396,E,18.58,73.64,230517,,,A*65
$GPRMC,095106.000,A,3540.7870,N,13943.0403,E,18.53,73.93,230517,,,A*67
$GPRMC,095106.100,A,3540.7871,N,13943.0409,E,18.48,74.47,230517,,,A*69
$GPRMC,095106.200,A,3540.7872,N,13943.0416,E,18.44,74.81,230517,,,A*61
$GPRMC,095106.300,A,3540.7873,N,13943.0423,E,18.35,75.29,230517,,,A*62
$GPRMC,095106.400,A,3540.7873,N,13943.0429,E,18.30,75.61,230517,,,A*66
$GPRMC,095106.500,A,3540.7874,N,13943.0436,E,18.28,76.00,230517,,,A*63
$GPRMC,095106.600,A,3540.7874,N,13943.0442,E,18.23,76.39,230517,,,A*62
$GPRMC,095106.700,A,3540.7875,N,13943.0449,E,18.19,76.64,230517,,,A*68
$GPRMC,095106.800,A,3540.7876,N,13943.0455,E,18.04,76.92,230517,,,A*6C
$GPRMC,095106.900,A,3540.7876,N,13943.0462,E,17.96,77.30,230517,,,A*64
$GPRMC,095107.000,A,3540.7876,N,13943.0468,E,17.91,77.71,230517,,,A*64
$GPRMC,095107.100,A,3540.7877,N,13943.0475,E,17.72,78.06,230517,,,A*6A
$GPRMC,095107.200,A,3540.7877,N,13943.0481,E,17.58,78.40,230517,,,A*68
$GPRMC,095107.300,A,3540.7877,N,13943.0487,E,17.43,78.88,230517,,,A*61
$GPRMC,095107.400,A,3540.7877,N,13943.0493,E,17.28,79.30,230517,,,A*6C
$GPRMC,095107.500,A,3540.7877,N,13943.0500,E,17.12,79.75,230517,,,A*6E
$GPRMC,095107.600,A,3540.7878,N,13943.0506,E,16.92,80.14,230517,,,A*6C
$GPRMC,095107.700,A,3540.7878,N,13943.0512,E,16.68,80.68,230517,,,A*66
$GPRMC,095107.800,A,3540.7878,N,13943.0517,E,16.51,81.09,230517,,,A*60
$GPRMC,095107.900,A,3540.7878,N,13943.0523,E,16.33,81.37,230517,,,A*6F
$GPRMC,095108.000,A,3540.7877,N,13943.0529,E,16.14,81.84,230517,,,A*61
$GPRMC,095108.100,A,3540.7877,N,13943.0535,E,15.94,82.20,230517,,,A*6B
$GPRMC,095108.200,A,3540.7876,N,13943.0540,E,15.79,83.50,230517,,,A*6E
$GPRMC,095108.300,A,3540.7876,N,13943.0546,E,15.64,83.90,230517,,,A*69
$GPRMC,095108.400,A,3540.7876,N,13943.0551,E,15.48,84.33,230517,,,A*68
$GPRMC,095108.500,A,3540.7875,N,13943.0557,E,15.39,84.81,230517,,,A*63
$GPRMC,095108.600,A,3540.7875,N,13943.0562,E,15.18,84.97,230517,,,A*62
$GPRMC,095108.700,A,3540.7875,N,13943.0567,E,14.98,85.17,230517,,,A*66
$GPRMC,095108.800,A,3540.7875,N,13943.0573,E,14.81,85.38,230517,,,A*69
$GPRMC,095108.900,A,3540.7875,N,13943.0578,E,14.75,85.91,230517,,,A*6B
$GPRMC,095109.000,A,3540.7875,N,13943.0583,E,14.56,85.94,230517,,,A*63
$GPRMC,095109.100,A,3540.7875,N,13943.0588,E,14.41,86.45,230517,,,A*60
$GPRMC,095109.200,A,3540.7874,N,13943.0593,E,14.18,86.88,230517,,,A*65
$GPRMC,095109.300,A,3540.7874,N,13943.0598,E,14.01,87.18,230517,,,A*6F
$GPRMC,095109.400,A,3540.7874,N,13943.0603,E,13.79,87.66,230517,,,A*68
$GPRMC,095109.500,A,3540.7874,N,13943.0607,E,13.68,88.06,230517,,,A*64
$GPRMC,095109.600,A,3540.7874,N,13943.0612,E,13.55,88.09,230517,,,A*62
$GPRMC,095109.700,A,3540.7874,N,13943.0616,E,13.40,88.15,230517,,,A*6E
$GPRMC,095109.800,A,3540.7874,N,13943.0621,E,13.25,88.44,230517,,,A*62
$GPRMC,095109.900,A,3540.7873,N,13943.0626,E,13.19,88.67,230517,,,A*6D
$GPRMC,095110.000,A,3540.7873,N,13943.0630,E,13.01,89.08,230517,,,A*6A
$GPRMC,095110.100,A,3540.7873,N,13943.0635,E,12.89,88.99,230517,,,A*66
$GPRMC,095110.200,A,3540.7873,N,13943.0640,E,12.85,89.30,230517,,,A*69
$GPRMC,095110.300,A,3540.7872,N,13943.0644,E,12.80,89.62,230517,,,A*6F
$GPRMC,095110.400,A,3540.7872,N,13943.0649,E,12.66,90.10,230517,,,A*60
$GPRMC,095110.500,A,3540.7872,N,13943.0653,E,12.55,90.60,230517,,,A*6D
$GPRMC,095110.600,A,3540.7872,N,13943.0658,E,12.44,90.75,230517,,,A*61
$GPRMC,095110.700,A,3540.7871,N,13943.0662,E,12.29,91.21,230517,,,A*61
$GPRMC,095110.800,A,3540.7871,N,13943.0667,E,12.15,91.70,230517,,,A*60
$GPRMC,095110.900,A,3540.7871,N,13943.0671,E,11.99,92.04,230517,,,A*61
$GPRMC,095111.000,A,3540.7870,N,13943.0676,E,11.97,92.71,230517,,,A*63
$GPRMC,095111.100,A,3540.7870,N,13943.0680,E,11.86,93.17,230517,,,A*6A
$GPRMC,095111.200,A,3540.7869,N,13943.0685,E,11.82,93.57,230517,,,A*64
$GPRMC,095111.300,A,3540.7869,N,13943.0689,E,11.62,94.07,230517,,,A*65
$GPRMC,095111.400,A,3540.7869,N,13943.0693,E,11.53,94.24,230517,,,A*6A
$GPRMC,095111.500,A,3540.7868,N,13943.0697,E,11.38,94.60,230517,,,A*63
$GPRMC,095111.600,A,3540.7868,N,13943.0702,E,11.35,94.84,230517,,,A*6A
$GPRMC,095111.700,A,3540.7867,N,13943.0706,E,11.25,95.08,230517,,,A*64
$GPRMC,095111.800,A,3540.7867,N,13943.0710,E,11.07,95.37,230517,,,A*60
$GPRMC,095111.900,A,3540.7867,N,13943.0714,E,11.04,95.51,230517,,,A*66
$GPRMC,095112.000,A,3540.7866,N,13943.0717,E,10.76,95.86,230517,,,A*60
$GPRMC,095112.100,A,3540.7866,N,13943.0720,E,9.98,97.00,230517,,,A*51
$GPRMC,095112.200,A,3540.7866,N,13943.0724,E,10.08,96.71,230517,,,A*60
$GPRMC,095112.300,A,3540.7866,N,13943.0727,E,10.00,96.53,230517,,,A*6A
$GPRMC,095112.400,A,3540.7866,N,13943.0730,E,9.94,96.53,230517,,,A*5E
$GPRMC,095112.500,A,3540.7866,N,13943.0733,E,9.80,96.58,230517,,,A*52
$GPRMC,095112.600,A,3540.7866,N,13943.0736,E,9.79,96.30,230517,,,A*5C
$GPRMC,095112.700,A,3540.7866,N,13943.0739,E,9.55,96.80,230517,,,A*57
$GPRMC,095112.800,A,3540.7866,N,13943.0741,E,9.42,97.07,230517,,,A*5F
$GPRMC,095112.900,A,3540.7866,N,13943.0744,E,9.31,97.20,230517,,,A*5A
$GPRMC,095113.000,A,3540.7866,N,13943.0747,E,9.13,97.43,230517,,,A*54
$GPRMC,095113.100,A,3540.7866,N,13943.0749,E,9.01,97.65,230517,,,A*5C
$GPRMC,095113.200,A,3540.7866,N,13943.0752,E,8.80,97.55,230517,,,A*5E
$GPRMC,095113.300,A,3540.7865,N,13943.0755,E,8.63,98.02,230517,,,A*5B
$GPRMC,095113.400,A,3540.7865,N,13943.0757,E,8.52,98.59,230517,,,A*52
$GPRMC,095113.500,A,3540.7865,N,13943.0760,E,8.37,98.95,230517,,,A*54
$GPRMC,095113.600,A,3540.7864,N,13943.0762,E,8.31,98.64,230517,,,A*5C
$GPRMC,095113.700,A,3540.7864,N,13943.0765,E,8.23,99.24,230517,,,A*5C
$GPRMC,095113.800,A,3540.7864,N,13943.0768,E,8.13,99.09,230517,,,A*52
$GPRMC,095113.900,A,3540.7864,N,13943.0770,E,7.99,99.49,230517,,,A*53
$GPRMC,095114.000,A,3540.7863,N,13943.0772,E,7.83,99.78,230517,,,A*51
$GPRMC,095114.100,A,3540.7863,N,13943.0775,E,7.66,100.54,230517,,,A*63
$GPRMC,095114.200,A,3540.7863,N,13943.0777,E,7.49,101.12,230517,,,A*6C
$GPRMC,095114.300,A,3540.7863,N,13943.0779,E,7.32,101.21,230517,,,A*6F
$GPRMC,095114.400,A,3540.7862,N,13943.0781,E,7.20,100.96,230517,,,A*60
$GPRMC,095114.500,A,3540.7862,N,13943.0784,E,7.09,100.86,230517,,,A*6E
$GPRMC,095114.600,A,3540.7862,N,13943.0786,E,6.93,101.30,230517,,,A*61
$GPRMC,095114.700,A,3540.7862,N,13943.0788,E,6.86,100.94,230517,,,A*65
$GPRMC,095114.800,A,3540.7862,N,13943.0790,E,6.66,101.36,230517,,,A*64
$GPRMC,095114.900,A,3540.7861,N,13943.0792,E,6.51,101.75,230517,,,A*67
$GPRMC,095115.000,A,3540.7861,N,13943.0794,E,6.39,101.88,230517,,,A*65
$GPRMC,095115.100,A,3540.7861,N,13943.0796,E,6.26,102.31,230517,,,A*69
$GPRMC,095115.200,A,3540.7861,N,13943.0798,E,6.24,101.83,230517,,,A*6C
$GPRMC,095115.300,A,3540.7860,N,13943.0800,E,6.06,102.73,230517,,,A*6E
$GPRMC,095115.400,A,3540.7860,N,13943.0802,E,5.96,102.26,230517,,,A*61
$GPRMC,095115.500,A,3540.7860,N,13943.0804,E,5.87,102.35,230517,,,A*64
$GPRMC,095115.600,A,3540.7860,N,13943.0806,E,5.74,101.65,230517,,,A*6F
$GPRMC,095115.700,A,3540.7860,N,13943.0808,E,5.65,102.69,230517,,,A*6F
