Script started on Wed May 31 19:43:21 2017
# çÈã åßÅEçrêÏé¸ï”ÅiâHç™ëqã¥Ç©ÇÁé°êÖã¥ÅjÇ…ÇƒãLò^
bash-3.2$ screen /dev/cu.usbserialcu.usbserial[K/dev/cu.usbserial            tty.G-Rays1-SPPslave
[?1h=[0m(B[1;24r[H[J[H[JKPK¶SI¢¬¬br±≈ÕÂÕ’πÂ¡…Õ±±—π…·±≈·ÕπŸ≈±Õ≈A’anXX,A*6A
$GPRMC,104431.800,A,3552.2486,N,13935.9023,E,4.34,182.42,310517,,,A*66
$GPRMC,104431.900,A,3552.2485,N,13935.9023,E,4.40,182.09,310517,,,A*68
$GPRMC,104432.000,A,3552.2484,N,13935.9023,E,4.27,176.40,310517,,,A*64
$GPRMC,104432.100,A,3552.2483,N,13935.9023,E,4.48,173.79,310517,,,A*64
$GPRMC,104432.200,A,3552.2481,N,13935.9023,E,4.68,171.25,310517,,,A*6C
$GPRMC,104432.300,A,3552.2480,N,13935.9024,E,4.85,168.79,310517,,,A*69
$GPRMC,104432.400,A,3552.2478,N,13935.9024,E,4.83,168.33,310517,,,A*61
$GPRMC,104432.500,A,3552.2477,N,13935.9024,E,4.92,167.42,310517,,,A*66
$GPRMC,104432.600,A,3552.2475,N,13935.9024,E,5.10,165.60,310517,,,A*6E
$GPRMC,104432.700,A,3552.2474,N,13935.9025,E,5.25,161.13,310517,,,A*69
$GPRMC,104432.800,A,3552.2472,N,13935.9026,E,5.37,159.62,310517,,,A*6D
$GPRMC,104432.900,A,3552.2471,N,13935.9026,E,5.44,156.88,310517,,,A*60
$GPRMC,104433.000,A,3552.2469,N,13935.9027,E,5.69,154.39,310517,,,A*67
$GPRMC,104433.100,A,3552.2468,N,13935.9028,E,5.80,152.26,310517,,,A*67
$GPRMC,104433.200,A,3552.2466,N,13935.9030,E,6.17,149.18,310517,,,A*69
$GPRMC,104433.300,A,3552.2465,N,13935.9031,E,6.35,146.77,310517,,,A*6C
$GPRMC,104433.400,A,3552.2464,N,13935.9032,E,6.53,145.92,310517,,,A*61
$GPRMC,104433.500,A,3552.2462,N,13935.9034,E,6.71,142.71,310517,,,A*6A
$GPRMC,104433.600,A,3552.2461,N,13935.9035,E,6.82,139.96,310517,,,A*62
$GPRMC,104433.700,A,3552.2459,N,13935.9037,E,7.08,138.37,310517,,,A*63
$GPRMC,104433.800,A,3552.2458,N,13935.9039,E,7.10,136.19,310517,,,A*68
$GPRMC,104433.900,A,3552.2457,N,13935.9041,E,7.48,134.25,310517,,,A*69
$GPRMC,104434.000,A,3552.2455,N,13935.9043,E,7.65,133.90,310517,,,A*61
$GPRMC,104434.100,A,3552.2453,N,13935.9045,E,7.84,133.84,310517,,,A*6A
$GPRMC,104434.200,A,3552.2452,N,13935.9047,E,8.07,133.80,310517,,,A*6A
$GPRMC,104434.300,A,3552.2450,N,13935.9049,E,8.13,133.57,310517,,,A*68
$GPRMC,104434.400,A,3552.2449,N,13935.9051,E,8.25,133.26,310517,,,A*6D
$GPRMC,104434.500,A,3552.2447,N,13935.9053,E,8.17,132.59,310517,,,A*68
$GPRMC,104434.600,A,3552.2446,N,13935.9055,E,8.24,132.47,310517,,,A*63
$GPRMC,104434.700,A,3552.2444,N,13935.9057,E,8.11,131.96,310517,,,A*6B
$GPRMC,104434.800,A,3552.2443,N,13935.9059,E,8.09,131.20,310517,,,A*69
$GPRMC,104434.900,A,3552.2442,N,13935.9061,E,8.10,130.26,310517,,,A*6D
$GPRMC,104435.000,A,3552.2440,N,13935.9063,E,8.04,129.72,310517,,,A*69
$GPRMC,104435.100,A,3552.2439,N,13935.9065,E,8.01,128.62,310517,,,A*65
$GPRMC,104435.200,A,3552.2438,N,13935.9068,E,8.01,127.57,310517,,,A*63
$GPRMC,104435.300,A,3552.2437,N,13935.9070,E,7.98,126.20,310517,,,A*6A
$GPRMC,104435.400,A,3552.2436,N,13935.9073,E,7.99,124.07,310517,,,A*69
$GPRMC,104435.500,A,3552.2435,N,13935.9075,E,7.98,122.17,310517,,,A*6B
$GPRMC,104435.600,A,3552.2434,N,13935.9078,E,7.99,120.27,310517,,,A*64
$GPRMC,104435.700,A,3552.2433,N,13935.9080,E,7.99,118.61,310517,,,A*6C
$GPRMC,104435.800,A,3552.2433,N,13935.9083,E,8.00,116.97,310517,,,A*68
$GPRMC,104435.900,A,3552.2432,N,13935.9086,E,8.02,115.06,310517,,,A*64
$GPRMC,104436.000,A,3552.2431,N,13935.9088,E,8.01,113.46,310517,,,A*62
$GPRMC,104436.100,A,3552.2430,N,13935.9091,E,8.03,112.11,310517,,,A*6B
$GPRMC,104436.200,A,3552.2429,N,13935.9094,E,8.06,111.01,310517,,,A*62
$GPRMC,104436.300,A,3552.2429,N,13935.9096,E,8.10,107.12,310517,,,A*63
$GPRMC,104436.400,A,3552.2429,N,13935.9099,E,8.07,106.42,310517,,,A*69
$GPRMC,104436.500,A,3552.2428,N,13935.9102,E,8.08,106.32,310517,,,A*62
$GPRMC,104436.600,A,3552.2427,N,13935.9104,E,8.08,104.84,310517,,,A*67
$GPRMC,104436.700,A,3552.2427,N,13935.9107,E,8.11,103.57,310517,,,A*64
$GPRMC,104436.800,A,3552.2426,N,13935.9110,E,8.14,102.42,310517,,,A*6C
$GPRMC,104436.900,A,3552.2426,N,13935.9113,E,8.20,101.17,310517,,,A*6A
$GPRMC,104437.000,A,3552.2425,N,13935.9116,E,8.30,100.16,310517,,,A*65
$GPRMC,104437.100,A,3552.2425,N,13935.9119,E,8.34,98.71,310517,,,A*5E
$GPRMC,104437.200,A,3552.2425,N,13935.9123,E,8.39,97.18,310517,,,A*59
$GPRMC,104437.300,A,3552.2425,N,13935.9126,E,8.34,94.61,310517,,,A*5D
$GPRMC,104437.400,A,3552.2426,N,13935.9129,E,8.25,91.86,310517,,,A*5A
$GPRMC,104437.500,A,3552.2426,N,13935.9132,E,8.20,88.83,310517,,,A*59
$GPRMC,104437.600,A,3552.2427,N,13935.9134,E,8.14,86.21,310517,,,A*5C
$GPRMC,104437.700,A,3552.2428,N,13935.9137,E,8.14,83.89,310517,,,A*56
$GPRMC,104437.800,A,3552.2428,N,13935.9140,E,7.99,81.85,310517,,,A*5D
$GPRMC,104437.900,A,3552.2429,N,13935.9143,E,7.92,79.86,310517,,,A*51
$GPRMC,104438.000,A,3552.2430,N,13935.9145,E,7.75,77.86,310517,,,A*5E
$GPRMC,104438.100,A,3552.2431,N,13935.9147,E,7.58,75.58,310517,,,A*52
$GPRMC,104438.200,A,3552.2431,N,13935.9150,E,7.42,74.20,310517,,,A*52
$GPRMC,104438.300,A,3552.2432,N,13935.9152,E,7.33,72.52,310517,,,A*57
$GPRMC,104438.400,A,3552.2433,N,13935.9154,E,7.19,69.21,310517,,,A*51
$GPRMC,104438.500,A,3552.2435,N,13935.9156,E,7.20,66.77,310517,,,A*52
$GPRMC,104438.600,A,3552.2436,N,13935.9159,E,7.26,64.71,310517,,,A*5F
$GPRMC,104438.700,A,3552.2438,N,13935.9161,E,7.20,61.36,310517,,,A*5B
$GPRMC,104438.800,A,3552.2440,N,13935.9163,E,7.34,57.06,310517,,,A*5A
$GPRMC,104438.900,A,3552.2442,N,13935.9165,E,7.20,53.99,310517,,,A*58
$GPRMC,104439.000,A,3552.2443,N,13935.9167,E,7.23,52.06,310517,,,A*57
$GPRMC,104439.100,A,3552.2445,N,13935.9169,E,7.26,48.99,310517,,,A*56
$GPRMC,104439.200,A,3552.2447,N,13935.9171,E,7.24,45.55,310517,,,A*51
$GPRMC,104439.300,A,3552.2449,N,13935.9173,E,7.33,43.87,310517,,,A*53
$GPRMC,104439.400,A,3552.2451,N,13935.9174,E,7.47,41.79,310517,,,A*5A
$GPRMC,104439.500,A,3552.2452,N,13935.9176,E,7.51,40.51,310517,,,A*56
$GPRMC,104439.600,A,3552.2454,N,13935.9178,E,7.58,39.33,310517,,,A*5E
$GPRMC,104439.700,A,3552.2457,N,13935.9180,E,7.73,37.75,310517,,,A*5E
$GPRMC,104439.800,A,3552.2459,N,13935.9182,E,7.84,36.37,310517,,,A*52
$GPRMC,104439.900,A,3552.2461,N,13935.9183,E,7.98,34.85,310517,,,A*5F
$GPRMC,104440.000,A,3552.2463,N,13935.9185,E,8.07,33.76,310517,,,A*5E
$GPRMC,104440.100,A,3552.2465,N,13935.9186,E,8.17,32.69,310517,,,A*54
$GPRMC,104440.200,A,3552.2467,N,13935.9188,E,8.30,32.02,310517,,,A*53
$GPRMC,104440.300,A,3552.2470,N,13935.9190,E,8.44,31.45,310517,,,A*5E
$GPRMC,104440.400,A,3552.2472,N,13935.9191,E,8.57,30.81,310517,,,A*51
$GPRMC,104440.500,A,3552.2474,N,13935.9193,E,8.73,30.28,310517,,,A*51
$GPRMC,104440.600,A,3552.2477,N,13935.9195,E,8.93,29.62,310517,,,A*5F
$GPRMC,104440.700,A,3552.2479,N,13935.9196,E,9.08,29.76,310517,,,A*55
$GPRMC,104440.800,A,3552.2481,N,13935.9198,E,9.23,29.80,310517,,,A*53
$GPRMC,104440.900,A,3552.2483,N,13935.9200,E,9.35,29.81,310517,,,A*54
$GPRMC,104441.000,A,3552.2486,N,13935.9202,E,9.52,29.88,310517,,,A*53
$GPRMC,104441.100,A,3552.2488,N,13935.9204,E,9.66,29.98,310517,,,A*5C
$GPRMC,104441.200,A,3552.2490,N,13935.9205,E,9.78,30.09,310517,,,A*58
$GPRMC,104441.300,A,3552.2493,N,13935.9207,E,9.95,29.97,310517,,,A*54
$GPRMC,104441.400,A,3552.2495,N,13935.9209,E,10.05,29.98,310517,,,A*65
$GPRMC,104441.500,A,3552.2498,N,13935.9211,E,10.32,29.66,310517,,,A*65
$GPRMC,104441.600,A,3552.2501,N,13935.9213,E,10.61,29.48,310517,,,A*6F
$GPRMC,104441.700,A,3552.2504,N,13935.9215,E,10.81,29.35,310517,,,A*69
$GPRMC,104441.800,A,3552.2507,N,13935.9218,E,10.91,29.60,310517,,,A*69
$GPRMC,104441.900,A,3552.2510,N,13935.9220,E,11.00,29.58,310517,,,A*67
$GPRMC,104442.000,A,3552.2513,N,13935.9222,E,11.12,29.85,310517,,,A*6F
$GPRMC,104442.100,A,3552.2515,N,13935.9224,E,11.17,29.18,310517,,,A*6F
$GPRMC,104442.200,A,3552.2518,N,13935.9226,E,11.20,29.50,310517,,,A*6B
$GPRMC,104442.300,A,3552.2521,N,13935.9228,E,11.21,29.78,310517,,,A*65
$GPRMC,104442.400,A,3552.2523,N,13935.9230,E,11.22,29.48,310517,,,A*69
$GPRMC,104442.500,A,3552.2526,N,13935.9232,E,11.21,29.54,310517,,,A*61
$GPRMC,104442.600,A,3552.2529,N,13935.9234,E,11.24,29.45,310517,,,A*6E
$GPRMC,104442.700,A,3552.2531,N,13935.9236,E,11.25,29.12,310517,,,A*67
$GPRMC,104442.800,A,3552.2534,N,13935.9238,E,11.22,29.05,310517,,,A*62
$GPRMC,104442.900,A,3552.2537,N,13935.9240,E,11.26,29.11,310517,,,A*6E
$GPRMC,104443.000,A,3552.2540,N,13935.9242,E,11.24,29.02,310517,,,A*64
$GPRMC,104443.100,A,3552.2543,N,13935.9245,E,11.26,29.02,310517,,,A*63
$GPRMC,104443.200,A,3552.2547,N,13935.9247,E,11.22,28.91,310517,,,A*69
$GPRMC,104443.300,A,3552.2550,N,13935.9249,E,11.22,28.83,310517,,,A*63
$GPRMC,104443.400,A,3552.2553,N,13935.9251,E,11.20,29.07,310517,,,A*61
$GPRMC,104443.500,A,3552.2556,N,13935.9253,E,11.15,28.93,310517,,,A*6D
$GPRMC,104443.600,A,3552.2559,N,13935.9255,E,11.11,28.71,310517,,,A*6F
$GPRMC,104443.700,A,3552.2562,N,13935.9257,E,11.05,28.75,310517,,,A*65
$GPRMC,104443.800,A,3552.2565,N,13935.9259,E,10.98,28.93,310517,,,A*6E
$GPRMC,104443.900,A,3552.2568,N,13935.9262,E,10.92,28.83,310517,,,A*61
$GPRMC,104444.000,A,3552.2571,N,13935.9264,E,10.85,28.79,310517,,,A*62
$GPRMC,104444.100,A,3552.2574,N,13935.9265,E,10.73,28.76,310517,,,A*61
$GPRMC,104444.200,A,3552.2577,N,13935.9267,E,10.63,28.54,310517,,,A*62
$GPRMC,104444.300,A,3552.2579,N,13935.9269,E,10.46,28.71,310517,,,A*63
$GPRMC,104444.400,A,3552.2582,N,13935.9271,E,10.31,28.71,310517,,,A*69
$GPRMC,104444.500,A,3552.2585,N,13935.9273,E,10.19,28.75,310517,,,A*63
$GPRMC,104444.600,A,3552.2587,N,13935.9275,E,10.02,28.74,310517,,,A*6F
$GPRMC,104444.700,A,3552.2590,N,13935.9276,E,9.81,28.47,310517,,,A*58
$GPRMC,104444.800,A,3552.2592,N,13935.9278,E,9.69,28.34,310517,,,A*59
$GPRMC,104444.900,A,3552.2594,N,13935.9280,E,9.47,28.70,310517,,,A*55
$GPRMC,104445.000,A,3552.2597,N,13935.9281,E,9.28,28.14,310517,,,A*54
$GPRMC,104445.100,A,3552.2599,N,13935.9283,E,9.08,27.99,310517,,,A*51
$GPRMC,104445.200,A,3552.2601,N,13935.9284,E,8.83,28.51,310517,,,A*5E
$GPRMC,104445.300,A,3552.2603,N,13935.9286,E,8.61,28.67,310517,,,A*56
$GPRMC,104445.400,A,3552.2605,N,13935.9287,E,8.42,28.67,310517,,,A*57
$GPRMC,104445.500,A,3552.2607,N,13935.9288,E,8.23,28.76,310517,,,A*5C
$GPRMC,104445.600,A,3552.2609,N,13935.9290,E,8.04,28.11,310517,,,A*5C
$GPRMC,104445.700,A,3552.2611,N,13935.9291,E,7.85,27.18,310517,,,A*55
$GPRMC,104445.800,A,3552.2613,N,13935.9292,E,7.51,26.88,310517,,,A*5A
$GPRMC,104445.900,A,3552.2614,N,13935.9293,E,7.16,26.60,310517,,,A*58
$GPRMC,104446.000,A,3552.2616,N,13935.9294,E,6.84,26.71,310517,,,A*5D
$GPRMC,104446.100,A,3552.2618,N,13935.9295,E,6.54,26.18,310517,,,A*51
$GPRMC,104446.200,A,3552.2619,N,13935.9296,E,6.22,25.91,310517,,,A*53
$GPRMC,104446.300,A,3552.2621,N,13935.9297,E,5.95,25.58,310517,,,A*52
$GPRMC,104446.400,A,3552.2622,N,13935.9297,E,5.66,25.44,310517,,,A*57
$GPRMC,104446.500,A,3552.2623,N,13935.9298,E,5.38,25.17,310517,,,A*55
$GPRMC,104446.600,A,3552.2625,N,13935.9299,E,5.05,23.17,310517,,,A*59
$GPRMC,104446.700,A,3552.2626,N,13935.9299,E,4.78,22.88,310517,,,A*57
$GPRMC,104446.800,A,3552.2627,N,13935.9300,E,4.41,22.40,310517,,,A*56
$GPRMC,104446.900,A,3552.2628,N,13935.9301,E,4.15,22.54,310517,,,A*5D
$GPRMC,104447.000,A,3552.2629,N,13935.9301,E,3.78,22.21,310517,,,A*5A
$GPRMC,104447.100,A,3552.2630,N,13935.9302,E,3.51,23.08,310517,,,A*51
$GPRMC,104447.200,A,3552.2630,N,13935.9302,E,3.21,23.00,310517,,,A*5D
$GPRMC,104447.300,A,3552.2631,N,13935.9303,E,2.90,22.85,310517,,,A*5B
$GPRMC,104447.400,A,3552.2632,N,13935.9303,E,2.63,22.67,310517,,,A*5F
$GPRMC,104447.500,A,3552.2632,N,13935.9303,E,2.36,22.36,310517,,,A*5A
$GPRMC,104447.600,A,3552.2633,N,13935.9304,E,2.07,21.30,310517,,,A*58
$GPRMC,104447.700,A,3552.2633,N,13935.9304,E,1.88,21.18,310517,,,A*57
$GPRMC,104447.800,A,3552.2634,N,13935.9304,E,1.68,21.02,310517,,,A*5A
$GPRMC,104447.900,A,3552.2634,N,13935.9304,E,1.43,20.82,310517,,,A*5B
$GPRMC,104448.000,A,3552.2635,N,13935.9304,E,1.24,20.57,310517,,,A*55
$GPRMC,104448.100,A,3552.2635,N,13935.9305,E,0.96,22.24,310517,,,A*5B
$GPRMC,104448.200,A,3552.2635,N,13935.9305,E,0.84,23.25,310517,,,A*5B
$GPRMC,104448.300,A,3552.2636,N,13935.9305,E,0.77,23.85,310517,,,A*5F
$GPRMC,104448.400,A,3552.2636,N,13935.9305,E,0.67,23.97,310517,,,A*5A
$GPRMC,104448.500,A,3552.2636,N,13935.9305,E,0.53,23.97,310517,,,A*5C
$GPRMC,104448.600,A,3552.2636,N,13935.9305,E,0.45,23.97,310517,,,A*58
$GPRMC,104448.700,A,3552.2636,N,13935.9305,E,0.37,23.97,310517,,,A*5C
$GPRMC,104448.800,A,3552.2636,N,13935.9305,E,0.00,23.97,310517,,,A*57
$GPRMC,104448.900,A,3552.2636,N,13935.9305,E,0.00,23.97,310517,,,A*56
$GPRMC,104449.000,A,3552.2636,N,13935.9305,E,0.00,23.97,310517,,,A*5E
$GPRMC,104449.100,A,3552.2636,N,13935.9305,E,0.00,23.97,310517,,,A*5F
$GPRMC,104449.200,A,3552.2636,N,13935.9305,E,0.00,23.97,310517,,,A*5C
$GPRMC,104449.300,A,3552.2636,N,13935.9305,E,0.00,23.97,310517,,,A*5D
$GPRMC,104449.400,A,3552.2636,N,13935.9305,E,0.00,23.97,310517,,,A*5A
$GPRMC,104449.500,A,3552.2636,N,13935.9305,E,0.00,23.97,310517,,,A*5B
$GPRMC,104449.600,A,3552.2636,N,13935.9305,E,0.00,23.97,310517,,,A*58
$GPRMC,104449.700,A,3552.2636,N,13935.9305,E,0.00,23.97,310517,,,A*59
$GPRMC,104449.800,A,3552.2636,N,13935.9305,E,0.00,23.97,310517,,,A*56
$GPRMC,104449.900,A,3552.2636,N,13935.9305,E,0.00,23.97,310517,,,A*57
$GPRMC,104450.000,A,3552.2636,N,13935.9305,E,0.00,23.97,310517,,,A*56
$GPRMC,104450.100,A,3552.2636,N,13935.9305,E,0.00,23.97,310517,,,A*57
$GPRMC,104450.200,A,3552.2636,N,13935.9305,E,0.00,23.97,310517,,,A*54
$GPRMC,104450.300,A,3552.2636,N,13935.9305,E,0.00,23.97,310517,,,A*55
$GPRMC,104450.400,A,3552.2636,N,13935.9305,E,0.00,23.97,310517,,,A*52
$GPRMC,104450.500,A,3552.2636,N,13935.9305,E,0.00,23.97,310517,,,A*53
$GPRMC,104450.600,A,3552.2636,N,13935.9305,E,0.00,23.97,310517,,,A*50
$GPRMC,104450.700,A,3552.2636,N,13935.9305,E,0.00,23.97,310517,,,A*51
$GPRMC,104450.800,A,3552.2636,N,13935.9305,E,0.00,23.97,310517,,,A*5E
$GPRMC,104450.900,A,3552.2636,N,13935.9305,E,0.00,23.97,310517,,,A*5F
$GPRMC,104451.000,A,3552.2636,N,13935.9305,E,0.00,23.97,310517,,,A*57
$GPRMC,104451.100,A,3552.2636,N,13935.9305,E,0.00,23.97,310517,,,A*56
$GPRMC,104451.200,A,3552.2636,N,13935.9305,E,0.00,23.97,310517,,,A*55
$GPRMC,104451.300,A,3552.2636,N,13935.9305,E,0.00,23.97,310517,,,A*54
$GPRMC,104451.400,A,3552.2636,N,13935.9305,E,0.00,23.97,310517,,,A*53
$GPRMC,104451.500,A,3552.2636,N,13935.9305,E,0.00,23.97,310517,,,A*52
$GPRMC,104451.600,A,3552.2636,N,13935.9305,E,0.00,23.97,310517,,,A*51
$GPRMC,104451.700,A,3552.2637,N,13935.9305,E,0.25,23.97,310517,,,A*56
$GPRMC,104451.800,A,3552.2637,N,13935.9305,E,0.26,23.97,310517,,,A*5A
$GPRMC,104451.900,A,3552.2637,N,13935.9305,E,0.29,23.97,310517,,,A*54
$GPRMC,104452.000,A,3552.2637,N,13935.9305,E,0.00,23.97,310517,,,A*55
$GPRMC,104452.100,A,3552.2637,N,13935.9305,E,0.00,23.97,310517,,,A*54
$GPRMC,104452.200,A,3552.2637,N,13935.9305,E,0.00,23.97,310517,,,A*57
$GPRMC,104452.300,A,3552.2637,N,13935.9305,E,0.00,23.97,310517,,,A*56
$GPRMC,104452.400,A,3552.2637,N,13935.9305,E,0.00,23.97,310517,,,A*51
$GPRMC,104452.500,A,3552.2637,N,13935.9305,E,0.00,23.97,310517,,,A*50
$GPRMC,104452.600,A,3552.2637,N,13935.9305,E,0.00,23.97,310517,,,A*53
$GPRMC,104452.700,A,3552.2637,N,13935.9305,E,0.00,23.97,310517,,,A*52
$GPRMC,104452.800,A,3552.2637,N,13935.9305,E,0.00,23.97,310517,,,A*5D
$GPRMC,104452.900,A,3552.2637,N,13935.9305,E,0.00,23.97,310517,,,A*5C
$GPRMC,104453.000,A,3552.2637,N,13935.9305,E,0.00,23.97,310517,,,A*54
$GPRMC,104453.100,A,3552.2637,N,13935.9305,E,0.12,23.97,310517,,,A*56
$GPRMC,104453.200,A,3552.2637,N,13935.9305,E,0.13,23.97,310517,,,A*54
$GPRMC,104453.300,A,3552.2637,N,13935.9305,E,0.00,23.97,310517,,,A*57
$GPRMC,104453.400,A,3552.2637,N,13935.9305,E,0.00,23.97,310517,,,A*50
$GPRMC,104453.500,A,3552.2637,N,13935.9305,E,0.00,23.97,310517,,,A*51
$GPRMC,104453.600,A,3552.2637,N,13935.9305,E,0.00,23.97,310517,,,A*52
$GPRMC,104453.700,A,3552.2637,N,13935.9305,E,0.18,23.97,310517,,,A*5A
$GPRMC,104453.800,A,3552.2637,N,13935.9305,E,0.18,23.97,310517,,,A*55
$GPRMC,104453.900,A,3552.2637,N,13935.9305,E,0.00,23.97,310517,,,A*5D
$GPRMC,104454.000,A,3552.2637,N,13935.9305,E,0.00,23.97,310517,,,A*53
$GPRMC,104454.100,A,3552.2637,N,13935.9305,E,0.19,23.97,310517,,,A*5A
$GPRMC,104454.200,A,3552.2637,N,13935.9305,E,0.12,23.97,310517,,,A*52
$GPRMC,104454.300,A,3552.2637,N,13935.9305,E,0.00,23.97,310517,,,A*50
$GPRMC,104454.400,A,3552.2637,N,13935.9305,E,0.00,23.97,310517,,,A*57
$GPRMC,104454.500,A,3552.2637,N,13935.9305,E,0.00,23.97,310517,,,A*56
$GPRMC,104454.600,A,3552.2637,N,13935.9305,E,0.04,23.97,310517,,,A*51
$GPRMC,104454.700,A,3552.2637,N,13935.9305,E,0.06,23.97,310517,,,A*52
$GPRMC,104454.800,A,3552.2637,N,13935.9305,E,0.02,23.97,310517,,,A*59
$GPRMC,104454.900,A,3552.2637,N,13935.9305,E,0.10,23.97,310517,,,A*5B
$GPRMC,104455.000,A,3552.2637,N,13935.9305,E,0.11,23.97,310517,,,A*52
$GPRMC,104455.100,A,3552.2637,N,13935.9305,E,0.18,23.97,310517,,,A*5A
$GPRMC,104455.200,A,3552.2637,N,13935.9305,E,0.20,23.97,310517,,,A*52
$GPRMC,104455.300,A,3552.2637,N,13935.9305,E,0.21,23.97,310517,,,A*52
$GPRMC,104455.400,A,3552.2637,N,13935.9305,E,0.24,23.97,310517,,,A*50
$GPRMC,104455.500,A,3552.2637,N,13935.9305,E,0.16,23.97,310517,,,A*50
$GPRMC,104455.600,A,3552.2638,N,13935.9305,E,0.19,23.97,310517,,,A*53
$GPRMC,104455.700,A,3552.2638,N,13935.9305,E,0.15,23.97,310517,,,A*5E
$GPRMC,104455.800,A,3552.2638,N,13935.9305,E,0.16,23.97,310517,,,A*52
$GPRMC,104455.900,A,3552.2638,N,13935.9305,E,0.00,23.97,310517,,,A*54
$GPRMC,104456.000,A,3552.2638,N,13935.9305,E,0.00,23.97,310517,,,A*5E
$GPRMC,104456.100,A,3552.2638,N,13935.9305,E,0.00,23.97,310517,,,A*5F
$GPRMC,104456.200,A,3552.2638,N,13935.9305,E,0.00,23.97,310517,,,A*5C
$GPRMC,104456.300,A,3552.2638,N,13935.9305,E,0.00,23.97,310517,,,A*5D
$GPRMC,104456.400,A,3552.2638,N,13935.9305,E,0.00,23.97,310517,,,A*5A
$GPRMC,104456.500,A,3552.2638,N,13935.9305,E,0.00,23.97,310517,,,A*5B
$GPRMC,104456.600,A,3552.2638,N,13935.9305,E,0.24,23.97,310517,,,A*5E
$GPRMC,104456.700,A,3552.2638,N,13935.9305,E,0.23,23.97,310517,,,A*58
$GPRMC,104456.800,A,3552.2638,N,13935.9305,E,0.00,23.97,310517,,,A*56
$GPRMC,104456.900,A,3552.2638,N,13935.9305,E,0.00,23.97,310517,,,A*57
$GPRMC,104457.000,A,3552.2638,N,13935.9305,E,0.00,23.97,310517,,,A*5F
$GPRMC,104457.100,A,3552.2638,N,13935.9305,E,0.00,23.97,310517,,,A*5E
$GPRMC,104457.200,A,3552.2638,N,13935.9305,E,0.00,23.97,310517,,,A*5D
$GPRMC,104457.300,A,3552.2638,N,13935.9305,E,0.00,23.97,310517,,,A*5C
$GPRMC,104457.400,A,3552.2638,N,13935.9305,E,0.00,23.97,310517,,,A*5B
$GPRMC,104457.500,A,3552.2638,N,13935.9305,E,0.00,23.97,310517,,,A*5A
$GPRMC,104457.600,A,3552.2638,N,13935.9305,E,0.00,23.97,310517,,,A*59
$GPRMC,104457.700,A,3552.2638,N,13935.9305,E,0.00,23.97,310517,,,A*58
$GPRMC,104457.800,A,3552.2638,N,13935.9305,E,0.00,23.97,310517,,,A*57
$GPRMC,104457.900,A,3552.2638,N,13935.9305,E,0.17,23.97,310517,,,A*50
$GPRMC,104458.000,A,3552.2638,N,13935.9305,E,0.22,23.97,310517,,,A*50
$GPRMC,104458.100,A,3552.2638,N,13935.9305,E,0.24,23.97,310517,,,A*57
$GPRMC,104458.200,A,3552.2638,N,13935.9305,E,0.22,23.97,310517,,,A*52
$GPRMC,104458.300,A,3552.2638,N,13935.9305,E,0.00,23.97,310517,,,A*53
$GPRMC,104458.400,A,3552.2638,N,13935.9305,E,0.00,23.97,310517,,,A*54
$GPRMC,104458.500,A,3552.2638,N,13935.9305,E,0.00,23.97,310517,,,A*55
$GPRMC,104458.600,A,3552.2638,N,13935.9305,E,0.00,23.97,310517,,,A*56
$GPRMC,104458.700,A,3552.2638,N,13935.9305,E,0.00,23.97,310517,,,A*57
$GPRMC,104458.800,A,3552.2638,N,13935.9305,E,0.00,23.97,310517,,,A*58
$GPRMC,104458.900,A,3552.2638,N,13935.9305,E,0.00,23.97,310517,,,A*59
$GPRMC,104459.000,A,3552.2638,N,13935.9305,E,0.00,23.97,310517,,,A*51
$GPRMC,104459.100,A,3552.2638,N,13935.9305,E,0.00,23.97,310517,,,A*50
$GPRMC,104459.200,A,3552.2638,N,13935.9305,E,0.00,23.97,310517,,,A*53
$GPRMC,104459.300,A,3552.2638,N,13935.9305,E,0.00,23.97,310517,,,A*52
$GPRMC,104459.400,A,3552.2638,N,13935.9305,E,0.00,23.97,310517,,,A*55
$GPRMC,104459.500,A,3552.2638,N,13935.9305,E,0.00,23.97,310517,,,A*54
$GPRMC,104459.600,A,3552.2638,N,13935.9305,E,0.00,23.97,310517,,,A*57
$GPRMC,104459.700,A,3552.2638,N,13935.9305,E,0.01,23.97,310517,,,A*57
$GPRMC,104459.800,A,3552.2638,N,13935.9305,E,0.08,23.97,310517,,,A*51
$GPRMC,104459.900,A,3552.2638,N,13935.9305,E,0.08,23.97,310517,,,A*50
$GPRMC,104500.000,A,3552.2638,N,13935.9305,E,0.10,23.97,310517,,,A*5D
$GPRMC,104500.100,A,3552.2638,N,13935.9305,E,0.12,23.97,310517,,,A*5E
$GPRMC,104500.200,A,3552.2638,N,13935.9305,E,0.00,23.97,310517,,,A*5E
$GPRMC,104500.300,A,3552.2638,N,13935.9305,E,0.00,23.97,310517,,,A*5F
$GPRMC,104500.400,A,3552.2638,N,13935.9305,E,0.00,23.97,310517,,,A*58
$GPRMC,104500.500,A,3552.2638,N,13935.9305,E,0.00,23.97,310517,,,A*59
$GPRMC,104500.600,A,3552.2638,N,13935.9304,E,0.17,23.97,310517,,,A*5D
$GPRMC,104500.700,A,3552.2639,N,13935.9304,E,0.19,23.97,310517,,,A*53
$GPRMC,104500.800,A,3552.2639,N,13935.9304,E,0.00,23.97,310517,,,A*54
$GPRMC,104500.900,A,3552.2639,N,13935.9304,E,0.28,23.97,310517,,,A*5F
$GPRMC,104501.000,A,3552.2639,N,13935.9304,E,0.19,23.97,310517,,,A*55
$GPRMC,104501.100,A,3552.2639,N,13935.9304,E,0.17,23.97,310517,,,A*5A
$GPRMC,104501.200,A,3552.2639,N,13935.9304,E,0.00,23.97,310517,,,A*5F
$GPRMC,104501.300,A,3552.2639,N,13935.9304,E,0.00,23.97,310517,,,A*5E
$GPRMC,104501.400,A,3552.2639,N,13935.9304,E,0.00,23.97,310517,,,A*59
$GPRMC,104501.500,A,3552.2639,N,13935.9304,E,0.00,23.97,310517,,,A*58
$GPRMC,104501.600,A,3552.2639,N,13935.9304,E,0.00,23.97,310517,,,A*5B
$GPRMC,104501.700,A,3552.2639,N,13935.9304,E,0.00,23.97,310517,,,A*5A
$GPRMC,104501.800,A,3552.2639,N,13935.9304,E,0.00,23.97,310517,,,A*55
$GPRMC,104501.900,A,3552.2639,N,13935.9304,E,0.21,23.97,310517,,,A*57
$GPRMC,104502.000,A,3552.2639,N,13935.9305,E,0.27,23.97,310517,,,A*5A
$GPRMC,104502.100,A,3552.2639,N,13935.9305,E,0.19,23.97,310517,,,A*56
$GPRMC,104502.200,A,3552.2639,N,13935.9305,E,0.18,23.97,310517,,,A*54
$GPRMC,104502.300,A,3552.2639,N,13935.9305,E,0.00,23.97,310517,,,A*5C
$GPRMC,104502.400,A,3552.2639,N,13935.9305,E,0.00,23.97,310517,,,A*5B
$GPRMC,104502.500,A,3552.2639,N,13935.9305,E,0.00,23.97,310517,,,A*5A
$GPRMC,104502.600,A,3552.2639,N,13935.9305,E,0.00,23.97,310517,,,A*59
$GPRMC,104502.700,A,3552.2639,N,13935.9305,E,0.00,23.97,310517,,,A*58
$GPRMC,104502.800,A,3552.2639,N,13935.9305,E,0.00,23.97,310517,,,A*57
$GPRMC,104502.900,A,3552.2639,N,13935.9305,E,0.00,23.97,310517,,,A*56
$GPRMC,104503.000,A,3552.2639,N,13935.9305,E,0.00,23.97,310517,,,A*5E
$GPRMC,104503.100,A,3552.2639,N,13935.9305,E,0.00,23.97,310517,,,A*5F
$GPRMC,104503.200,A,3552.2639,N,13935.9305,E,0.00,23.97,310517,,,A*5C
$GPRMC,104503.300,A,3552.2639,N,13935.9305,E,0.00,23.97,310517,,,A*5D
$GPRMC,104503.400,A,3552.2639,N,13935.9305,E,0.00,23.97,310517,,,A*5A
$GPRMC,104503.500,A,3552.2639,N,13935.9305,E,0.02,23.97,310517,,,A*59
$GPRMC,104503.600,A,3552.2639,N,13935.9305,E,0.06,23.97,310517,,,A*5E
$GPRMC,104503.700,A,3552.2639,N,13935.9305,E,0.14,23.97,310517,,,A*5C
$GPRMC,104503.800,A,3552.2639,N,13935.9305,E,0.15,23.97,310517,,,A*52
$GPRMC,104503.900,A,3552.2639,N,13935.9305,E,0.11,23.97,310517,,,A*57
$GPRMC,104504.000,A,3552.2639,N,13935.9305,E,0.00,23.97,310517,,,A*59
$GPRMC,104504.100,A,3552.2639,N,13935.9305,E,0.00,23.97,310517,,,A*58
$GPRMC,104504.200,A,3552.2639,N,13935.9305,E,0.00,23.97,310517,,,A*5B
$GPRMC,104504.300,A,3552.2639,N,13935.9305,E,0.00,23.97,310517,,,A*5A
$GPRMC,104504.400,A,3552.2639,N,13935.9305,E,0.00,23.97,310517,,,A*5D
$GPRMC,104504.500,A,3552.2639,N,13935.9305,E,0.00,23.97,310517,,,A*5C
$GPRMC,104504.600,A,3552.2639,N,13935.9305,E,0.00,23.97,310517,,,A*5F
$GPRMC,104504.700,A,3552.2639,N,13935.9305,E,0.13,23.97,310517,,,A*5C
$GPRMC,104504.800,A,3552.2639,N,13935.9305,E,0.16,23.97,310517,,,A*56
$GPRMC,104504.900,A,3552.2639,N,13935.9305,E,0.20,23.97,310517,,,A*52
$GPRMC,104505.000,A,3552.2639,N,13935.9305,E,0.20,23.97,310517,,,A*5A
$GPRMC,104505.100,A,3552.2639,N,13935.9305,E,0.16,23.97,310517,,,A*5E
$GPRMC,104505.200,A,3552.2639,N,13935.9305,E,0.17,23.97,310517,,,A*5C
$GPRMC,104505.300,A,3552.2639,N,13935.9305,E,0.16,23.97,310517,,,A*5C
$GPRMC,104505.400,A,3552.2639,N,13935.9305,E,0.20,23.97,310517,,,A*5E
$GPRMC,104505.500,A,3552.2640,N,13935.9305,E,0.28,23.97,310517,,,A*59
$GPRMC,104505.600,A,3552.2640,N,13935.9305,E,0.33,23.97,310517,,,A*50
$GPRMC,104505.700,A,3552.2640,N,13935.9305,E,0.37,23.97,310517,,,A*55
$GPRMC,104505.800,A,3552.2640,N,13935.9305,E,0.48,23.97,310517,,,A*52
$GPRMC,104505.900,A,3552.2640,N,13935.9305,E,0.47,23.97,310517,,,A*5C
$GPRMC,104506.000,A,3552.2640,N,13935.9305,E,0.49,23.97,310517,,,A*58
$GPRMC,104506.100,A,3552.2640,N,13935.9305,E,0.00,23.97,310517,,,A*54
$GPRMC,104506.200,A,3552.2640,N,13935.9306,E,0.58,25.10,310517,,,A*50
$GPRMC,104506.300,A,3552.2640,N,13935.9306,E,0.59,26.22,310517,,,A*52
$GPRMC,104506.400,A,3552.2640,N,13935.9306,E,0.67,27.38,310517,,,A*52
$GPRMC,104506.500,A,3552.2640,N,13935.9306,E,0.82,28.20,310517,,,A*5E
$GPRMC,104506.600,A,3552.2641,N,13935.9306,E,0.92,28.83,310517,,,A*54
$GPRMC,104506.700,A,3552.2641,N,13935.9307,E,1.04,29.58,310517,,,A*5D
$GPRMC,104506.800,A,3552.2641,N,13935.9307,E,1.14,30.04,310517,,,A*52
$GPRMC,104506.900,A,3552.2642,N,13935.9307,E,1.37,30.34,310517,,,A*52
$GPRMC,104507.000,A,3552.2642,N,13935.9308,E,1.48,30.45,310517,,,A*5B
$GPRMC,104507.100,A,3552.2643,N,13935.9308,E,1.56,30.78,310517,,,A*5A
$GPRMC,104507.200,A,3552.2643,N,13935.9308,E,1.67,31.33,310517,,,A*55
$GPRMC,104507.300,A,3552.2643,N,13935.9309,E,1.78,32.00,310517,,,A*58
$GPRMC,104507.400,A,3552.2644,N,13935.9309,E,1.98,41.90,310517,,,A*5B
$GPRMC,104507.500,A,3552.2645,N,13935.9310,E,2.11,39.16,310517,,,A*50
$GPRMC,104507.600,A,3552.2645,N,13935.9310,E,2.20,34.66,310517,,,A*5B
$GPRMC,104507.700,A,3552.2646,N,13935.9311,E,2.36,32.24,310517,,,A*5F
$GPRMC,104507.800,A,3552.2647,N,13935.9311,E,2.47,31.47,310517,,,A*51
$GPRMC,104507.900,A,3552.2647,N,13935.9312,E,2.45,31.01,310517,,,A*53
$GPRMC,104508.000,A,3552.2648,N,13935.9312,E,2.49,31.82,310517,,,A*5D
$GPRMC,104508.100,A,3552.2649,N,13935.9313,E,2.57,28.94,310517,,,A*5C
$GPRMC,104508.200,A,3552.2649,N,13935.9313,E,2.54,29.46,310517,,,A*52
$GPRMC,104508.300,A,3552.2650,N,13935.9313,E,2.55,26.61,310517,,,A*50
$GPRMC,104508.400,A,3552.2651,N,13935.9314,E,2.52,29.02,310517,,,A*5C
$GPRMC,104508.500,A,3552.2651,N,13935.9314,E,2.46,32.92,310517,,,A*5B
$GPRMC,104508.600,A,3552.2652,N,13935.9315,E,2.49,32.29,310517,,,A*55
$GPRMC,104508.700,A,3552.2653,N,13935.9315,E,2.56,31.34,310517,,,A*54
$GPRMC,104508.800,A,3552.2653,N,13935.9316,E,2.49,30.83,310517,,,A*5B
$GPRMC,104508.900,A,3552.2654,N,13935.9316,E,2.59,29.95,310517,,,A*53
$GPRMC,104509.000,A,3552.2654,N,13935.9317,E,2.60,29.32,310517,,,A*5D
$GPRMC,104509.100,A,3552.2655,N,13935.9317,E,2.70,29.27,310517,,,A*58
$GPRMC,104509.200,A,3552.2656,N,13935.9318,E,2.82,27.16,310517,,,A*56
$GPRMC,104509.300,A,3552.2657,N,13935.9318,E,2.87,26.86,310517,,,A*5B
$GPRMC,104509.400,A,3552.2658,N,13935.9319,E,2.94,26.84,310517,,,A*52
$GPRMC,104509.500,A,3552.2658,N,13935.9319,E,2.98,24.97,310517,,,A*5F
$GPRMC,104509.600,A,3552.2659,N,13935.9319,E,3.07,25.56,310517,,,A*56
$GPRMC,104509.700,A,3552.2660,N,13935.9320,E,3.24,26.11,310517,,,A*56
$GPRMC,104509.800,A,3552.2661,N,13935.9320,E,3.36,23.98,310517,,,A*5F
$GPRMC,104509.900,A,3552.2662,N,13935.9321,E,3.44,24.46,310517,,,A*5D
$GPRMC,104510.000,A,3552.2663,N,13935.9322,E,3.43,25.25,310517,,,A*5D
$GPRMC,104510.100,A,3552.2664,N,13935.9322,E,3.49,25.59,310517,,,A*5A
$GPRMC,104510.200,A,3552.2665,N,13935.9323,E,3.57,26.74,310517,,,A*5A
$GPRMC,104510.300,A,3552.2665,N,13935.9323,E,3.53,27.16,310517,,,A*5A
$GPRMC,104510.400,A,3552.2666,N,13935.9324,E,3.60,25.34,310517,,,A*5B
$GPRMC,104510.500,A,3552.2667,N,13935.9324,E,3.62,25.35,310517,,,A*58
$GPRMC,104510.600,A,3552.2668,N,13935.9325,E,3.61,25.61,310517,,,A*57
$GPRMC,104510.700,A,3552.2669,N,13935.9326,E,3.73,25.04,310517,,,A*54
$GPRMC,104510.800,A,3552.2670,N,13935.9326,E,3.76,23.74,310517,,,A*57
$GPRMC,104510.900,A,3552.2671,N,13935.9327,E,3.72,23.94,310517,,,A*5C
$GPRMC,104511.000,A,3552.2672,N,13935.9327,E,3.81,23.80,310517,,,A*5E
$GPRMC,104511.100,A,3552.2673,N,13935.9328,E,3.84,23.66,310517,,,A*5C
$GPRMC,104511.200,A,3552.2674,N,13935.9328,E,3.84,23.69,310517,,,A*57
$GPRMC,104511.300,A,3552.2675,N,13935.9329,E,3.85,22.63,310517,,,A*5C
$GPRMC,104511.400,A,3552.2676,N,13935.9329,E,3.78,23.07,310517,,,A*59
$GPRMC,104511.500,A,3552.2677,N,13935.9330,E,3.82,21.90,310517,,,A*58
$GPRMC,104511.600,A,3552.2678,N,13935.9330,E,3.66,22.34,310517,,,A*53
$GPRMC,104511.700,A,3552.2679,N,13935.9331,E,3.55,22.96,310517,,,A*5A
$GPRMC,104511.800,A,3552.2680,N,13935.9331,E,3.59,22.26,310517,,,A*54
$GPRMC,104511.900,A,3552.2681,N,13935.9332,E,3.58,22.00,310517,,,A*52
$GPRMC,104512.000,A,3552.2681,N,13935.9332,E,3.45,23.15,310517,,,A*51
$GPRMC,104512.100,A,3552.2682,N,13935.9333,E,3.28,22.62,310517,,,A*58
$GPRMC,104512.200,A,3552.2683,N,13935.9333,E,3.23,20.99,310517,,,A*57
$GPRMC,104512.300,A,3552.2684,N,13935.9334,E,3.29,20.95,310517,,,A*50
$GPRMC,104512.400,A,3552.2684,N,13935.9334,E,3.17,21.82,310517,,,A*5D
$GPRMC,104512.500,A,3552.2685,N,13935.9335,E,3.18,23.99,310517,,,A*5B
$GPRMC,104512.600,A,3552.2686,N,13935.9335,E,3.22,21.50,310517,,,A*55
$GPRMC,104512.700,A,3552.2686,N,13935.9336,E,3.11,21.56,310517,,,A*51
$GPRMC,104512.800,A,3552.2687,N,13935.9336,E,3.10,20.78,310517,,,A*53
$GPRMC,104512.900,A,3552.2688,N,13935.9336,E,3.01,20.68,310517,,,A*5C
$GPRMC,104513.000,A,3552.2688,N,13935.9337,E,2.93,20.62,310517,,,A*55
$GPRMC,104513.100,A,3552.2689,N,13935.9337,E,2.87,20.43,310517,,,A*53
$GPRMC,104513.200,A,3552.2690,N,13935.9338,E,2.81,22.66,310517,,,A*54
$GPRMC,104513.300,A,3552.2690,N,13935.9338,E,2.83,21.63,310517,,,A*51
$GPRMC,104513.400,A,3552.2691,N,13935.9338,E,2.75,20.46,310517,,,A*58
$GPRMC,104513.500,A,3552.2691,N,13935.9339,E,2.72,20.68,310517,,,A*53
$GPRMC,104513.600,A,3552.2692,N,13935.9339,E,2.69,20.54,310517,,,A*56
$GPRMC,104513.700,A,3552.2692,N,13935.9340,E,2.58,21.05,310517,,,A*5E
$GPRMC,104513.800,A,3552.2693,N,13935.9340,E,2.51,22.40,310517,,,A*5B
$GPRMC,104513.900,A,3552.2693,N,13935.9340,E,2.35,23.46,310517,,,A*5F
$GPRMC,104514.000,A,3552.2694,N,13935.9341,E,2.27,24.72,310517,,,A*54
$GPRMC,104514.100,A,3552.2694,N,13935.9341,E,2.22,24.12,310517,,,A*56
$GPRMC,104514.200,A,3552.2695,N,13935.9342,E,2.10,25.96,310517,,,A*5B
$GPRMC,104514.300,A,3552.2695,N,13935.9342,E,1.98,24.76,310517,,,A*56
$GPRMC,104514.400,A,3552.2695,N,13935.9342,E,1.97,25.26,310517,,,A*5A
$GPRMC,104514.500,A,3552.2696,N,13935.9343,E,1.96,25.69,310517,,,A*53
$GPRMC,104514.600,A,3552.2696,N,13935.9343,E,1.95,24.39,310517,,,A*57
$GPRMC,104514.700,A,3552.2696,N,13935.9344,E,1.89,24.48,310517,,,A*5A
$GPRMC,104514.800,A,3552.2697,N,13935.9344,E,1.91,24.38,310517,,,A*5A
$GPRMC,104514.900,A,3552.2697,N,13935.9344,E,1.95,22.11,310517,,,A*52
$GPRMC,104515.000,A,3552.2697,N,13935.9345,E,1.89,22.07,310517,,,A*51
$GPRMC,104515.100,A,3552.2698,N,13935.9345,E,1.91,22.04,310517,,,A*55
$GPRMC,104515.200,A,3552.2698,N,13935.9345,E,1.85,22.16,310517,,,A*50
$GPRMC,104515.300,A,3552.2698,N,13935.9346,E,1.81,22.34,310517,,,A*56
$GPRMC,104515.400,A,3552.2698,N,13935.9346,E,1.86,22.48,310517,,,A*5D
$GPRMC,104515.500,A,3552.2699,N,13935.9347,E,1.92,22.57,310517,,,A*57
$GPRMC,104515.600,A,3552.2699,N,13935.9347,E,1.96,22.22,310517,,,A*52
$GPRMC,104515.700,A,3552.2699,N,13935.9347,E,1.98,24.00,310517,,,A*5B
$GPRMC,104515.800,A,3552.2699,N,13935.9348,E,1.86,24.03,310517,,,A*57
$GPRMC,104515.900,A,3552.2700,N,13935.9348,E,1.84,24.03,310517,,,A*55
$GPRMC,104516.000,A,3552.2700,N,13935.9349,E,1.92,24.05,310517,,,A*5F
$GPRMC,104516.100,A,3552.2700,N,13935.9349,E,1.91,24.06,310517,,,A*5E
$GPRMC,104516.200,A,3552.2701,N,13935.9349,E,1.89,23.87,310517,,,A*5B
$GPRMC,104516.300,A,3552.2701,N,13935.9350,E,1.90,23.69,310517,,,A*5A
$GPRMC,104516.400,A,3552.2702,N,13935.9350,E,1.85,23.62,310517,,,A*51
$GPRMC,104516.500,A,3552.2702,N,13935.9350,E,1.76,23.53,310517,,,A*5E
$GPRMC,104516.600,A,3552.2703,N,13935.9351,E,1.77,23.50,310517,,,A*5F
$GPRMC,104516.700,A,3552.2703,N,13935.9351,E,1.62,23.38,310517,,,A*54
$GPRMC,104516.800,A,3552.2703,N,13935.9351,E,1.43,23.18,310517,,,A*5A
$GPRMC,104516.900,A,3552.2704,N,13935.9352,E,1.42,23.13,310517,,,A*55
$GPRMC,104517.000,A,3552.2704,N,13935.9352,E,1.32,23.06,310517,,,A*5E
$GPRMC,104517.100,A,3552.2704,N,13935.9352,E,1.22,23.04,310517,,,A*5C
$GPRMC,104517.200,A,3552.2704,N,13935.9353,E,1.17,23.04,310517,,,A*58
$GPRMC,104517.300,A,3552.2704,N,13935.9353,E,1.04,22.92,310517,,,A*55
$GPRMC,104517.400,A,3552.2704,N,13935.9353,E,1.03,22.64,310517,,,A*5C
$GPRMC,104517.500,A,3552.2704,N,13935.9353,E,1.00,22.19,310517,,,A*54
$GPRMC,104517.600,A,3552.2704,N,13935.9353,E,0.85,21.89,310517,,,A*51
$GPRMC,104517.700,A,3552.2704,N,13935.9354,E,0.78,21.89,310517,,,A*55
$GPRMC,104517.800,A,3552.2704,N,13935.9354,E,0.68,21.75,310517,,,A*58
$GPRMC,104517.900,A,3552.2704,N,13935.9354,E,0.57,21.51,310517,,,A*53
$GPRMC,104518.000,A,3552.2704,N,13935.9354,E,0.53,21.51,310517,,,A*51
$GPRMC,104518.100,A,3552.2704,N,13935.9354,E,0.47,21.51,310517,,,A*55
$GPRMC,104518.200,A,3552.2704,N,13935.9354,E,0.00,21.51,310517,,,A*55
$GPRMC,104518.300,A,3552.2704,N,13935.9354,E,0.00,21.51,310517,,,A*54
$GPRMC,104518.400,A,3552.2704,N,13935.9354,E,0.00,21.51,310517,,,A*53
$GPRMC,104518.500,A,3552.2704,N,13935.9354,E,0.00,21.51,310517,,,A*52
$GPRMC,104518.600,A,3552.2704,N,13935.9354,E,0.00,21.51,310517,,,A*51
$GPRMC,104518.700,A,3552.2704,N,13935.9354,E,0.00,21.51,310517,,,A*50
$GPRMC,104518.800,A,3552.2704,N,13935.9354,E,0.00,21.51,310517,,,A*5F
$GPRMC,104518.900,A,3552.2704,N,13935.9354,E,0.00,21.51,310517,,,A*5E
$GPRMC,104519.000,A,3552.2704,N,13935.9354,E,0.00,21.51,310517,,,A*56
$GPRMC,104519.100,A,3552.2704,N,13935.9354,E,0.00,21.51,310517,,,A*57
$GPRMC,104519.200,A,3552.2704,N,13935.9354,E,0.00,21.51,310517,,,A*54
$GPRMC,104519.300,A,3552.2704,N,13935.9354,E,0.00,21.51,310517,,,A*55
$GPRMC,104519.400,A,3552.2704,N,13935.9354,E,0.00,21.51,310517,,,A*52
$GPRMC,104519.500,A,3552.2704,N,13935.9354,E,0.14,21.51,310517,,,A*56
$GPRMC,104519.600,A,3552.2704,N,13935.9354,E,0.16,21.51,310517,,,A*57
$GPRMC,104519.700,A,3552.2704,N,13935.9354,E,0.00,21.51,310517,,,A*51
$GPRMC,104519.800,A,3552.2704,N,13935.9354,E,0.00,21.51,310517,,,A*5E
$GPRMC,104519.900,A,3552.2704,N,13935.9354,E,0.00,21.51,310517,,,A*5F
$GPRMC,104520.000,A,3552.2704,N,13935.9354,E,0.00,21.51,310517,,,A*5C
$GPRMC,104520.100,A,3552.2704,N,13935.9354,E,0.00,21.51,310517,,,A*5D
$GPRMC,104520.200,A,3552.2704,N,13935.9354,E,0.00,21.51,310517,,,A*5E
$GPRMC,104520.300,A,3552.2704,N,13935.9354,E,0.00,21.51,310517,,,A*5F
$GPRMC,104520.400,A,3552.2704,N,13935.9354,E,0.00,21.51,310517,,,A*58
$GPRMC,104520.500,A,3552.2704,N,13935.9354,E,0.00,21.51,310517,,,A*59
$GPRMC,104520.600,A,3552.2704,N,13935.9354,E,0.00,21.51,310517,,,A*5A
$GPRMC,104520.700,A,3552.2704,N,13935.9354,E,0.04,21.51,310517,,,A*5F
$GPRMC,104520.800,A,3552.2704,N,13935.9354,E,0.08,21.51,310517,,,A*5C
$GPRMC,104520.900,A,3552.2704,N,13935.9355,E,0.09,21.51,310517,,,A*5D
$GPRMC,104521.000,A,3552.2704,N,13935.9354,E,0.02,21.51,310517,,,A*5F
$GPRMC,104521.100,A,3552.2705,N,13935.9355,E,0.03,21.51,310517,,,A*5F
$GPRMC,104521.200,A,3552.2705,N,13935.9355,E,0.06,21.51,310517,,,A*59
$GPRMC,104521.300,A,3552.2705,N,13935.9355,E,0.02,21.51,310517,,,A*5C
$GPRMC,104521.400,A,3552.2705,N,13935.9355,E,0.06,21.51,310517,,,A*5F
$GPRMC,104521.500,A,3552.2705,N,13935.9355,E,0.06,21.51,310517,,,A*5E
$GPRMC,104521.600,A,3552.2705,N,13935.9355,E,0.06,21.51,310517,,,A*5D
$GPRMC,104521.700,A,3552.2705,N,13935.9355,E,0.00,21.51,310517,,,A*5A
$GPRMC,104521.800,A,3552.2705,N,13935.9355,E,0.00,21.51,310517,,,A*55
$GPRMC,104521.900,A,3552.2705,N,13935.9355,E,0.00,21.51,310517,,,A*54
$GPRMC,104522.000,A,3552.2705,N,13935.9355,E,0.00,21.51,310517,,,A*5E
$GPRMC,104522.100,A,3552.2705,N,13935.9355,E,0.00,21.51,310517,,,A*5F
$GPRMC,104522.200,A,3552.2705,N,13935.9355,E,0.00,21.51,310517,,,A*5C
$GPRMC,104522.300,A,3552.2705,N,13935.9355,E,0.00,21.51,310517,,,A*5D
$GPRMC,104522.400,A,3552.2705,N,13935.9355,E,0.00,21.51,310517,,,A*5A
$GPRMC,104522.500,A,3552.2705,N,13935.9355,E,0.04,21.51,310517,,,A*5F
$GPRMC,104522.600,A,3552.2705,N,13935.9355,E,0.07,21.51,310517,,,A*5F
$GPRMC,104522.700,A,3552.2705,N,13935.9355,E,0.00,21.51,310517,,,A*59
$GPRMC,104522.800,A,3552.2705,N,13935.9355,E,0.00,21.51,310517,,,A*56
$GPRMC,104522.900,A,3552.2705,N,13935.9355,E,0.00,21.51,310517,,,A*57
$GPRMC,104523.000,A,3552.2705,N,13935.9355,E,0.04,21.51,310517,,,A*5B
$GPRMC,104523.100,A,3552.2705,N,13935.9355,E,0.02,21.51,310517,,,A*5C
$GPRMC,104523.200,A,3552.2705,N,13935.9355,E,0.00,21.51,310517,,,A*5D
$GPRMC,104523.300,A,3552.2705,N,13935.9355,E,0.03,21.51,310517,,,A*5F
$GPRMC,104523.400,A,3552.2705,N,13935.9355,E,0.03,21.51,310517,,,A*58
$GPRMC,104523.500,A,3552.2705,N,13935.9355,E,0.00,21.51,310517,,,A*5A
$GPRMC,104523.600,A,3552.2705,N,13935.9355,E,0.00,21.51,310517,,,A*59
$GPRMC,104523.700,A,3552.2705,N,13935.9355,E,0.00,21.51,310517,,,A*58
$GPRMC,104523.800,A,3552.2705,N,13935.9355,E,0.00,21.51,310517,,,A*57
$GPRMC,104523.900,A,3552.2705,N,13935.9355,E,0.00,21.51,310517,,,A*56
$GPRMC,104524.000,A,3552.2705,N,13935.9355,E,0.00,21.51,310517,,,A*58
$GPRMC,104524.100,A,3552.2705,N,13935.9355,E,0.00,21.51,310517,,,A*59
$GPRMC,104524.200,A,3552.2705,N,13935.9355,E,0.30,21.51,310517,,,A*59
$GPRMC,104524.300,A,3552.2705,N,13935.9355,E,0.24,21.51,310517,,,A*5D
$GPRMC,104524.400,A,3552.2705,N,13935.9355,E,0.00,21.51,310517,,,A*5C
$GPRMC,104524.500,A,3552.2705,N,13935.9355,E,0.00,21.51,310517,,,A*5D
$GPRMC,104524.600,A,3552.2705,N,13935.9355,E,0.14,21.51,310517,,,A*5B
$GPRMC,104524.700,A,3552.2705,N,13935.9355,E,0.09,21.51,310517,,,A*56
$GPRMC,104524.800,A,3552.2705,N,13935.9355,E,0.00,21.51,310517,,,A*50
$GPRMC,104524.900,A,3552.2706,N,13935.9355,E,0.17,21.51,310517,,,A*54
$GPRMC,104525.000,A,3552.2706,N,13935.9355,E,0.13,21.51,310517,,,A*58
$GPRMC,104525.100,A,3552.2706,N,13935.9355,E,0.15,21.51,310517,,,A*5F
$GPRMC,104525.200,A,3552.2706,N,13935.9355,E,0.00,21.51,310517,,,A*58
$GPRMC,104525.300,A,3552.2706,N,13935.9355,E,0.00,21.51,310517,,,A*59
$GPRMC,104525.400,A,3552.2706,N,13935.9355,E,0.00,21.51,310517,,,A*5E
$GPRMC,104525.500,A,3552.2706,N,13935.9355,E,0.00,21.51,310517,,,A*5F
$GPRMC,104525.600,A,3552.2706,N,13935.9355,E,0.00,21.51,310517,,,A*5C
$GPRMC,104525.700,A,3552.2706,N,13935.9355,E,0.06,21.51,310517,,,A*5B
$GPRMC,104525.800,A,3552.2706,N,13935.9355,E,0.09,21.51,310517,,,A*5B
$GPRMC,104525.900,A,3552.2706,N,13935.9355,E,0.04,21.51,310517,,,A*57
$GPRMC,104526.000,A,3552.2706,N,13935.9355,E,0.07,21.51,310517,,,A*5E
$GPRMC,104526.100,A,3552.2706,N,13935.9355,E,0.06,21.51,310517,,,A*5E
$GPRMC,104526.200,A,3552.2706,N,13935.9355,E,0.06,21.51,310517,,,A*5D
$GPRMC,104526.300,A,3552.2706,N,13935.9355,E,0.00,21.51,310517,,,A*5A
$GPRMC,104526.400,A,3552.2706,N,13935.9355,E,0.00,21.51,310517,,,A*5D
$GPRMC,104526.500,A,3552.2706,N,13935.9355,E,0.00,21.51,310517,,,A*5C
$GPRMC,104526.600,A,3552.2706,N,13935.9355,E,0.00,21.51,310517,,,A*5F
$GPRMC,104526.700,A,3552.2706,N,13935.9355,E,0.00,21.51,310517,,,A*5E
$GPRMC,104526.800,A,3552.2706,N,13935.9355,E,0.02,21.51,310517,,,A*53
$GPRMC,104526.900,A,3552.2706,N,13935.9355,E,0.02,21.51,310517,,,A*52
$GPRMC,104527.000,A,3552.2706,N,13935.9355,E,0.00,21.51,310517,,,A*58
$GPRMC,104527.100,A,3552.2706,N,13935.9355,E,0.06,21.51,310517,,,A*5F
$GPRMC,104527.200,A,3552.2706,N,13935.9355,E,0.05,21.51,310517,,,A*5F
$GPRMC,104527.300,A,3552.2706,N,13935.9355,E,0.00,21.51,310517,,,A*5B
$GPRMC,104527.400,A,3552.2706,N,13935.9355,E,0.01,21.51,310517,,,A*5D
$GPRMC,104527.500,A,3552.2706,N,13935.9355,E,0.04,21.51,310517,,,A*59
$GPRMC,104527.600,A,3552.2706,N,13935.9355,E,0.03,21.51,310517,,,A*5D
$GPRMC,104527.700,A,3552.2706,N,13935.9355,E,0.05,21.51,310517,,,A*5A
$GPRMC,104527.800,A,3552.2706,N,13935.9355,E,0.08,21.51,310517,,,A*58
$GPRMC,104527.900,A,3552.2706,N,13935.9355,E,0.06,21.51,310517,,,A*57
$GPRMC,104528.000,A,3552.2706,N,13935.9355,E,0.06,21.51,310517,,,A*51
$GPRMC,104528.100,A,3552.2707,N,13935.9355,E,0.05,21.51,310517,,,A*52
$GPRMC,104528.200,A,3552.2707,N,13935.9355,E,0.01,21.51,310517,,,A*55
$GPRMC,104528.300,A,3552.2707,N,13935.9355,E,0.00,21.51,310517,,,A*55
$GPRMC,104528.400,A,3552.2707,N,13935.9355,E,0.00,21.51,310517,,,A*52
$GPRMC,104528.500,A,3552.2707,N,13935.9355,E,0.00,21.51,310517,,,A*53
$GPRMC,104528.600,A,3552.2707,N,13935.9355,E,0.01,21.51,310517,,,A*51
$GPRMC,104528.700,A,3552.2707,N,13935.9355,E,0.02,21.51,310517,,,A*53
$GPRMC,104528.800,A,3552.2707,N,13935.9355,E,0.00,21.51,310517,,,A*5E
$GPRMC,104528.900,A,3552.2707,N,13935.9355,E,0.05,21.51,310517,,,A*5A
$GPRMC,104529.000,A,3552.2707,N,13935.9355,E,0.13,21.51,310517,,,A*55
$GPRMC,104529.100,A,3552.2707,N,13935.9355,E,0.13,21.51,310517,,,A*54
$GPRMC,104529.200,A,3552.2707,N,13935.9355,E,0.03,21.51,310517,,,A*56
$GPRMC,104529.300,A,3552.2707,N,13935.9355,E,0.00,21.51,310517,,,A*54
$GPRMC,104529.400,A,3552.2707,N,13935.9355,E,0.00,21.51,310517,,,A*53
$GPRMC,104529.500,A,3552.2707,N,13935.9355,E,0.00,21.51,310517,,,A*52
$GPRMC,104529.600,A,3552.2707,N,13935.9355,E,0.00,21.51,310517,,,A*51
$GPRMC,104529.700,A,3552.2707,N,13935.9355,E,0.00,21.51,310517,,,A*50
$GPRMC,104529.800,A,3552.2707,N,13935.9355,E,0.01,21.51,310517,,,A*5E
$GPRMC,104529.900,A,3552.2707,N,13935.9355,E,0.03,21.51,310517,,,A*5D
$GPRMC,104530.000,A,3552.2707,N,13935.9355,E,0.03,21.51,310517,,,A*5C
$GPRMC,104530.100,A,3552.2707,N,13935.9355,E,0.05,21.51,310517,,,A*5B
$GPRMC,104530.200,A,3552.2707,N,13935.9355,E,0.04,21.51,310517,,,A*59
$GPRMC,104530.300,A,3552.2707,N,13935.9355,E,0.05,21.51,310517,,,A*59
$GPRMC,104530.400,A,3552.2707,N,13935.9355,E,0.09,21.51,310517,,,A*52
$GPRMC,104530.500,A,3552.2707,N,13935.9355,E,0.15,21.51,310517,,,A*5E
$GPRMC,104530.600,A,3552.2707,N,13935.9355,E,0.13,21.51,310517,,,A*5B
$GPRMC,104530.700,A,3552.2707,N,13935.9355,E,0.04,21.51,310517,,,A*5C
$GPRMC,104530.800,A,3552.2707,N,13935.9355,E,0.00,21.51,310517,,,A*57
$GPRMC,104530.900,A,3552.2707,N,13935.9355,E,0.13,21.51,310517,,,A*54
$GPRMC,104531.000,A,3552.2707,N,13935.9355,E,0.08,21.51,310517,,,A*56
$GPRMC,104531.100,A,3552.2707,N,13935.9355,E,0.00,21.51,310517,,,A*5F
$GPRMC,104531.200,A,3552.2707,N,13935.9355,E,0.00,21.51,310517,,,A*5C
$GPRMC,104531.300,A,3552.2707,N,13935.9355,E,0.03,21.51,310517,,,A*5E
$GPRMC,104531.400,A,3552.2707,N,13935.9355,E,0.02,21.51,310517,,,A*58
$GPRMC,104531.500,A,3552.2707,N,13935.9355,E,0.00,21.51,310517,,,A*5B
$GPRMC,104531.600,A,3552.2707,N,13935.9355,E,0.00,21.51,310517,,,A*58
$GPRMC,104531.700,A,3552.2707,N,13935.9355,E,0.00,21.51,310517,,,A*59
$GPRMC,104531.800,A,3552.2707,N,13935.9355,E,0.09,21.51,310517,,,A*5F
$GPRMC,104531.900,A,3552.2708,N,13935.9355,E,0.07,21.51,310517,,,A*5F
$GPRMC,104532.000,A,3552.2708,N,13935.9355,E,0.00,21.51,310517,,,A*52
$GPRMC,104532.100,A,3552.2708,N,13935.9355,E,0.00,21.51,310517,,,A*53
$GPRMC,104532.200,A,3552.2708,N,13935.9355,E,0.00,21.51,310517,,,A*50
$GPRMC,104532.300,A,3552.2708,N,13935.9355,E,0.00,21.51,310517,,,A*51
$GPRMC,104532.400,A,3552.2708,N,13935.9355,E,0.00,21.51,310517,,,A*56
$GPRMC,104532.500,A,3552.2708,N,13935.9355,E,0.00,21.51,310517,,,A*57
$GPRMC,104532.600,A,3552.2708,N,13935.9355,E,0.00,21.51,310517,,,A*54
$GPRMC,104532.700,A,3552.2708,N,13935.9355,E,0.00,21.51,310517,,,A*55
$GPRMC,104532.800,A,3552.2708,N,13935.9355,E,0.03,21.51,310517,,,A*59
$GPRMC,104532.900,A,3552.2708,N,13935.9356,E,0.09,21.51,310517,,,A*51
$GPRMC,104533.000,A,3552.2708,N,13935.9356,E,0.06,21.51,310517,,,A*56
$GPRMC,104533.100,A,3552.2708,N,13935.9356,E,0.04,21.51,310517,,,A*55
$GPRMC,104533.200,A,3552.2708,N,13935.9356,E,0.00,21.51,310517,,,A*52
$GPRMC,104533.300,A,3552.2708,N,13935.9356,E,0.00,21.51,310517,,,A*53
$GPRMC,104533.400,A,3552.2708,N,13935.9356,E,0.00,21.51,310517,,,A*54
$GPRMC,104533.500,A,3552.2708,N,13935.9356,E,0.00,21.51,310517,,,A*55
$GPRMC,104533.600,A,3552.2708,N,13935.9356,E,0.00,21.51,310517,,,A*56
$GPRMC,104533.700,A,3552.2708,N,13935.9356,E,0.00,21.51,310517,,,A*57
$GPRMC,104533.800,A,3552.2708,N,13935.9356,E,0.00,21.51,310517,,,A*58
$GPRMC,104533.900,A,3552.2708,N,13935.9356,E,0.10,21.51,310517,,,A*58
$GPRMC,104534.000,A,3552.2708,N,13935.9356,E,0.08,21.51,310517,,,A*5F
$GPRMC,104534.100,A,3552.2708,N,13935.9356,E,0.08,21.51,310517,,,A*5E
$GPRMC,104534.200,A,3552.2708,N,13935.9356,E,0.00,21.51,310517,,,A*55
$GPRMC,104534.300,A,3552.2708,N,13935.9356,E,0.00,21.51,310517,,,A*54
$GPRMC,104534.400,A,3552.2708,N,13935.9356,E,0.00,21.51,310517,,,A*53
$GPRMC,104534.500,A,3552.2708,N,13935.9356,E,0.00,21.51,310517,,,A*52
$GPRMC,104534.600,A,3552.2708,N,13935.9356,E,0.00,21.51,310517,,,A*51
$GPRMC,104534.700,A,3552.2708,N,13935.9356,E,0.00,21.51,310517,,,A*50
$GPRMC,104534.800,A,3552.2708,N,13935.9356,E,0.04,21.51,310517,,,A*5B
$GPRMC,104534.900,A,3552.2708,N,13935.9356,E,0.08,21.51,310517,,,A*56
$GPRMC,104535.000,A,3552.2708,N,13935.9356,E,0.02,21.51,310517,,,A*54
$GPRMC,104535.100,A,3552.2708,N,13935.9356,E,0.04,21.51,310517,,,A*53
$GPRMC,104535.200,A,3552.2708,N,13935.9356,E,0.04,21.51,310517,,,A*50
$GPRMC,104535.300,A,3552.2708,N,13935.9356,E,0.05,21.51,310517,,,A*50
$GPRMC,104535.400,A,3552.2708,N,13935.9356,E,0.04,21.51,310517,,,A*56
$GPRMC,104535.500,A,3552.2708,N,13935.9356,E,0.06,21.51,310517,,,A*55
$GPRMC,104535.600,A,3552.2708,N,13935.9356,E,0.05,21.51,310517,,,A*55
$GPRMC,104535.700,A,3552.2708,N,13935.9356,E,0.06,21.51,310517,,,A*57
$GPRMC,104535.800,A,3552.2708,N,13935.9356,E,0.02,21.51,310517,,,A*5C
$GPRMC,104535.900,A,3552.2708,N,13935.9356,E,0.03,21.51,310517,,,A*5C
$GPRMC,104536.000,A,3552.2708,N,13935.9356,E,0.02,21.51,310517,,,A*57
$GPRMC,104536.100,A,3552.2708,N,13935.9356,E,0.03,21.51,310517,,,A*57
$GPRMC,104536.200,A,3552.2708,N,13935.9356,E,0.08,21.51,310517,,,A*5F
$GPRMC,104536.300,A,3552.2708,N,13935.9356,E,0.08,21.51,310517,,,A*5E
$GPRMC,104536.400,A,3552.2708,N,13935.9356,E,0.11,21.51,310517,,,A*51
$GPRMC,104536.500,A,3552.2708,N,13935.9356,E,0.00,21.51,310517,,,A*50
$GPRMC,104536.600,A,3552.2708,N,13935.9356,E,0.00,21.51,310517,,,A*53
$GPRMC,104536.700,A,3552.2708,N,13935.9356,E,0.03,21.51,310517,,,A*51
$GPRMC,104536.800,A,3552.2708,N,13935.9356,E,0.05,21.51,310517,,,A*58
$GPRMC,104536.900,A,3552.2708,N,13935.9356,E,0.00,21.51,310517,,,A*5C
$GPRMC,104537.000,A,3552.2708,N,13935.9356,E,0.00,21.51,310517,,,A*54
$GPRMC,104537.100,A,3552.2708,N,13935.9356,E,0.00,21.51,310517,,,A*55
$GPRMC,104537.200,A,3552.2708,N,13935.9356,E,0.00,21.51,310517,,,A*56
$GPRMC,104537.300,A,3552.2708,N,13935.9356,E,0.00,21.51,310517,,,A*57
$GPRMC,104537.400,A,3552.2708,N,13935.9356,E,0.00,21.51,310517,,,A*50
$GPRMC,104537.500,A,3552.2709,N,13935.9356,E,0.06,21.51,310517,,,A*56
$GPRMC,104537.600,A,3552.2709,N,13935.9356,E,0.10,21.51,310517,,,A*52
$GPRMC,104537.700,A,3552.2709,N,13935.9356,E,0.10,21.51,310517,,,A*53
$GPRMC,104537.800,A,3552.2709,N,13935.9356,E,0.11,21.51,310517,,,A*5D
$GPRMC,104537.900,A,3552.2709,N,13935.9356,E,0.00,21.51,310517,,,A*5C
$GPRMC,104538.000,A,3552.2709,N,13935.9356,E,0.00,21.51,310517,,,A*5A
$GPRMC,104538.100,A,3552.2709,N,13935.9356,E,0.00,21.51,310517,,,A*5B
$GPRMC,104538.200,A,3552.2709,N,13935.9356,E,0.16,21.51,310517,,,A*5F
$GPRMC,104538.300,A,3552.2709,N,13935.9356,E,0.08,21.51,310517,,,A*51
$GPRMC,104538.400,A,3552.2709,N,13935.9356,E,0.00,21.51,310517,,,A*5E
$GPRMC,104538.500,A,3552.2709,N,13935.9356,E,0.00,21.51,310517,,,A*5F
$GPRMC,104538.600,A,3552.2709,N,13935.9356,E,0.00,21.51,310517,,,A*5C
$GPRMC,104538.700,A,3552.2709,N,13935.9356,E,0.18,21.51,310517,,,A*54
$GPRMC,104538.800,A,3552.2709,N,13935.9356,E,0.28,21.51,310517,,,A*58
$GPRMC,104538.900,A,3552.2709,N,13935.9356,E,0.34,21.51,310517,,,A*54
$GPRMC,104539.000,A,3552.2709,N,13935.9356,E,0.54,21.51,310517,,,A*5A
$GPRMC,104539.100,A,3552.2709,N,13935.9357,E,0.65,21.89,310517,,,A*5D
$GPRMC,104539.200,A,3552.2710,N,13935.9357,E,0.75,22.21,310517,,,A*56
$GPRMC,104539.300,A,3552.2710,N,13935.9357,E,0.99,22.38,310517,,,A*5D
$GPRMC,104539.400,A,3552.2710,N,13935.9357,E,1.19,22.58,310517,,,A*55
$GPRMC,104539.500,A,3552.2711,N,13935.9357,E,1.28,22.63,310517,,,A*5F
$GPRMC,104539.600,A,3552.2711,N,13935.9357,E,1.33,22.73,310517,,,A*57
$GPRMC,104539.700,A,3552.2712,N,13935.9358,E,1.53,22.78,310517,,,A*57
$GPRMC,104539.800,A,3552.2712,N,13935.9358,E,1.60,22.76,310517,,,A*56
$GPRMC,104539.900,A,3552.2713,N,13935.9358,E,1.84,22.82,310517,,,A*57
$GPRMC,104540.000,A,3552.2713,N,13935.9359,E,1.95,24.39,310517,,,A*57
$GPRMC,104540.100,A,3552.2714,N,13935.9359,E,2.14,22.29,310517,,,A*5C
$GPRMC,104540.200,A,3552.2715,N,13935.9359,E,2.38,23.57,310517,,,A*58
$GPRMC,104540.300,A,3552.2716,N,13935.9360,E,2.65,24.00,310517,,,A*5D
$GPRMC,104540.400,A,3552.2717,N,13935.9360,E,2.78,21.82,310517,,,A*58
$GPRMC,104540.500,A,3552.2718,N,13935.9361,E,3.13,23.20,310517,,,A*51
$GPRMC,104540.600,A,3552.2719,N,13935.9361,E,3.34,22.59,310517,,,A*59
$GPRMC,104540.700,A,3552.2720,N,13935.9362,E,3.62,21.85,310517,,,A*50
$GPRMC,104540.800,A,3552.2721,N,13935.9362,E,3.88,23.52,310517,,,A*52
$GPRMC,104540.900,A,3552.2722,N,13935.9363,E,4.13,22.93,310517,,,A*58
$GPRMC,104541.000,A,3552.2724,N,13935.9364,E,4.45,22.19,310517,,,A*50
$GPRMC,104541.100,A,3552.2725,N,13935.9365,E,4.84,22.84,310517,,,A*58
$GPRMC,104541.200,A,3552.2727,N,13935.9365,E,5.13,22.91,310517,,,A*52
$GPRMC,104541.300,A,3552.2728,N,13935.9366,E,5.40,23.33,310517,,,A*50
$GPRMC,104541.400,A,3552.2730,N,13935.9367,E,5.65,22.35,310517,,,A*5F
$GPRMC,104541.500,A,3552.2732,N,13935.9368,E,5.88,21.74,310517,,,A*56
$GPRMC,104541.600,A,3552.2734,N,13935.9369,E,6.21,21.95,310517,,,A*5D
$GPRMC,104541.700,A,3552.2736,N,13935.9370,E,6.37,21.84,310517,,,A*51
$GPRMC,104541.800,A,3552.2737,N,13935.9370,E,6.65,21.28,310517,,,A*5E
$GPRMC,104541.900,A,3552.2739,N,13935.9371,E,6.84,21.59,310517,,,A*59
$GPRMC,104542.000,A,3552.2741,N,13935.9372,E,7.13,21.39,310517,,,A*56
$GPRMC,104542.100,A,3552.2744,N,13935.9373,E,7.42,21.03,310517,,,A*5E
$GPRMC,104542.200,A,3552.2746,N,13935.9374,E,7.61,20.49,310517,,,A*56
$GPRMC,104542.300,A,3552.2748,N,13935.9375,E,7.89,20.76,310517,,,A*52
$GPRMC,104542.400,A,3552.2750,N,13935.9376,E,8.11,20.76,310517,,,A*51
$GPRMC,104542.500,A,3552.2753,N,13935.9377,E,8.32,20.15,310517,,,A*56
$GPRMC,104542.600,A,3552.2755,N,13935.9378,E,8.35,20.30,310517,,,A*5C
$GPRMC,104542.700,A,3552.2757,N,13935.9379,E,8.53,20.23,310517,,,A*5C
$GPRMC,104542.800,A,3552.2760,N,13935.9380,E,8.76,18.93,310517,,,A*56
$GPRMC,104542.900,A,3552.2762,N,13935.9381,E,8.88,19.11,310517,,,A*5E
$GPRMC,104543.000,A,3552.2764,N,13935.9382,E,9.00,18.26,310517,,,A*57
$GPRMC,104543.100,A,3552.2767,N,13935.9383,E,9.01,19.48,310517,,,A*5C
$GPRMC,104543.200,A,3552.2769,N,13935.9384,E,9.20,18.60,310517,,,A*5E
$GPRMC,104543.300,A,3552.2772,N,13935.9385,E,9.15,18.89,310517,,,A*55
$GPRMC,104543.400,A,3552.2774,N,13935.9386,E,9.31,18.12,310517,,,A*53
$GPRMC,104543.500,A,3552.2777,N,13935.9387,E,9.32,18.88,310517,,,A*50
$GPRMC,104543.600,A,3552.2779,N,13935.9388,E,9.34,18.82,310517,,,A*5E
$GPRMC,104543.700,A,3552.2782,N,13935.9389,E,9.46,18.15,310517,,,A*51
$GPRMC,104543.800,A,3552.2785,N,13935.9390,E,9.50,18.40,310517,,,A*56
$GPRMC,104543.900,A,3552.2787,N,13935.9391,E,9.58,18.69,310517,,,A*57
$GPRMC,104544.000,A,3552.2790,N,13935.9392,E,9.62,18.55,310517,,,A*5A
$GPRMC,104544.100,A,3552.2793,N,13935.9393,E,9.75,18.57,310517,,,A*5D
$GPRMC,104544.200,A,3552.2795,N,13935.9395,E,9.90,18.58,310517,,,A*5A
$GPRMC,104544.300,A,3552.2798,N,13935.9396,E,10.07,18.62,310517,,,A*6A
$GPRMC,104544.400,A,3552.2801,N,13935.9397,E,10.19,18.16,310517,,,A*6F
$GPRMC,104544.500,A,3552.2804,N,13935.9398,E,10.50,18.42,310517,,,A*68
$GPRMC,104544.600,A,3552.2807,N,13935.9399,E,10.57,17.84,310517,,,A*6B
$GPRMC,104544.700,A,3552.2810,N,13935.9400,E,10.64,17.31,310517,,,A*65
$GPRMC,104544.800,A,3552.2813,N,13935.9401,E,10.74,16.70,310517,,,A*6D
$GPRMC,104544.900,A,3552.2816,N,13935.9402,E,10.88,16.01,310517,,,A*6F
$GPRMC,104545.000,A,3552.2819,N,13935.9403,E,10.89,16.21,310517,,,A*6A
$GPRMC,104545.100,A,3552.2822,N,13935.9404,E,10.92,15.73,310517,,,A*6A
$GPRMC,104545.200,A,3552.2826,N,13935.9405,E,11.16,15.58,310517,,,A*68
$GPRMC,104545.300,A,3552.2829,N,13935.9406,E,11.37,15.53,310517,,,A*6D
$GPRMC,104545.400,A,3552.2833,N,13935.9407,E,11.45,15.10,310517,,,A*62
$GPRMC,104545.500,A,3552.2836,N,13935.9408,E,11.65,14.87,310517,,,A*64
$GPRMC,104545.600,A,3552.2840,N,13935.9408,E,11.77,14.51,310517,,,A*6E
$GPRMC,104545.700,A,3552.2844,N,13935.9409,E,11.94,14.11,310517,,,A*63
$GPRMC,104545.800,A,3552.2847,N,13935.9410,E,12.08,13.54,310517,,,A*67
$GPRMC,104545.900,A,3552.2851,N,13935.9410,E,12.19,13.02,310517,,,A*62
$GPRMC,104546.000,A,3552.2855,N,13935.9411,E,12.36,12.87,310517,,,A*6C
$GPRMC,104546.100,A,3552.2858,N,13935.9411,E,12.43,12.66,310517,,,A*6D
$GPRMC,104546.200,A,3552.2862,N,13935.9412,E,12.62,13.40,310517,,,A*62
$GPRMC,104546.300,A,3552.2866,N,13935.9413,E,12.76,13.04,310517,,,A*63
$GPRMC,104546.400,A,3552.2870,N,13935.9413,E,12.93,12.70,310517,,,A*6A
$GPRMC,104546.500,A,3552.2874,N,13935.9413,E,13.13,11.96,310517,,,A*6D
$GPRMC,104546.600,A,3552.2879,N,13935.9413,E,13.52,10.83,310517,,,A*63
$GPRMC,104546.700,A,3552.2883,N,13935.9413,E,13.71,10.61,310517,,,A*6A
$GPRMC,104546.800,A,3552.2887,N,13935.9414,E,13.96,10.24,310517,,,A*6E
$GPRMC,104546.900,A,3552.2892,N,13935.9414,E,14.19,9.93,310517,,,A*5F
$GPRMC,104547.000,A,3552.2897,N,13935.9415,E,14.65,9.91,310517,,,A*5A
$GPRMC,104547.100,A,3552.2902,N,13935.9415,E,14.91,9.50,310517,,,A*50
$GPRMC,104547.200,A,3552.2907,N,13935.9415,E,15.21,9.52,310517,,,A*5E
$GPRMC,104547.300,A,3552.2912,N,13935.9416,E,15.54,9.25,310517,,,A*5A
$GPRMC,104547.400,A,3552.2917,N,13935.9417,E,15.77,9.14,310517,,,A*5A
$GPRMC,104547.500,A,3552.2924,N,13935.9417,E,16.38,8.00,310517,,,A*57
$GPRMC,104547.600,A,3552.2929,N,13935.9417,E,16.58,8.00,310517,,,A*5F
$GPRMC,104547.700,A,3552.2934,N,13935.9418,E,16.80,8.07,310517,,,A*5F
$GPRMC,104547.800,A,3552.2940,N,13935.9418,E,17.02,8.04,310517,,,A*5B
$GPRMC,104547.900,A,3552.2945,N,13935.9419,E,17.13,8.83,310517,,,A*51
$GPRMC,104548.000,A,3552.2950,N,13935.9421,E,17.23,9.36,310517,,,A*54
$GPRMC,104548.100,A,3552.2955,N,13935.9422,E,17.35,10.05,310517,,,A*6C
$GPRMC,104548.200,A,3552.2960,N,13935.9423,E,17.54,10.27,310517,,,A*6F
$GPRMC,104548.300,A,3552.2966,N,13935.9424,E,17.72,10.27,310517,,,A*6B
$GPRMC,104548.400,A,3552.2971,N,13935.9424,E,17.89,9.98,310517,,,A*52
$GPRMC,104548.500,A,3552.2977,N,13935.9425,E,18.08,9.63,310517,,,A*56
$GPRMC,104548.600,A,3552.2983,N,13935.9426,E,18.20,9.16,310517,,,A*55
$GPRMC,104548.700,A,3552.2988,N,13935.9427,E,18.45,8.90,310517,,,A*52
$GPRMC,104548.800,A,3552.2994,N,13935.9427,E,18.65,8.64,310517,,,A*59
$GPRMC,104548.900,A,3552.3000,N,13935.9428,E,18.73,8.42,310517,,,A*51
$GPRMC,104549.000,A,3552.3005,N,13935.9429,E,18.79,8.10,310517,,,A*50
$GPRMC,104549.100,A,3552.3011,N,13935.9430,E,18.89,7.86,310517,,,A*53
$GPRMC,104549.200,A,3552.3016,N,13935.9431,E,18.93,8.07,310517,,,A*5B
$GPRMC,104549.300,A,3552.3022,N,13935.9432,E,19.01,8.09,310517,,,A*5A
$GPRMC,104549.400,A,3552.3027,N,13935.9432,E,19.13,7.69,310517,,,A*52
$GPRMC,104549.500,A,3552.3033,N,13935.9433,E,19.31,7.42,310517,,,A*5E
$GPRMC,104549.600,A,3552.3038,N,13935.9433,E,19.39,7.15,310517,,,A*5C
$GPRMC,104549.700,A,3552.3044,N,13935.9434,E,19.55,6.89,310517,,,A*5F
$GPRMC,104549.800,A,3552.3050,N,13935.9435,E,19.63,6.76,310517,,,A*51
$GPRMC,104549.900,A,3552.3055,N,13935.9436,E,19.80,6.59,310517,,,A*56
$GPRMC,104550.000,A,3552.3061,N,13935.9437,E,19.88,6.67,310517,,,A*54
$GPRMC,104550.100,A,3552.3066,N,13935.9438,E,19.96,6.64,310517,,,A*51
$GPRMC,104550.200,A,3552.3071,N,13935.9439,E,20.02,6.67,310517,,,A*51
$GPRMC,104550.300,A,3552.3077,N,13935.9440,E,20.08,6.78,310517,,,A*5C
$GPRMC,104550.400,A,3552.3083,N,13935.9441,E,20.17,6.85,310517,,,A*5D
$GPRMC,104550.500,A,3552.3088,N,13935.9442,E,20.24,6.91,310517,,,A*51
$GPRMC,104550.600,A,3552.3094,N,13935.9443,E,20.31,7.00,310517,,,A*53
$GPRMC,104550.700,A,3552.3099,N,13935.9444,E,20.37,7.12,310517,,,A*5D
$GPRMC,104550.800,A,3552.3105,N,13935.9445,E,20.46,7.19,310517,,,A*5A
$GPRMC,104550.900,A,3552.3111,N,13935.9446,E,20.49,7.29,310517,,,A*51
$GPRMC,104551.000,A,3552.3116,N,13935.9447,E,20.60,7.17,310517,,,A*59
$GPRMC,104551.100,A,3552.3122,N,13935.9448,E,20.62,7.10,310517,,,A*55
$GPRMC,104551.200,A,3552.3128,N,13935.9448,E,20.73,6.69,310517,,,A*53
$GPRMC,104551.300,A,3552.3134,N,13935.9449,E,20.84,6.49,310517,,,A*54
$GPRMC,104551.400,A,3552.3140,N,13935.9450,E,20.94,6.25,310517,,,A*53
$GPRMC,104551.500,A,3552.3146,N,13935.9450,E,21.04,5.89,310517,,,A*59
$GPRMC,104551.600,A,3552.3152,N,13935.9451,E,21.01,5.73,310517,,,A*5E
$GPRMC,104551.700,A,3552.3158,N,13935.9451,E,21.13,5.70,310517,,,A*55
$GPRMC,104551.800,A,3552.3164,N,13935.9452,E,21.23,5.33,310517,,,A*52
$GPRMC,104551.900,A,3552.3171,N,13935.9452,E,21.27,5.04,310517,,,A*57
$GPRMC,104552.000,A,3552.3177,N,13935.9452,E,21.27,5.32,310517,,,A*5E
$GPRMC,104552.100,A,3552.3183,N,13935.9453,E,21.31,5.12,310517,,,A*50
$GPRMC,104552.200,A,3552.3189,N,13935.9453,E,21.32,5.23,310517,,,A*58
$GPRMC,104552.300,A,3552.3195,N,13935.9454,E,21.30,5.25,310517,,,A*57
$GPRMC,104552.400,A,3552.3201,N,13935.9454,E,21.32,5.09,310517,,,A*52
$GPRMC,104552.500,A,3552.3207,N,13935.9455,E,21.31,4.98,310517,,,A*5E
$GPRMC,104552.600,A,3552.3213,N,13935.9455,E,21.32,4.82,310517,,,A*50
$GPRMC,104552.700,A,3552.3219,N,13935.9455,E,21.36,4.61,310517,,,A*52
$GPRMC,104552.800,A,3552.3225,N,13935.9456,E,21.38,4.60,310517,,,A*5E
$GPRMC,104552.900,A,3552.3231,N,13935.9456,E,21.32,4.75,310517,,,A*54
$GPRMC,104553.000,A,3552.3237,N,13935.9457,E,21.28,4.88,310517,,,A*52
$GPRMC,104553.100,A,3552.3243,N,13935.9458,E,21.27,4.92,310517,,,A*5B
$GPRMC,104553.200,A,3552.3249,N,13935.9459,E,21.28,4.93,310517,,,A*5D
$GPRMC,104553.300,A,3552.3255,N,13935.9460,E,21.31,4.72,310517,,,A*5C
$GPRMC,104553.400,A,3552.3261,N,13935.9460,E,21.39,4.54,310517,,,A*50
$GPRMC,104553.500,A,3552.3267,N,13935.9461,E,21.48,4.48,310517,,,A*5D
$GPRMC,104553.600,A,3552.3273,N,13935.9461,E,21.58,4.52,310517,,,A*51
$GPRMC,104553.700,A,3552.3279,N,13935.9462,E,21.62,4.43,310517,,,A*50
$GPRMC,104553.800,A,3552.3285,N,13935.9462,E,21.65,4.43,310517,,,A*5B
$GPRMC,104553.900,A,3552.3291,N,13935.9463,E,21.70,4.41,310517,,,A*58
$GPRMC,104554.000,A,3552.3298,N,13935.9463,E,21.72,4.39,310517,,,A*52
$GPRMC,104554.100,A,3552.3304,N,13935.9463,E,21.34,3.26,310517,,,A*5C
$GPRMC,104554.200,A,3552.3310,N,13935.9464,E,21.47,3.52,310517,,,A*5A
$GPRMC,104554.300,A,3552.3316,N,13935.9464,E,21.65,3.79,310517,,,A*54
$GPRMC,104554.400,A,3552.3323,N,13935.9465,E,21.97,3.88,310517,,,A*57
$GPRMC,104554.500,A,3552.3329,N,13935.9465,E,21.99,3.78,310517,,,A*5D
$GPRMC,104554.600,A,3552.3335,N,13935.9466,E,22.08,4.09,310517,,,A*5A
$GPRMC,104554.700,A,3552.3341,N,13935.9466,E,22.07,4.25,310517,,,A*59
$GPRMC,104554.800,A,3552.3348,N,13935.9467,E,22.16,3.99,310517,,,A*5E
$GPRMC,104554.900,A,3552.3354,N,13935.9467,E,22.19,4.02,310517,,,A*58
$GPRMC,104555.000,A,3552.3361,N,13935.9468,E,22.26,4.00,310517,,,A*57
$GPRMC,104555.100,A,3552.3367,N,13935.9468,E,22.25,4.06,310517,,,A*55
$GPRMC,104555.200,A,3552.3373,N,13935.9469,E,22.25,4.44,310517,,,A*54
$GPRMC,104555.300,A,3552.3380,N,13935.9469,E,22.28,4.50,310517,,,A*51
$GPRMC,104555.400,A,3552.3386,N,13935.9469,E,22.48,3.60,310517,,,A*52
$GPRMC,104555.500,A,3552.3393,N,13935.9470,E,22.52,3.62,310517,,,A*56
