$GPRMC,033000.20,A,3522.5502,N,13855.9644,E,49.040150,0.000000,250719,,*05
$GPGGA,033000.20,3522.5502,N,13855.9644,E,1,00,0.0,626.018677,M,0.0,M,,*62
$GPGLL,3522.5502,N,13855.9644,E,033000.20,A,*2B
$GPGSA,A,3,,,,,,,,,,,,,0.0,0.0,0.0*32
$GPRMC,033000.30,A,3522.5515,N,13855.9653,E,48.676555,29.232032,250719,,*3E
$GPGGA,033000.30,3522.5515,N,13855.9653,E,1,00,0.0,626.793274,M,0.0,M,,*60
$GPGLL,3522.5515,N,13855.9653,E,033000.30,A,*2A
$GPGSA,A,3,,,,,,,,,,,,,0.0,0.0,0.0*32
$GPRMC,033000.40,A,3522.5523,N,13855.9667,E,47.736104,55.134317,250719,,*3B
$GPGGA,033000.40,3522.5523,N,13855.9667,E,1,00,0.0,627.216248,M,0.0,M,,*63
$GPGLL,3522.5523,N,13855.9667,E,033000.40,A,*2F
$GPGSA,A,3,,,,,,,,,,,,,0.0,0.0,0.0*32
$GPRMC,033000.50,A,3522.5533,N,13855.9682,E,47.131940,50.102109,250719,,*34
$GPGGA,033000.50,3522.5533,N,13855.9682,E,1,00,0.0,626.741028,M,0.0,M,,*6A
$GPGLL,3522.5533,N,13855.9682,E,033000.50,A,*24
$GPGSA,A,3,,,,,,,,,,,,,0.0,0.0,0.0*32
$GPRMC,033000.60,A,3522.5542,N,13855.9698,E,46.435148,55.907835,250719,,*34
$GPGGA,033000.60,3522.5542,N,13855.9698,E,1,00,0.0,626.701416,M,0.0,M,,*69
$GPGLL,3522.5542,N,13855.9698,E,033000.60,A,*2A
$GPGSA,A,3,,,,,,,,,,,,,0.0,0.0,0.0*32
$GPRMC,033000.70,A,3522.5553,N,13855.9715,E,45.775028,50.821988,250719,,*35
$GPGGA,033000.70,3522.5553,N,13855.9715,E,1,00,0.0,626.340515,M,0.0,M,,*6F
$GPGLL,3522.5553,N,13855.9715,E,033000.70,A,*2F
$GPGSA,A,3,,,,,,,,,,,,,0.0,0.0,0.0*32
$GPRMC,033000.80,A,3522.5564,N,13855.9730,E,44.989052,48.190572,250719,,*3B
$GPGGA,033000.80,3522.5564,N,13855.9730,E,1,00,0.0,625.925537,M,0.0,M,,*69
$GPGLL,3522.5564,N,13855.9730,E,033000.80,A,*23
$GPGSA,A,3,,,,,,,,,,,,,0.0,0.0,0.0*32
$GPRMC,033000.90,A,3522.5574,N,13855.9743,E,44.286312,46.962386,250719,,*3A
$GPGGA,033000.90,3522.5574,N,13855.9743,E,1,00,0.0,625.192871,M,0.0,M,,*66
$GPGLL,3522.5574,N,13855.9743,E,033000.90,A,*27
$GPGSA,A,3,,,,,,,,,,,,,0.0,0.0,0.0*32
$GPRMC,033001.00,A,3522.5583,N,13855.9755,E,43.781936,48.051095,250719,,*32
$GPGGA,033001.00,3522.5583,N,13855.9755,E,1,00,0.0,624.960388,M,0.0,M,,*68
$GPGLL,3522.5583,N,13855.9755,E,033001.00,A,*20
$GPGSA,A,3,,,,,,,,,,,,,0.0,0.0,0.0*32
$GPRMC,033001.10,A,3522.5590,N,13855.9767,E,42.992050,51.384791,250719,,*34
$GPGGA,033001.10,3522.5590,N,13855.9767,E,1,00,0.0,624.959961,M,0.0,M,,*6D
$GPGLL,3522.5590,N,13855.9767,E,033001.10,A,*22
$GPGSA,A,3,,,,,,,,,,,,,0.0,0.0,0.0*32
$GPRMC,033001.20,A,3522.5598,N,13855.9778,E,42.351725,49.475262,250719,,*38
$GPGGA,033001.20,3522.5598,N,13855.9778,E,1,00,0.0,625.065247,M,0.0,M,,*60
$GPGLL,3522.5598,N,13855.9778,E,033001.20,A,*27
$GPGSA,A,3,,,,,,,,,,,,,0.0,0.0,0.0*32
$GPRMC,033001.30,A,3522.5605,N,13855.9789,E,41.605189,49.304660,250719,,*30
$GPGGA,033001.30,3522.5605,N,13855.9789,E,1,00,0.0,625.306885,M,0.0,M,,*6A
$GPGLL,3522.5605,N,13855.9789,E,033001.30,A,*2F
$GPGSA,A,3,,,,,,,,,,,,,0.0,0.0,0.0*32
$GPRMC,033001.40,A,3522.5613,N,13855.9800,E,41.044042,52.489516,250719,,*31
$GPGGA,033001.40,3522.5613,N,13855.9800,E,1,00,0.0,625.258728,M,0.0,M,,*66
$GPGLL,3522.5613,N,13855.9800,E,033001.40,A,*21
$GPGSA,A,3,,,,,,,,,,,,,0.0,0.0,0.0*32
$GPRMC,033001.50,A,3522.5619,N,13855.9811,E,40.570772,56.014257,250719,,*3B
$GPGGA,033001.50,3522.5619,N,13855.9811,E,1,00,0.0,625.089539,M,0.0,M,,*61
$GPGLL,3522.5619,N,13855.9811,E,033001.50,A,*2A
$GPGSA,A,3,,,,,,,,,,,,,0.0,0.0,0.0*32
$GPRMC,033001.60,A,3522.5626,N,13855.9822,E,39.596434,52.204557,250719,,*33
$GPGGA,033001.60,3522.5626,N,13855.9822,E,1,00,0.0,624.939209,M,0.0,M,,*69
$GPGLL,3522.5626,N,13855.9822,E,033001.60,A,*25
$GPGSA,A,3,,,,,,,,,,,,,0.0,0.0,0.0*32
$GPRMC,033001.70,A,3522.5632,N,13855.9832,E,38.936648,49.683244,250719,,*3C
$GPGGA,033001.70,3522.5632,N,13855.9832,E,1,00,0.0,624.833008,M,0.0,M,,*64
$GPGLL,3522.5632,N,13855.9832,E,033001.70,A,*20
$GPGSA,A,3,,,,,,,,,,,,,0.0,0.0,0.0*32
$GPRMC,033001.80,A,3522.5639,N,13855.9841,E,38.318457,48.793928,250719,,*36
$GPGGA,033001.80,3522.5639,N,13855.9841,E,1,00,0.0,624.671570,M,0.0,M,,*66
$GPGLL,3522.5639,N,13855.9841,E,033001.80,A,*20
$GPGSA,A,3,,,,,,,,,,,,,0.0,0.0,0.0*32
$GPRMC,033001.90,A,3522.5646,N,13855.9851,E,37.500064,50.279897,250719,,*37
$GPGGA,033001.90,3522.5646,N,13855.9851,E,1,00,0.0,624.554260,M,0.0,M,,*6C
$GPGLL,3522.5646,N,13855.9851,E,033001.90,A,*28
$GPGSA,A,3,,,,,,,,,,,,,0.0,0.0,0.0*32
$GPRMC,033002.00,A,3522.5651,N,13855.9860,E,36.879459,53.070081,250719,,*36
$GPGGA,033002.00,3522.5651,N,13855.9860,E,1,00,0.0,624.743103,M,0.0,M,,*60
$GPGLL,3522.5651,N,13855.9860,E,033002.00,A,*26
$GPGSA,A,3,,,,,,,,,,,,,0.0,0.0,0.0*32
$GPRMC,033002.10,A,3522.5657,N,13855.9870,E,36.125476,55.427912,250719,,*3E
$GPGGA,033002.10,3522.5657,N,13855.9870,E,1,00,0.0,624.850037,M,0.0,M,,*6D
$GPGLL,3522.5657,N,13855.9870,E,033002.10,A,*20
$GPGSA,A,3,,,,,,,,,,,,,0.0,0.0,0.0*32
$GPRMC,033002.20,A,3522.5663,N,13855.9879,E,35.463255,52.414085,250719,,*30
$GPGGA,033002.20,3522.5663,N,13855.9879,E,1,00,0.0,624.764099,M,0.0,M,,*6C
$GPGLL,3522.5663,N,13855.9879,E,033002.20,A,*2D
$GPGSA,A,3,,,,,,,,,,,,,0.0,0.0,0.0*32
$GPRMC,033002.30,A,3522.5669,N,13855.9889,E,34.712241,50.760552,250719,,*38
$GPGGA,033002.30,3522.5669,N,13855.9889,E,1,00,0.0,624.607361,M,0.0,M,,*68
$GPGLL,3522.5669,N,13855.9889,E,033002.30,A,*29
$GPGSA,A,3,,,,,,,,,,,,,0.0,0.0,0.0*32
$GPRMC,033002.40,A,3522.5675,N,13855.9898,E,34.278276,50.509250,250719,,*37
$GPGGA,033002.40,3522.5675,N,13855.9898,E,1,00,0.0,624.580322,M,0.0,M,,*69
$GPGLL,3522.5675,N,13855.9898,E,033002.40,A,*23
$GPGSA,A,3,,,,,,,,,,,,,0.0,0.0,0.0*32
$GPRMC,033002.50,A,3522.5681,N,13855.9906,E,33.704164,47.597292,250719,,*3D
$GPGGA,033002.50,3522.5681,N,13855.9906,E,1,00,0.0,624.505859,M,0.0,M,,*6F
$GPGLL,3522.5681,N,13855.9906,E,033002.50,A,*2F
$GPGSA,A,3,,,,,,,,,,,,,0.0,0.0,0.0*32
$GPRMC,033002.60,A,3522.5687,N,13855.9914,E,33.562156,48.689687,250719,,*3B
$GPGGA,033002.60,3522.5687,N,13855.9914,E,1,00,0.0,624.320068,M,0.0,M,,*62
$GPGLL,3522.5687,N,13855.9914,E,033002.60,A,*29
$GPGSA,A,3,,,,,,,,,,,,,0.0,0.0,0.0*32
$GPRMC,033002.70,A,3522.5692,N,13855.9922,E,33.155635,50.552426,250719,,*3C
$GPGGA,033002.70,3522.5692,N,13855.9922,E,1,00,0.0,624.304260,M,0.0,M,,*6E
$GPGLL,3522.5692,N,13855.9922,E,033002.70,A,*29
$GPGSA,A,3,,,,,,,,,,,,,0.0,0.0,0.0*32
$GPRMC,033002.80,A,3522.5698,N,13855.9930,E,33.386469,49.240753,250719,,*30
$GPGGA,033002.80,3522.5698,N,13855.9930,E,1,00,0.0,624.363525,M,0.0,M,,*6F
$GPGLL,3522.5698,N,13855.9930,E,033002.80,A,*2F
$GPGSA,A,3,,,,,,,,,,,,,0.0,0.0,0.0*32
$GPRMC,033002.90,A,3522.5704,N,13855.9939,E,32.904133,49.637097,250719,,*3C
$GPGGA,033002.90,3522.5704,N,13855.9939,E,1,00,0.0,624.368652,M,0.0,M,,*6B
$GPGLL,3522.5704,N,13855.9939,E,033002.90,A,*23
$GPGSA,A,3,,,,,,,,,,,,,0.0,0.0,0.0*32
$GPRMC,033003.00,A,3522.5710,N,13855.9948,E,32.877160,48.738884,250719,,*31
$GPGGA,033003.00,3522.5710,N,13855.9948,E,1,00,0.0,624.349670,M,0.0,M,,*63
$GPGLL,3522.5710,N,13855.9948,E,033003.00,A,*28
$GPGSA,A,3,,,,,,,,,,,,,0.0,0.0,0.0*32
$GPRMC,033003.10,A,3522.5716,N,13855.9956,E,32.158201,49.011361,250719,,*34
$GPGGA,033003.10,3522.5716,N,13855.9956,E,1,00,0.0,624.379578,M,0.0,M,,*63
$GPGLL,3522.5716,N,13855.9956,E,033003.10,A,*20
$GPGSA,A,3,,,,,,,,,,,,,0.0,0.0,0.0*32
$GPRMC,033003.20,A,3522.5722,N,13855.9964,E,31.566247,51.943059,250719,,*36
$GPGGA,033003.20,3522.5722,N,13855.9964,E,1,00,0.0,624.548279,M,0.0,M,,*64
$GPGLL,3522.5722,N,13855.9964,E,033003.20,A,*25
$GPGSA,A,3,,,,,,,,,,,,,0.0,0.0,0.0*32
$GPRMC,033003.30,A,3522.5727,N,13855.9972,E,31.238502,51.413423,250719,,*3E
$GPGGA,033003.30,3522.5727,N,13855.9972,E,1,00,0.0,624.540466,M,0.0,M,,*67
$GPGLL,3522.5727,N,13855.9972,E,033003.30,A,*26
$GPGSA,A,3,,,,,,,,,,,,,0.0,0.0,0.0*32
$GPRMC,033003.40,A,3522.5732,N,13855.9980,E,30.797425,51.655358,250719,,*3E
$GPGGA,033003.40,3522.5732,N,13855.9980,E,1,00,0.0,624.360901,M,0.0,M,,*61
$GPGLL,3522.5732,N,13855.9980,E,033003.40,A,*28
$GPGSA,A,3,,,,,,,,,,,,,0.0,0.0,0.0*32
$GPRMC,033003.50,A,3522.5737,N,13855.9989,E,30.521098,55.627545,250719,,*35
$GPGGA,033003.50,3522.5737,N,13855.9989,E,1,00,0.0,624.062622,M,0.0,M,,*63
$GPGLL,3522.5737,N,13855.9989,E,033003.50,A,*25
$GPGSA,A,3,,,,,,,,,,,,,0.0,0.0,0.0*32
$GPRMC,033003.60,A,3522.5741,N,13855.9997,E,30.044992,59.082051,250719,,*38
$GPGGA,033003.60,3522.5741,N,13855.9997,E,1,00,0.0,623.686462,M,0.0,M,,*63
$GPGLL,3522.5741,N,13855.9997,E,033003.60,A,*28
$GPGSA,A,3,,,,,,,,,,,,,0.0,0.0,0.0*32
$GPRMC,033003.70,A,3522.5745,N,13856.0005,E,29.577239,58.432153,250719,,*3F
$GPGGA,033003.70,3522.5745,N,13856.0005,E,1,00,0.0,623.215759,M,0.0,M,,*6B
$GPGLL,3522.5745,N,13856.0005,E,033003.70,A,*25
$GPGSA,A,3,,,,,,,,,,,,,0.0,0.0,0.0*32
$GPRMC,033003.80,A,3522.5749,N,13856.0014,E,29.048502,61.590193,250719,,*35
$GPGGA,033003.80,3522.5749,N,13856.0014,E,1,00,0.0,622.702698,M,0.0,M,,*66
$GPGLL,3522.5749,N,13856.0014,E,033003.80,A,*26
$GPGSA,A,3,,,,,,,,,,,,,0.0,0.0,0.0*32
$GPRMC,033003.90,A,3522.5752,N,13856.0022,E,28.604065,62.576622,250719,,*36
$GPGGA,033003.90,3522.5752,N,13856.0022,E,1,00,0.0,622.429993,M,0.0,M,,*66
$GPGLL,3522.5752,N,13856.0022,E,033003.90,A,*28
$GPGSA,A,3,,,,,,,,,,,,,0.0,0.0,0.0*32
$GPRMC,033004.00,A,3522.5755,N,13856.0030,E,28.147174,68.128751,250719,,*3D
$GPGGA,033004.00,3522.5755,N,13856.0030,E,1,00,0.0,622.134644,M,0.0,M,,*60
$GPGLL,3522.5755,N,13856.0030,E,033004.00,A,*22
$GPGSA,A,3,,,,,,,,,,,,,0.0,0.0,0.0*32
$GPRMC,033004.10,A,3522.5757,N,13856.0039,E,28.286985,70.688977,250719,,*31
$GPGGA,033004.10,3522.5757,N,13856.0039,E,1,00,0.0,621.978699,M,0.0,M,,*69
$GPGLL,3522.5757,N,13856.0039,E,033004.10,A,*28
$GPGSA,A,3,,,,,,,,,,,,,0.0,0.0,0.0*32
$GPRMC,033004.20,A,3522.5760,N,13856.0048,E,28.625723,70.386468,250719,,*37
$GPGGA,033004.20,3522.5760,N,13856.0048,E,1,00,0.0,621.887207,M,0.0,M,,*6A
$GPGLL,3522.5760,N,13856.0048,E,033004.20,A,*29
$GPGSA,A,3,,,,,,,,,,,,,0.0,0.0,0.0*32
$GPRMC,033004.30,A,3522.5762,N,13856.0057,E,28.875188,72.452299,250719,,*32
$GPGGA,033004.30,3522.5762,N,13856.0057,E,1,00,0.0,621.743286,M,0.0,M,,*69
$GPGLL,3522.5762,N,13856.0057,E,033004.30,A,*24
$GPGSA,A,3,,,,,,,,,,,,,0.0,0.0,0.0*32
$GPRMC,033004.40,A,3522.5764,N,13856.0067,E,28.883234,76.563027,250719,,*3D
$GPGGA,033004.40,3522.5764,N,13856.0067,E,1,00,0.0,621.621948,M,0.0,M,,*67
$GPGLL,3522.5764,N,13856.0067,E,033004.40,A,*26
$GPGSA,A,3,,,,,,,,,,,,,0.0,0.0,0.0*32
$GPRMC,033004.50,A,3522.5765,N,13856.0077,E,29.047270,80.317774,250719,,*30
$GPGGA,033004.50,3522.5765,N,13856.0077,E,1,00,0.0,621.538147,M,0.0,M,,*6A
$GPGLL,3522.5765,N,13856.0077,E,033004.50,A,*27
$GPGSA,A,3,,,,,,,,,,,,,0.0,0.0,0.0*32
$GPRMC,033004.60,A,3522.5766,N,13856.0087,E,29.341315,82.891025,250719,,*3C
$GPGGA,033004.60,3522.5766,N,13856.0087,E,1,00,0.0,621.391174,M,0.0,M,,*60
$GPGLL,3522.5766,N,13856.0087,E,033004.60,A,*28
$GPGSA,A,3,,,,,,,,,,,,,0.0,0.0,0.0*32
$GPRMC,033004.70,A,3522.5767,N,13856.0096,E,29.430175,86.697002,250719,,*30
$GPGGA,033004.70,3522.5767,N,13856.0096,E,1,00,0.0,621.284729,M,0.0,M,,*6B
$GPGLL,3522.5767,N,13856.0096,E,033004.70,A,*28
$GPGSA,A,3,,,,,,,,,,,,,0.0,0.0,0.0*32
$GPRMC,033004.80,A,3522.5767,N,13856.0106,E,29.550779,89.196533,250719,,*34
$GPGGA,033004.80,3522.5767,N,13856.0106,E,1,00,0.0,621.206604,M,0.0,M,,*68
$GPGLL,3522.5767,N,13856.0106,E,033004.80,A,*2F
$GPGSA,A,3,,,,,,,,,,,,,0.0,0.0,0.0*32
$GPRMC,033004.90,A,3522.5767,N,13856.0117,E,29.600049,92.231793,250719,,*3B
$GPGGA,033004.90,3522.5767,N,13856.0117,E,1,00,0.0,621.162415,M,0.0,M,,*6A
$GPGLL,3522.5767,N,13856.0117,E,033004.90,A,*2E
$GPGSA,A,3,,,,,,,,,,,,,0.0,0.0,0.0*32
$GPRMC,033005.00,A,3522.5767,N,13856.0127,E,29.444789,90.973630,250719,,*3E
$GPGGA,033005.00,3522.5767,N,13856.0127,E,1,00,0.0,621.054688,M,0.0,M,,*63
$GPGLL,3522.5767,N,13856.0127,E,033005.00,A,*25
$GPGSA,A,3,,,,,,,,,,,,,0.0,0.0,0.0*32
$GPRMC,033005.10,A,3522.5766,N,13856.0137,E,29.234309,94.051580,250719,,*37
$GPGGA,033005.10,3522.5766,N,13856.0137,E,1,00,0.0,620.875244,M,0.0,M,,*6C
$GPGLL,3522.5766,N,13856.0137,E,033005.10,A,*24
$GPGSA,A,3,,,,,,,,,,,,,0.0,0.0,0.0*32
$GPRMC,033005.20,A,3522.5764,N,13856.0147,E,29.427300,100.489559,250719,,*05
$GPGGA,033005.20,3522.5764,N,13856.0147,E,1,00,0.0,620.816895,M,0.0,M,,*69
$GPGLL,3522.5764,N,13856.0147,E,033005.20,A,*22
$GPGSA,A,3,,,,,,,,,,,,,0.0,0.0,0.0*32
$GPRMC,033005.30,A,3522.5762,N,13856.0157,E,29.096286,104.216634,250719,,*0E
$GPGGA,033005.30,3522.5762,N,13856.0157,E,1,00,0.0,620.806946,M,0.0,M,,*61
$GPGLL,3522.5762,N,13856.0157,E,033005.30,A,*24
$GPGSA,A,3,,,,,,,,,,,,,0.0,0.0,0.0*32
$GPRMC,033005.40,A,3522.5760,N,13856.0166,E,28.773019,106.121626,250719,,*06
$GPGGA,033005.40,3522.5760,N,13856.0166,E,1,00,0.0,620.808533,M,0.0,M,,*66
$GPGLL,3522.5760,N,13856.0166,E,033005.40,A,*23
$GPGSA,A,3,,,,,,,,,,,,,0.0,0.0,0.0*32
$GPRMC,033005.50,A,3522.5758,N,13856.0175,E,28.710040,106.532696,250719,,*0A
$GPGGA,033005.50,3522.5758,N,13856.0175,E,1,00,0.0,620.757751,M,0.0,M,,*6D
$GPGLL,3522.5758,N,13856.0175,E,033005.50,A,*2B
$GPGSA,A,3,,,,,,,,,,,,,0.0,0.0,0.0*32
$GPRMC,033005.60,A,3522.5756,N,13856.0185,E,28.596532,107.654984,250719,,*0A
$GPGGA,033005.60,3522.5756,N,13856.0185,E,1,00,0.0,620.623657,M,0.0,M,,*6A
$GPGLL,3522.5756,N,13856.0185,E,033005.60,A,*29
$GPGSA,A,3,,,,,,,,,,,,,0.0,0.0,0.0*32
$GPRMC,033005.70,A,3522.5753,N,13856.0193,E,28.687360,111.788373,250719,,*0E
$GPGGA,033005.70,3522.5753,N,13856.0193,E,1,00,0.0,620.590515,M,0.0,M,,*67
$GPGLL,3522.5753,N,13856.0193,E,033005.70,A,*2A
$GPGSA,A,3,,,,,,,,,,,,,0.0,0.0,0.0*32
$GPRMC,033005.80,A,3522.5749,N,13856.0202,E,28.323530,116.059550,250719,,*02
$GPGGA,033005.80,3522.5749,N,13856.0202,E,1,00,0.0,620.619568,M,0.0,M,,*60
$GPGLL,3522.5749,N,13856.0202,E,033005.80,A,*25
$GPGSA,A,3,,,,,,,,,,,,,0.0,0.0,0.0*32
$GPRMC,033005.90,A,3522.5745,N,13856.0210,E,28.382077,123.851082,250719,,*0D
$GPGGA,033005.90,3522.5745,N,13856.0210,E,1,00,0.0,620.202637,M,0.0,M,,*69
$GPGLL,3522.5745,N,13856.0210,E,033005.90,A,*2B
$GPGSA,A,3,,,,,,,,,,,,,0.0,0.0,0.0*32
$GPRMC,033006.00,A,3522.5741,N,13856.0218,E,27.802162,120.429316,250719,,*0C
$GPGGA,033006.00,3522.5741,N,13856.0218,E,1,00,0.0,620.112366,M,0.0,M,,*6C
$GPGLL,3522.5741,N,13856.0218,E,033006.00,A,*2D
$GPGSA,A,3,,,,,,,,,,,,,0.0,0.0,0.0*32
$GPRMC,033006.10,A,3522.5736,N,13856.0225,E,28.414279,128.414766,250719,,*0B
$GPGGA,033006.10,3522.5736,N,13856.0225,E,1,00,0.0,619.756348,M,0.0,M,,*63
$GPGLL,3522.5736,N,13856.0225,E,033006.10,A,*22
$GPGSA,A,3,,,,,,,,,,,,,0.0,0.0,0.0*32
$GPRMC,033006.20,A,3522.5731,N,13856.0232,E,28.346517,130.055121,250719,,*0B
$GPGGA,033006.20,3522.5731,N,13856.0232,E,1,00,0.0,619.735107,M,0.0,M,,*6D
$GPGLL,3522.5731,N,13856.0232,E,033006.20,A,*20
$GPGSA,A,3,,,,,,,,,,,,,0.0,0.0,0.0*32
$GPRMC,033006.30,A,3522.5726,N,13856.0239,E,28.027094,134.326909,250719,,*0C
$GPGGA,033006.30,3522.5726,N,13856.0239,E,1,00,0.0,619.579407,M,0.0,M,,*6E
$GPGLL,3522.5726,N,13856.0239,E,033006.30,A,*2C
$GPGSA,A,3,,,,,,,,,,,,,0.0,0.0,0.0*32
$GPRMC,033006.40,A,3522.5720,N,13856.0246,E,28.580843,138.592765,250719,,*0E
$GPGGA,033006.40,3522.5720,N,13856.0246,E,1,00,0.0,619.375427,M,0.0,M,,*6F
$GPGLL,3522.5720,N,13856.0246,E,033006.40,A,*25
$GPGSA,A,3,,,,,,,,,,,,,0.0,0.0,0.0*32
$GPRMC,033006.50,A,3522.5714,N,13856.0252,E,29.150217,141.954349,250719,,*0C
$GPGGA,033006.50,3522.5714,N,13856.0252,E,1,00,0.0,619.211365,M,0.0,M,,*6E
$GPGLL,3522.5714,N,13856.0252,E,033006.50,A,*26
$GPGSA,A,3,,,,,,,,,,,,,0.0,0.0,0.0*32
$GPRMC,033006.60,A,3522.5707,N,13856.0257,E,28.413111,144.612654,250719,,*0F
$GPGGA,033006.60,3522.5707,N,13856.0257,E,1,00,0.0,619.057556,M,0.0,M,,*6C
$GPGLL,3522.5707,N,13856.0257,E,033006.60,A,*22
$GPGSA,A,3,,,,,,,,,,,,,0.0,0.0,0.0*32
$GPRMC,033006.70,A,3522.5700,N,13856.0262,E,29.041066,150.045959,250719,,*0F
$GPGGA,033006.70,3522.5700,N,13856.0262,E,1,00,0.0,618.956421,M,0.0,M,,*64
$GPGLL,3522.5700,N,13856.0262,E,033006.70,A,*22
$GPGSA,A,3,,,,,,,,,,,,,0.0,0.0,0.0*32
$GPRMC,033006.80,A,3522.5693,N,13856.0267,E,29.515349,152.430508,250719,,*08
$GPGGA,033006.80,3522.5693,N,13856.0267,E,1,00,0.0,618.906982,M,0.0,M,,*64
$GPGLL,3522.5693,N,13856.0267,E,033006.80,A,*23
$GPGSA,A,3,,,,,,,,,,,,,0.0,0.0,0.0*32
$GPRMC,033006.90,A,3522.5686,N,13856.0271,E,29.819517,156.907863,250719,,*0B
$GPGGA,033006.90,3522.5686,N,13856.0271,E,1,00,0.0,618.749817,M,0.0,M,,*6E
$GPGLL,3522.5686,N,13856.0271,E,033006.90,A,*21
$GPGSA,A,3,,,,,,,,,,,,,0.0,0.0,0.0*32
$GPRMC,033007.00,A,3522.5678,N,13856.0274,E,30.380525,159.355427,250719,,*0B
$GPGGA,033007.00,3522.5678,N,13856.0274,E,1,00,0.0,618.505737,M,0.0,M,,*65
$GPGLL,3522.5678,N,13856.0274,E,033007.00,A,*2D
$GPGSA,A,3,,,,,,,,,,,,,0.0,0.0,0.0*32
$GPRMC,033007.10,A,3522.5670,N,13856.0277,E,31.079945,162.301411,250719,,*03
$GPGGA,033007.10,3522.5670,N,13856.0277,E,1,00,0.0,618.237976,M,0.0,M,,*62
$GPGLL,3522.5670,N,13856.0277,E,033007.10,A,*27
$GPGSA,A,3,,,,,,,,,,,,,0.0,0.0,0.0*32
$GPRMC,033007.20,A,3522.5662,N,13856.0280,E,31.245689,165.086319,250719,,*0D
$GPGGA,033007.20,3522.5662,N,13856.0280,E,1,00,0.0,617.938904,M,0.0,M,,*64
$GPGLL,3522.5662,N,13856.0280,E,033007.20,A,*2F
$GPGSA,A,3,,,,,,,,,,,,,0.0,0.0,0.0*32
$GPRMC,033007.30,A,3522.5653,N,13856.0282,E,31.817498,168.058576,250719,,*02
$GPGGA,033007.30,3522.5653,N,13856.0282,E,1,00,0.0,617.592041,M,0.0,M,,*61
$GPGLL,3522.5653,N,13856.0282,E,033007.30,A,*2E
$GPGSA,A,3,,,,,,,,,,,,,0.0,0.0,0.0*32
$GPRMC,033007.40,A,3522.5645,N,13856.0284,E,32.388351,170.377605,250719,,*08
$GPGGA,033007.40,3522.5645,N,13856.0284,E,1,00,0.0,617.212891,M,0.0,M,,*6D
$GPGLL,3522.5645,N,13856.0284,E,033007.40,A,*28
$GPGSA,A,3,,,,,,,,,,,,,0.0,0.0,0.0*32
$GPRMC,033007.50,A,3522.5636,N,13856.0286,E,33.140866,172.459666,250719,,*0B
$GPGGA,033007.50,3522.5636,N,13856.0286,E,1,00,0.0,616.878418,M,0.0,M,,*60
$GPGLL,3522.5636,N,13856.0286,E,033007.50,A,*2F
$GPGSA,A,3,,,,,,,,,,,,,0.0,0.0,0.0*32
$GPRMC,033007.60,A,3522.5627,N,13856.0287,E,33.721767,175.054164,250719,,*0D
$GPGGA,033007.60,3522.5627,N,13856.0287,E,1,00,0.0,616.718872,M,0.0,M,,*6B
$GPGLL,3522.5627,N,13856.0287,E,033007.60,A,*2D
$GPGSA,A,3,,,,,,,,,,,,,0.0,0.0,0.0*32
$GPRMC,033007.70,A,3522.5617,N,13856.0287,E,34.214496,175.829669,250719,,*0E
$GPGGA,033007.70,3522.5617,N,13856.0287,E,1,00,0.0,616.369873,M,0.0,M,,*6A
$GPGLL,3522.5617,N,13856.0287,E,033007.70,A,*2F
$GPGSA,A,3,,,,,,,,,,,,,0.0,0.0,0.0*32
$GPRMC,033007.80,A,3522.5608,N,13856.0288,E,34.860833,176.222886,250719,,*07
$GPGGA,033007.80,3522.5608,N,13856.0288,E,1,00,0.0,616.009094,M,0.0,M,,*60
$GPGLL,3522.5608,N,13856.0288,E,033007.80,A,*21
$GPGSA,A,3,,,,,,,,,,,,,0.0,0.0,0.0*32
$GPRMC,033007.90,A,3522.5597,N,13856.0288,E,35.289521,179.104060,250719,,*09
$GPGGA,033007.90,3522.5597,N,13856.0288,E,1,00,0.0,615.699524,M,0.0,M,,*66
$GPGLL,3522.5597,N,13856.0288,E,033007.90,A,*25
$GPGSA,A,3,,,,,,,,,,,,,0.0,0.0,0.0*32
$GPRMC,033008.00,A,3522.5587,N,13856.0289,E,36.165382,179.222646,250719,,*07
$GPGGA,033008.00,3522.5587,N,13856.0289,E,1,00,0.0,615.491028,M,0.0,M,,*63
$GPGLL,3522.5587,N,13856.0289,E,033008.00,A,*23
$GPGSA,A,3,,,,,,,,,,,,,0.0,0.0,0.0*32
$GPRMC,033008.10,A,3522.5577,N,13856.0288,E,36.783231,181.010183,250719,,*05
$GPGGA,033008.10,3522.5577,N,13856.0288,E,1,00,0.0,615.295715,M,0.0,M,,*67
$GPGLL,3522.5577,N,13856.0288,E,033008.10,A,*2C
$GPGSA,A,3,,,,,,,,,,,,,0.0,0.0,0.0*32
$GPRMC,033008.20,A,3522.5566,N,13856.0288,E,37.460475,182.050556,250719,,*04
$GPGGA,033008.20,3522.5566,N,13856.0288,E,1,00,0.0,615.066589,M,0.0,M,,*6D
$GPGLL,3522.5566,N,13856.0288,E,033008.20,A,*2F
$GPGSA,A,3,,,,,,,,,,,,,0.0,0.0,0.0*32
$GPRMC,033008.30,A,3522.5555,N,13856.0287,E,38.117374,183.666854,250719,,*0B
$GPGGA,033008.30,3522.5555,N,13856.0287,E,1,00,0.0,614.811829,M,0.0,M,,*6D
$GPGLL,3522.5555,N,13856.0287,E,033008.30,A,*21
$GPGSA,A,3,,,,,,,,,,,,,0.0,0.0,0.0*32
$GPRMC,033008.40,A,3522.5544,N,13856.0286,E,38.701303,183.817249,250719,,*02
$GPGGA,033008.40,3522.5544,N,13856.0286,E,1,00,0.0,614.589355,M,0.0,M,,*67
$GPGLL,3522.5544,N,13856.0286,E,033008.40,A,*27
$GPGSA,A,3,,,,,,,,,,,,,0.0,0.0,0.0*32
$GPRMC,033008.50,A,3522.5534,N,13856.0285,E,39.464514,184.578190,250719,,*02
$GPGGA,033008.50,3522.5534,N,13856.0285,E,1,00,0.0,614.422913,M,0.0,M,,*6A
$GPGLL,3522.5534,N,13856.0285,E,033008.50,A,*22
$GPGSA,A,3,,,,,,,,,,,,,0.0,0.0,0.0*32
$GPRMC,033008.60,A,3522.5522,N,13856.0284,E,39.950538,185.146317,250719,,*06
$GPGGA,033008.60,3522.5522,N,13856.0284,E,1,00,0.0,614.201477,M,0.0,M,,*67
$GPGLL,3522.5522,N,13856.0284,E,033008.60,A,*27
$GPGSA,A,3,,,,,,,,,,,,,0.0,0.0,0.0*32
$GPRMC,033008.70,A,3522.5511,N,13856.0282,E,40.451635,186.588119,250719,,*04
$GPGGA,033008.70,3522.5511,N,13856.0282,E,1,00,0.0,614.018005,M,0.0,M,,*6B
$GPGLL,3522.5511,N,13856.0282,E,033008.70,A,*20
$GPGSA,A,3,,,,,,,,,,,,,0.0,0.0,0.0*32
$GPRMC,033008.80,A,3522.5500,N,13856.0280,E,41.055379,187.344761,250719,,*0B
$GPGGA,033008.80,3522.5500,N,13856.0280,E,1,00,0.0,613.791382,M,0.0,M,,*6B
$GPGLL,3522.5500,N,13856.0280,E,033008.80,A,*2D
$GPGSA,A,3,,,,,,,,,,,,,0.0,0.0,0.0*32
$GPRMC,033008.90,A,3522.5488,N,13856.0278,E,41.765349,187.944977,250719,,*08
$GPGGA,033008.90,3522.5488,N,13856.0278,E,1,00,0.0,613.615112,M,0.0,M,,*6A
$GPGLL,3522.5488,N,13856.0278,E,033008.90,A,*2A
$GPGSA,A,3,,,,,,,,,,,,,0.0,0.0,0.0*32
$GPRMC,033009.00,A,3522.5477,N,13856.0277,E,42.353653,187.698923,250719,,*0C
$GPGGA,033009.00,3522.5477,N,13856.0277,E,1,00,0.0,613.480164,M,0.0,M,,*62
$GPGLL,3522.5477,N,13856.0277,E,033009.00,A,*2D
$GPGSA,A,3,,,,,,,,,,,,,0.0,0.0,0.0*32
$GPRMC,033009.10,A,3522.5465,N,13856.0275,E,42.898306,187.704847,250719,,*02
$GPGGA,033009.10,3522.5465,N,13856.0275,E,1,00,0.0,613.296021,M,0.0,M,,*63
$GPGLL,3522.5465,N,13856.0275,E,033009.10,A,*2D
$GPGSA,A,3,,,,,,,,,,,,,0.0,0.0,0.0*32
$GPRMC,033009.20,A,3522.5453,N,13856.0273,E,43.641414,187.863172,250719,,*0C
$GPGGA,033009.20,3522.5453,N,13856.0273,E,1,00,0.0,613.080750,M,0.0,M,,*67
$GPGLL,3522.5453,N,13856.0273,E,033009.20,A,*2D
$GPGSA,A,3,,,,,,,,,,,,,0.0,0.0,0.0*32
$GPRMC,033009.30,A,3522.5441,N,13856.0270,E,43.979332,188.335619,250719,,*07
$GPGGA,033009.30,3522.5441,N,13856.0270,E,1,00,0.0,612.883728,M,0.0,M,,*63
$GPGLL,3522.5441,N,13856.0270,E,033009.30,A,*2C
$GPGSA,A,3,,,,,,,,,,,,,0.0,0.0,0.0*32
$GPRMC,033009.40,A,3522.5429,N,13856.0268,E,44.925504,188.536817,250719,,*0F
$GPGGA,033009.40,3522.5429,N,13856.0268,E,1,00,0.0,612.735901,M,0.0,M,,*64
$GPGLL,3522.5429,N,13856.0268,E,033009.40,A,*2C
$GPGSA,A,3,,,,,,,,,,,,,0.0,0.0,0.0*32
$GPRMC,033009.50,A,3522.5416,N,13856.0266,E,45.417744,189.030693,250719,,*07
$GPGGA,033009.50,3522.5416,N,13856.0266,E,1,00,0.0,612.510986,M,0.0,M,,*6D
$GPGLL,3522.5416,N,13856.0266,E,033009.50,A,*2F
$GPGSA,A,3,,,,,,,,,,,,,0.0,0.0,0.0*32
$GPRMC,033009.60,A,3522.5403,N,13856.0263,E,46.147896,189.848672,250719,,*0E
$GPGGA,033009.60,3522.5403,N,13856.0263,E,1,00,0.0,612.325928,M,0.0,M,,*6B
$GPGLL,3522.5403,N,13856.0263,E,033009.60,A,*2D
$GPGSA,A,3,,,,,,,,,,,,,0.0,0.0,0.0*32
$GPRMC,033009.70,A,3522.5390,N,13856.0260,E,46.709588,189.985569,250719,,*06
$GPGGA,033009.70,3522.5390,N,13856.0260,E,1,00,0.0,612.092285,M,0.0,M,,*67
$GPGLL,3522.5390,N,13856.0260,E,033009.70,A,*22
$GPGSA,A,3,,,,,,,,,,,,,0.0,0.0,0.0*32
$GPRMC,033009.80,A,3522.5377,N,13856.0257,E,47.363685,189.739161,250719,,*06
$GPGGA,033009.80,3522.5377,N,13856.0257,E,1,00,0.0,611.858215,M,0.0,M,,*61
$GPGLL,3522.5377,N,13856.0257,E,033009.80,A,*20
$GPGSA,A,3,,,,,,,,,,,,,0.0,0.0,0.0*32
$GPRMC,033009.90,A,3522.5364,N,13856.0254,E,47.908153,190.437813,250719,,*04
$GPGGA,033009.90,3522.5364,N,13856.0254,E,1,00,0.0,611.612854,M,0.0,M,,*6E
$GPGLL,3522.5364,N,13856.0254,E,033009.90,A,*20
$GPGSA,A,3,,,,,,,,,,,,,0.0,0.0,0.0*32
$GPRMC,033010.00,A,3522.5351,N,13856.0251,E,48.451084,190.992328,250719,,*02
$GPGGA,033010.00,3522.5351,N,13856.0251,E,1,00,0.0,611.470398,M,0.0,M,,*61
$GPGLL,3522.5351,N,13856.0251,E,033010.00,A,*22
$GPGSA,A,3,,,,,,,,,,,,,0.0,0.0,0.0*32
$GPRMC,033010.10,A,3522.5337,N,13856.0248,E,49.274111,191.359409,250719,,*0E
$GPGGA,033010.10,3522.5337,N,13856.0248,E,1,00,0.0,611.102722,M,0.0,M,,*6D
$GPGLL,3522.5337,N,13856.0248,E,033010.10,A,*2B
$GPGSA,A,3,,,,,,,,,,,,,0.0,0.0,0.0*32
$GPRMC,033010.20,A,3522.5323,N,13856.0244,E,49.848235,191.196797,250719,,*01
$GPGGA,033010.20,3522.5323,N,13856.0244,E,1,00,0.0,610.868164,M,0.0,M,,*67
$GPGLL,3522.5323,N,13856.0244,E,033010.20,A,*21
$GPGSA,A,3,,,,,,,,,,,,,0.0,0.0,0.0*32
$GPRMC,033010.30,A,3522.5309,N,13856.0241,E,50.336698,191.843113,250719,,*0F
$GPGGA,033010.30,3522.5309,N,13856.0241,E,1,00,0.0,610.677368,M,0.0,M,,*65
$GPGLL,3522.5309,N,13856.0241,E,033010.30,A,*2D
$GPGSA,A,3,,,,,,,,,,,,,0.0,0.0,0.0*32
$GPRMC,033010.40,A,3522.5295,N,13856.0237,E,51.077095,191.948220,250719,,*08
$GPGGA,033010.40,3522.5295,N,13856.0237,E,1,00,0.0,610.550232,M,0.0,M,,*6F
$GPGLL,3522.5295,N,13856.0237,E,033010.40,A,*2F
$GPGSA,A,3,,,,,,,,,,,,,0.0,0.0,0.0*32
$GPRMC,033010.50,A,3522.5281,N,13856.0234,E,51.729833,192.463830,250719,,*0B
$GPGGA,033010.50,3522.5281,N,13856.0234,E,1,00,0.0,610.390198,M,0.0,M,,*61
$GPGLL,3522.5281,N,13856.0234,E,033010.50,A,*28
$GPGSA,A,3,,,,,,,,,,,,,0.0,0.0,0.0*32
$GPRMC,033010.60,A,3522.5267,N,13856.0230,E,52.106482,192.959639,250719,,*09
$GPGGA,033010.60,3522.5267,N,13856.0230,E,1,00,0.0,610.124146,M,0.0,M,,*60
$GPGLL,3522.5267,N,13856.0230,E,033010.60,A,*27
$GPGSA,A,3,,,,,,,,,,,,,0.0,0.0,0.0*32
$GPRMC,033010.70,A,3522.5253,N,13856.0225,E,52.905167,193.254574,250719,,*03
$GPGGA,033010.70,3522.5253,N,13856.0225,E,1,00,0.0,609.988525,M,0.0,M,,*65
$GPGLL,3522.5253,N,13856.0225,E,033010.70,A,*25
$GPGSA,A,3,,,,,,,,,,,,,0.0,0.0,0.0*32
$GPRMC,033010.80,A,3522.5238,N,13856.0221,E,53.432102,193.593769,250719,,*0C
$GPGGA,033010.80,3522.5238,N,13856.0221,E,1,00,0.0,609.808289,M,0.0,M,,*6B
$GPGLL,3522.5238,N,13856.0221,E,033010.80,A,*23
$GPGSA,A,3,,,,,,,,,,,,,0.0,0.0,0.0*32
$GPRMC,033010.90,A,3522.5224,N,13856.0217,E,53.986778,194.091485,250719,,*0D
$GPGGA,033010.90,3522.5224,N,13856.0217,E,1,00,0.0,609.613525,M,0.0,M,,*67
$GPGLL,3522.5224,N,13856.0217,E,033010.90,A,*2A
$GPGSA,A,3,,,,,,,,,,,,,0.0,0.0,0.0*32
$GPRMC,033011.00,A,3522.5209,N,13856.0212,E,54.618938,193.611825,250719,,*05
$GPGGA,033011.00,3522.5209,N,13856.0212,E,1,00,0.0,609.371643,M,0.0,M,,*67
$GPGLL,3522.5209,N,13856.0212,E,033011.00,A,*28
$GPGSA,A,3,,,,,,,,,,,,,0.0,0.0,0.0*32
$GPRMC,033011.10,A,3522.5194,N,13856.0208,E,54.983951,194.353453,250719,,*03
$GPGGA,033011.10,3522.5194,N,13856.0208,E,1,00,0.0,609.175781,M,0.0,M,,*63
$GPGLL,3522.5194,N,13856.0208,E,033011.10,A,*25
$GPGSA,A,3,,,,,,,,,,,,,0.0,0.0,0.0*32
$GPRMC,033011.20,A,3522.5179,N,13856.0203,E,55.638974,194.591686,250719,,*03
$GPGGA,033011.20,3522.5179,N,13856.0203,E,1,00,0.0,608.996765,M,0.0,M,,*66
$GPGLL,3522.5179,N,13856.0203,E,033011.20,A,*2E
$GPGSA,A,3,,,,,,,,,,,,,0.0,0.0,0.0*32
$GPRMC,033011.30,A,3522.5164,N,13856.0198,E,56.061817,194.783747,250719,,*0F
$GPGGA,033011.30,3522.5164,N,13856.0198,E,1,00,0.0,608.802551,M,0.0,M,,*63
$GPGLL,3522.5164,N,13856.0198,E,033011.30,A,*22
$GPGSA,A,3,,,,,,,,,,,,,0.0,0.0,0.0*32
$GPRMC,033011.40,A,3522.5149,N,13856.0193,E,56.708886,195.235075,250719,,*03
$GPGGA,033011.40,3522.5149,N,13856.0193,E,1,00,0.0,608.574463,M,0.0,M,,*6C
$GPGLL,3522.5149,N,13856.0193,E,033011.40,A,*21
$GPGSA,A,3,,,,,,,,,,,,,0.0,0.0,0.0*32
$GPRMC,033011.50,A,3522.5134,N,13856.0188,E,57.151502,195.726453,250719,,*0F
$GPGGA,033011.50,3522.5134,N,13856.0188,E,1,00,0.0,608.367859,M,0.0,M,,*6C
$GPGLL,3522.5134,N,13856.0188,E,033011.50,A,*20
$GPGSA,A,3,,,,,,,,,,,,,0.0,0.0,0.0*32
$GPRMC,033011.60,A,3522.5118,N,13856.0182,E,57.503686,196.042244,250719,,*02
$GPGGA,033011.60,3522.5118,N,13856.0182,E,1,00,0.0,608.172852,M,0.0,M,,*66
$GPGLL,3522.5118,N,13856.0182,E,033011.60,A,*27
$GPGSA,A,3,,,,,,,,,,,,,0.0,0.0,0.0*32
$GPRMC,033011.70,A,3522.5102,N,13856.0177,E,58.018864,196.040770,250719,,*00
$GPGGA,033011.70,3522.5102,N,13856.0177,E,1,00,0.0,607.888916,M,0.0,M,,*64
$GPGLL,3522.5102,N,13856.0177,E,033011.70,A,*27
$GPGSA,A,3,,,,,,,,,,,,,0.0,0.0,0.0*32
$GPRMC,033011.80,A,3522.5087,N,13856.0171,E,58.272553,196.612812,250719,,*08
$GPGGA,033011.80,3522.5087,N,13856.0171,E,1,00,0.0,607.626770,M,0.0,M,,*65
$GPGLL,3522.5087,N,13856.0171,E,033011.80,A,*22
$GPGSA,A,3,,,,,,,,,,,,,0.0,0.0,0.0*32
$GPRMC,033011.90,A,3522.5071,N,13856.0165,E,58.661434,196.924202,250719,,*02
$GPGGA,033011.90,3522.5071,N,13856.0165,E,1,00,0.0,607.245056,M,0.0,M,,*6A
$GPGLL,3522.5071,N,13856.0165,E,033011.90,A,*2F
$GPGSA,A,3,,,,,,,,,,,,,0.0,0.0,0.0*32
$GPRMC,033012.00,A,3522.5055,N,13856.0159,E,59.310332,198.081160,250719,,*0D
$GPGGA,033012.00,3522.5055,N,13856.0159,E,1,00,0.0,606.979065,M,0.0,M,,*6C
$GPGLL,3522.5055,N,13856.0159,E,033012.00,A,*2C
$GPGSA,A,3,,,,,,,,,,,,,0.0,0.0,0.0*32
$GPRMC,033012.10,A,3522.5039,N,13856.0152,E,59.308775,198.945818,250719,,*04
$GPGGA,033012.10,3522.5039,N,13856.0152,E,1,00,0.0,606.739685,M,0.0,M,,*6E
$GPGLL,3522.5039,N,13856.0152,E,033012.10,A,*2C
$GPGSA,A,3,,,,,,,,,,,,,0.0,0.0,0.0*32
$GPRMC,033012.20,A,3522.5023,N,13856.0145,E,59.925100,199.595101,250719,,*0A
$GPGGA,033012.20,3522.5023,N,13856.0145,E,1,00,0.0,606.547607,M,0.0,M,,*61
$GPGLL,3522.5023,N,13856.0145,E,033012.20,A,*22
$GPGSA,A,3,,,,,,,,,,,,,0.0,0.0,0.0*32
$GPRMC,033012.30,A,3522.5007,N,13856.0137,E,60.345133,201.071155,250719,,*02
$GPGGA,033012.30,3522.5007,N,13856.0137,E,1,00,0.0,606.323364,M,0.0,M,,*67
$GPGLL,3522.5007,N,13856.0137,E,033012.30,A,*20
$GPGSA,A,3,,,,,,,,,,,,,0.0,0.0,0.0*32
$GPRMC,033012.40,A,3522.4991,N,13856.0129,E,60.863136,202.146141,250719,,*04
$GPGGA,033012.40,3522.4991,N,13856.0129,E,1,00,0.0,606.056580,M,0.0,M,,*65
$GPGLL,3522.4991,N,13856.0129,E,033012.40,A,*2F
$GPGSA,A,3,,,,,,,,,,,,,0.0,0.0,0.0*32
$GPRMC,033012.50,A,3522.4974,N,13856.0121,E,61.018447,203.012265,250719,,*04
$GPGGA,033012.50,3522.4974,N,13856.0121,E,1,00,0.0,605.765747,M,0.0,M,,*6A
$GPGLL,3522.4974,N,13856.0121,E,033012.50,A,*2D
$GPGSA,A,3,,,,,,,,,,,,,0.0,0.0,0.0*32
$GPRMC,033012.60,A,3522.4958,N,13856.0112,E,61.909159,202.686691,250719,,*0F
$GPGGA,033012.60,3522.4958,N,13856.0112,E,1,00,0.0,605.022766,M,0.0,M,,*60
$GPGLL,3522.4958,N,13856.0112,E,033012.60,A,*20
$GPGSA,A,3,,,,,,,,,,,,,0.0,0.0,0.0*32
$GPRMC,033012.70,A,3522.4942,N,13856.0103,E,62.193366,204.193164,250719,,*0B
$GPGGA,033012.70,3522.4942,N,13856.0103,E,1,00,0.0,604.710938,M,0.0,M,,*68
$GPGLL,3522.4942,N,13856.0103,E,033012.70,A,*2A
$GPGSA,A,3,,,,,,,,,,,,,0.0,0.0,0.0*32
$GPRMC,033012.80,A,3522.4925,N,13856.0094,E,62.860118,204.372931,250719,,*01
$GPGGA,033012.80,3522.4925,N,13856.0094,E,1,00,0.0,603.930847,M,0.0,M,,*6B
$GPGLL,3522.4925,N,13856.0094,E,033012.80,A,*2B
$GPGSA,A,3,,,,,,,,,,,,,0.0,0.0,0.0*32
$GPRMC,033012.90,A,3522.4908,N,13856.0084,E,63.750310,205.215812,250719,,*08
$GPGGA,033012.90,3522.4908,N,13856.0084,E,1,00,0.0,603.128967,M,0.0,M,,*66
$GPGLL,3522.4908,N,13856.0084,E,033012.90,A,*24
$GPGSA,A,3,,,,,,,,,,,,,0.0,0.0,0.0*32
$GPRMC,033013.00,A,3522.4892,N,13856.0074,E,63.836466,206.205913,250719,,*06
$GPGGA,033013.00,3522.4892,N,13856.0074,E,1,00,0.0,602.273621,M,0.0,M,,*62
$GPGLL,3522.4892,N,13856.0074,E,033013.00,A,*21
$GPGSA,A,3,,,,,,,,,,,,,0.0,0.0,0.0*32
$GPRMC,033013.10,A,3522.4875,N,13856.0063,E,64.249158,208.584518,250719,,*02
$GPGGA,033013.10,3522.4875,N,13856.0063,E,1,00,0.0,601.535645,M,0.0,M,,*68
$GPGLL,3522.4875,N,13856.0063,E,033013.10,A,*2F
$GPGSA,A,3,,,,,,,,,,,,,0.0,0.0,0.0*32
$GPRMC,033013.20,A,3522.4860,N,13856.0052,E,64.455465,212.001133,250719,,*09
$GPGGA,033013.20,3522.4860,N,13856.0052,E,1,00,0.0,601.098083,M,0.0,M,,*63
$GPGLL,3522.4860,N,13856.0052,E,033013.20,A,*2A
$GPGSA,A,3,,,,,,,,,,,,,0.0,0.0,0.0*32
$GPRMC,033013.30,A,3522.4846,N,13856.0040,E,64.682316,213.306684,250719,,*0A
$GPGGA,033013.30,3522.4846,N,13856.0040,E,1,00,0.0,600.674622,M,0.0,M,,*6D
$GPGLL,3522.4846,N,13856.0040,E,033013.30,A,*2C
$GPGSA,A,3,,,,,,,,,,,,,0.0,0.0,0.0*32
$GPRMC,033013.40,A,3522.4831,N,13856.0028,E,64.779360,214.577797,250719,,*03
$GPGGA,033013.40,3522.4831,N,13856.0028,E,1,00,0.0,600.276611,M,0.0,M,,*62
$GPGLL,3522.4831,N,13856.0028,E,033013.40,A,*25
$GPGSA,A,3,,,,,,,,,,,,,0.0,0.0,0.0*32
$GPRMC,033013.50,A,3522.4817,N,13856.0015,E,65.366094,215.810846,250719,,*05
$GPGGA,033013.50,3522.4817,N,13856.0015,E,1,00,0.0,599.910400,M,0.0,M,,*63
$GPGLL,3522.4817,N,13856.0015,E,033013.50,A,*2E
$GPGSA,A,3,,,,,,,,,,,,,0.0,0.0,0.0*32
$GPRMC,033013.60,A,3522.4802,N,13856.0002,E,65.563227,216.873468,250719,,*0B
$GPGGA,033013.60,3522.4802,N,13856.0002,E,1,00,0.0,599.553589,M,0.0,M,,*69
$GPGLL,3522.4802,N,13856.0002,E,033013.60,A,*2F
$GPGSA,A,3,,,,,,,,,,,,,0.0,0.0,0.0*32
$GPRMC,033013.70,A,3522.4788,N,13855.9988,E,65.858965,217.920976,250719,,*0A
$GPGGA,033013.70,3522.4788,N,13855.9988,E,1,00,0.0,599.153259,M,0.0,M,,*6A
$GPGLL,3522.4788,N,13855.9988,E,033013.70,A,*22
$GPGSA,A,3,,,,,,,,,,,,,0.0,0.0,0.0*32
$GPRMC,033013.80,A,3522.4774,N,13855.9975,E,66.013728,216.803637,250719,,*0C
$GPGGA,033013.80,3522.4774,N,13855.9975,E,1,00,0.0,598.846252,M,0.0,M,,*63
$GPGLL,3522.4774,N,13855.9975,E,033013.80,A,*2C
$GPGSA,A,3,,,,,,,,,,,,,0.0,0.0,0.0*32
$GPRMC,033013.90,A,3522.4759,N,13855.9962,E,66.652063,217.486370,250719,,*09
$GPGGA,033013.90,3522.4759,N,13855.9962,E,1,00,0.0,598.524841,M,0.0,M,,*6A
$GPGLL,3522.4759,N,13855.9962,E,033013.90,A,*24
$GPGSA,A,3,,,,,,,,,,,,,0.0,0.0,0.0*32
$GPRMC,033014.00,A,3522.4745,N,13855.9948,E,66.856063,217.163855,250719,,*0A
$GPGGA,033014.00,3522.4745,N,13855.9948,E,1,00,0.0,598.237061,M,0.0,M,,*6E
$GPGLL,3522.4745,N,13855.9948,E,033014.00,A,*2F
$GPGSA,A,3,,,,,,,,,,,,,0.0,0.0,0.0*32
$GPRMC,033014.10,A,3522.4730,N,13855.9934,E,67.084212,217.458288,250719,,*07
$GPGGA,033014.10,3522.4730,N,13855.9934,E,1,00,0.0,597.979736,M,0.0,M,,*6D
$GPGLL,3522.4730,N,13855.9934,E,033014.10,A,*27
$GPGSA,A,3,,,,,,,,,,,,,0.0,0.0,0.0*32
$GPRMC,033014.20,A,3522.4715,N,13855.9920,E,67.366491,217.787193,250719,,*0C
$GPGGA,033014.20,3522.4715,N,13855.9920,E,1,00,0.0,597.630798,M,0.0,M,,*6A
$GPGLL,3522.4715,N,13855.9920,E,033014.20,A,*26
$GPGSA,A,3,,,,,,,,,,,,,0.0,0.0,0.0*32
$GPRMC,033014.30,A,3522.4701,N,13855.9906,E,67.736442,218.813100,250719,,*04
$GPGGA,033014.30,3522.4701,N,13855.9906,E,1,00,0.0,597.432190,M,0.0,M,,*64
$GPGLL,3522.4701,N,13855.9906,E,033014.30,A,*26
$GPGSA,A,3,,,,,,,,,,,,,0.0,0.0,0.0*32
$GPRMC,033014.40,A,3522.4686,N,13855.9891,E,67.994322,218.821409,250719,,*08
$GPGGA,033014.40,3522.4686,N,13855.9891,E,1,00,0.0,597.237976,M,0.0,M,,*61
$GPGLL,3522.4686,N,13855.9891,E,033014.40,A,*20
$GPGSA,A,3,,,,,,,,,,,,,0.0,0.0,0.0*32
$GPRMC,033014.50,A,3522.4671,N,13855.9877,E,68.263365,218.937059,250719,,*01
$GPGGA,033014.50,3522.4671,N,13855.9877,E,1,00,0.0,597.064087,M,0.0,M,,*63
$GPGLL,3522.4671,N,13855.9877,E,033014.50,A,*21
$GPGSA,A,3,,,,,,,,,,,,,0.0,0.0,0.0*32
$GPRMC,033014.60,A,3522.4657,N,13855.9862,E,68.826103,219.302063,250719,,*0F
$GPGGA,033014.60,3522.4657,N,13855.9862,E,1,00,0.0,596.826294,M,0.0,M,,*6F
$GPGLL,3522.4657,N,13855.9862,E,033014.60,A,*22
$GPGSA,A,3,,,,,,,,,,,,,0.0,0.0,0.0*32
$GPRMC,033014.70,A,3522.4642,N,13855.9847,E,68.760577,220.582783,250719,,*0A
$GPGGA,033014.70,3522.4642,N,13855.9847,E,1,00,0.0,596.642700,M,0.0,M,,*69
$GPGLL,3522.4642,N,13855.9847,E,033014.70,A,*20
$GPGSA,A,3,,,,,,,,,,,,,0.0,0.0,0.0*32
$GPRMC,033014.80,A,3522.4628,N,13855.9832,E,69.123295,220.286882,250719,,*0D
$GPGGA,033014.80,3522.4628,N,13855.9832,E,1,00,0.0,596.430847,M,0.0,M,,*63
$GPGLL,3522.4628,N,13855.9832,E,033014.80,A,*21
$GPGSA,A,3,,,,,,,,,,,,,0.0,0.0,0.0*32
$GPRMC,033014.90,A,3522.4613,N,13855.9817,E,69.586801,219.836816,250719,,*09
$GPGGA,033014.90,3522.4613,N,13855.9817,E,1,00,0.0,596.282715,M,0.0,M,,*6A
$GPGLL,3522.4613,N,13855.9817,E,033014.90,A,*2F
$GPGSA,A,3,,,,,,,,,,,,,0.0,0.0,0.0*32
$GPRMC,033015.00,A,3522.4599,N,13855.9802,E,69.746071,219.059862,250719,,*07
$GPGGA,033015.00,3522.4599,N,13855.9802,E,1,00,0.0,596.052490,M,0.0,M,,*66
$GPGLL,3522.4599,N,13855.9802,E,033015.00,A,*22
$GPGSA,A,3,,,,,,,,,,,,,0.0,0.0,0.0*32
$GPRMC,033015.10,A,3522.4583,N,13855.9787,E,69.950994,218.816858,250719,,*0F
$GPGGA,033015.10,3522.4583,N,13855.9787,E,1,00,0.0,595.812927,M,0.0,M,,*60
$GPGLL,3522.4583,N,13855.9787,E,033015.10,A,*2A
$GPGSA,A,3,,,,,,,,,,,,,0.0,0.0,0.0*32
$GPRMC,033015.20,A,3522.4569,N,13855.9772,E,70.534527,219.655326,250719,,*0A
$GPGGA,033015.20,3522.4569,N,13855.9772,E,1,00,0.0,595.672302,M,0.0,M,,*68
$GPGLL,3522.4569,N,13855.9772,E,033015.20,A,*27
$GPGSA,A,3,,,,,,,,,,,,,0.0,0.0,0.0*32
$GPRMC,033015.30,A,3522.4553,N,13855.9757,E,70.743997,219.375354,250719,,*02
$GPGGA,033015.30,3522.4553,N,13855.9757,E,1,00,0.0,595.498535,M,0.0,M,,*63
$GPGLL,3522.4553,N,13855.9757,E,033015.30,A,*28
$GPGSA,A,3,,,,,,,,,,,,,0.0,0.0,0.0*32
$GPRMC,033015.40,A,3522.4538,N,13855.9742,E,70.997811,219.332145,250719,,*05
$GPGGA,033015.40,3522.4538,N,13855.9742,E,1,00,0.0,595.345947,M,0.0,M,,*63
$GPGLL,3522.4538,N,13855.9742,E,033015.40,A,*26
$GPGSA,A,3,,,,,,,,,,,,,0.0,0.0,0.0*32
$GPRMC,033015.50,A,3522.4523,N,13855.9727,E,71.374139,219.177971,250719,,*04
$GPGGA,033015.50,3522.4523,N,13855.9727,E,1,00,0.0,595.296509,M,0.0,M,,*62
$GPGLL,3522.4523,N,13855.9727,E,033015.50,A,*2E
$GPGSA,A,3,,,,,,,,,,,,,0.0,0.0,0.0*32
$GPRMC,033015.60,A,3522.4508,N,13855.9711,E,71.667649,218.727670,250719,,*00
$GPGGA,033015.60,3522.4508,N,13855.9711,E,1,00,0.0,595.126831,M,0.0,M,,*63
$GPGLL,3522.4508,N,13855.9711,E,033015.60,A,*21
$GPGSA,A,3,,,,,,,,,,,,,0.0,0.0,0.0*32
$GPRMC,033015.70,A,3522.4493,N,13855.9696,E,71.694574,219.530579,250719,,*02
$GPGGA,033015.70,3522.4493,N,13855.9696,E,1,00,0.0,595.041382,M,0.0,M,,*6C
$GPGLL,3522.4493,N,13855.9696,E,033015.70,A,*2D
$GPGSA,A,3,,,,,,,,,,,,,0.0,0.0,0.0*32
$GPRMC,033015.80,A,3522.4477,N,13855.9681,E,72.248982,219.787916,250719,,*09
$GPGGA,033015.80,3522.4477,N,13855.9681,E,1,00,0.0,594.998474,M,0.0,M,,*6D
$GPGLL,3522.4477,N,13855.9681,E,033015.80,A,*2E
$GPGSA,A,3,,,,,,,,,,,,,0.0,0.0,0.0*32
$GPRMC,033015.90,A,3522.4462,N,13855.9665,E,72.397170,219.600865,250719,,*0B
$GPGGA,033015.90,3522.4462,N,13855.9665,E,1,00,0.0,594.915466,M,0.0,M,,*64
$GPGLL,3522.4462,N,13855.9665,E,033015.90,A,*21
$GPGSA,A,3,,,,,,,,,,,,,0.0,0.0,0.0*32
$GPRMC,033016.00,A,3522.4447,N,13855.9649,E,72.925189,219.526838,250719,,*02
$GPGGA,033016.00,3522.4447,N,13855.9649,E,1,00,0.0,594.818970,M,0.0,M,,*61
$GPGLL,3522.4447,N,13855.9649,E,033016.00,A,*22
$GPGSA,A,3,,,,,,,,,,,,,0.0,0.0,0.0*32
$GPRMC,033016.10,A,3522.4431,N,13855.9634,E,72.957791,220.216976,250719,,*07
$GPGGA,033016.10,3522.4431,N,13855.9634,E,1,00,0.0,594.782654,M,0.0,M,,*6E
$GPGLL,3522.4431,N,13855.9634,E,033016.10,A,*28
$GPGSA,A,3,,,,,,,,,,,,,0.0,0.0,0.0*32
$GPRMC,033016.20,A,3522.4416,N,13855.9618,E,72.937308,220.431829,250719,,*05
$GPGGA,033016.20,3522.4416,N,13855.9618,E,1,00,0.0,594.796997,M,0.0,M,,*63
$GPGLL,3522.4416,N,13855.9618,E,033016.20,A,*20
$GPGSA,A,3,,,,,,,,,,,,,0.0,0.0,0.0*32
$GPRMC,033016.30,A,3522.4401,N,13855.9602,E,73.655823,219.941117,250719,,*05
$GPGGA,033016.30,3522.4401,N,13855.9602,E,1,00,0.0,594.719666,M,0.0,M,,*69
$GPGLL,3522.4401,N,13855.9602,E,033016.30,A,*2C
$GPGSA,A,3,,,,,,,,,,,,,0.0,0.0,0.0*32
$GPRMC,033016.40,A,3522.4386,N,13855.9586,E,73.634096,221.161109,250719,,*0A
$GPGGA,033016.40,3522.4386,N,13855.9586,E,1,00,0.0,594.871643,M,0.0,M,,*6F
$GPGLL,3522.4386,N,13855.9586,E,033016.40,A,*2C
$GPGSA,A,3,,,,,,,,,,,,,0.0,0.0,0.0*32
$GPRMC,033016.50,A,3522.4371,N,13855.9570,E,73.362495,220.425985,250719,,*03
$GPGGA,033016.50,3522.4371,N,13855.9570,E,1,00,0.0,594.753967,M,0.0,M,,*69
$GPGLL,3522.4371,N,13855.9570,E,033016.50,A,*2C
$GPGSA,A,3,,,,,,,,,,,,,0.0,0.0,0.0*32
$GPRMC,033016.60,A,3522.4355,N,13855.9554,E,74.779782,220.511913,250719,,*05
$GPGGA,033016.60,3522.4355,N,13855.9554,E,1,00,0.0,594.652588,M,0.0,M,,*67
$GPGLL,3522.4355,N,13855.9554,E,033016.60,A,*2F
$GPGSA,A,3,,,,,,,,,,,,,0.0,0.0,0.0*32
$GPRMC,033016.70,A,3522.4339,N,13855.9537,E,74.914022,220.352497,250719,,*03
$GPGGA,033016.70,3522.4339,N,13855.9537,E,1,00,0.0,594.554504,M,0.0,M,,*68
$GPGLL,3522.4339,N,13855.9537,E,033016.70,A,*21
$GPGSA,A,3,,,,,,,,,,,,,0.0,0.0,0.0*32
$GPRMC,033016.80,A,3522.4323,N,13855.9521,E,74.938459,220.108453,250719,,*03
$GPGGA,033016.80,3522.4323,N,13855.9521,E,1,00,0.0,594.560303,M,0.0,M,,*6D
$GPGLL,3522.4323,N,13855.9521,E,033016.80,A,*22
$GPGSA,A,3,,,,,,,,,,,,,0.0,0.0,0.0*32
$GPRMC,033016.90,A,3522.4308,N,13855.9505,E,75.109123,220.169234,250719,,*0E
$GPGGA,033016.90,3522.4308,N,13855.9505,E,1,00,0.0,594.586182,M,0.0,M,,*60
$GPGLL,3522.4308,N,13855.9505,E,033016.90,A,*2C
$GPGSA,A,3,,,,,,,,,,,,,0.0,0.0,0.0*32
$GPRMC,033017.00,A,3522.4292,N,13855.9488,E,75.573108,220.221476,250719,,*0F
$GPGGA,033017.00,3522.4292,N,13855.9488,E,1,00,0.0,594.504150,M,0.0,M,,*6B
$GPGLL,3522.4292,N,13855.9488,E,033017.00,A,*22
$GPGSA,A,3,,,,,,,,,,,,,0.0,0.0,0.0*32
$GPRMC,033017.10,A,3522.4276,N,13855.9472,E,75.434658,220.080670,250719,,*0C
$GPGGA,033017.10,3522.4276,N,13855.9472,E,1,00,0.0,594.497742,M,0.0,M,,*6B
$GPGLL,3522.4276,N,13855.9472,E,033017.10,A,*2C
$GPGSA,A,3,,,,,,,,,,,,,0.0,0.0,0.0*32
$GPRMC,033017.20,A,3522.4260,N,13855.9455,E,76.079523,219.863681,250719,,*0D
$GPGGA,033017.20,3522.4260,N,13855.9455,E,1,00,0.0,594.497925,M,0.0,M,,*65
$GPGLL,3522.4260,N,13855.9455,E,033017.20,A,*2D
$GPGSA,A,3,,,,,,,,,,,,,0.0,0.0,0.0*32
$GPRMC,033017.30,A,3522.4244,N,13855.9439,E,76.003888,219.248621,250719,,*08
$GPGGA,033017.30,3522.4244,N,13855.9439,E,1,00,0.0,594.475342,M,0.0,M,,*6F
$GPGLL,3522.4244,N,13855.9439,E,033017.30,A,*20
$GPGSA,A,3,,,,,,,,,,,,,0.0,0.0,0.0*32
$GPRMC,033017.40,A,3522.4227,N,13855.9423,E,76.369951,219.142419,250719,,*0B
$GPGGA,033017.40,3522.4227,N,13855.9423,E,1,00,0.0,594.474731,M,0.0,M,,*67
$GPGLL,3522.4227,N,13855.9423,E,033017.40,A,*29
$GPGSA,A,3,,,,,,,,,,,,,0.0,0.0,0.0*32
$GPRMC,033017.50,A,3522.4211,N,13855.9406,E,76.548756,219.258061,250719,,*07
$GPGGA,033017.50,3522.4211,N,13855.9406,E,1,00,0.0,594.427490,M,0.0,M,,*6A
$GPGLL,3522.4211,N,13855.9406,E,033017.50,A,*2A
$GPGSA,A,3,,,,,,,,,,,,,0.0,0.0,0.0*32
$GPRMC,033017.60,A,3522.4195,N,13855.9390,E,77.074788,219.471735,250719,,*00
$GPGGA,033017.60,3522.4195,N,13855.9390,E,1,00,0.0,594.356445,M,0.0,M,,*67
$GPGLL,3522.4195,N,13855.9390,E,033017.60,A,*2E
$GPGSA,A,3,,,,,,,,,,,,,0.0,0.0,0.0*32
$GPRMC,033017.70,A,3522.4178,N,13855.9373,E,76.928339,219.383526,250719,,*0A
$GPGGA,033017.70,3522.4178,N,13855.9373,E,1,00,0.0,594.323914,M,0.0,M,,*63
$GPGLL,3522.4178,N,13855.9373,E,033017.70,A,*21
$GPGSA,A,3,,,,,,,,,,,,,0.0,0.0,0.0*32
$GPRMC,033017.80,A,3522.4162,N,13855.9357,E,77.274092,219.228535,250719,,*0B
$GPGGA,033017.80,3522.4162,N,13855.9357,E,1,00,0.0,594.283142,M,0.0,M,,*61
$GPGLL,3522.4162,N,13855.9357,E,033017.80,A,*23
$GPGSA,A,3,,,,,,,,,,,,,0.0,0.0,0.0*32
$GPRMC,033017.90,A,3522.4145,N,13855.9340,E,77.672633,219.609809,250719,,*03
$GPGGA,033017.90,3522.4145,N,13855.9340,E,1,00,0.0,594.286011,M,0.0,M,,*61
$GPGLL,3522.4145,N,13855.9340,E,033017.90,A,*21
$GPGSA,A,3,,,,,,,,,,,,,0.0,0.0,0.0*32
$GPRMC,033018.00,A,3522.4129,N,13855.9324,E,77.765735,219.130918,250719,,*01
$GPGGA,033018.00,3522.4129,N,13855.9324,E,1,00,0.0,594.274414,M,0.0,M,,*63
$GPGLL,3522.4129,N,13855.9324,E,033018.00,A,*2F
$GPGSA,A,3,,,,,,,,,,,,,0.0,0.0,0.0*32
$GPRMC,033018.10,A,3522.4112,N,13855.9307,E,78.156646,218.977438,250719,,*00
$GPGGA,033018.10,3522.4112,N,13855.9307,E,1,00,0.0,594.261658,M,0.0,M,,*65
$GPGLL,3522.4112,N,13855.9307,E,033018.10,A,*27
$GPGSA,A,3,,,,,,,,,,,,,0.0,0.0,0.0*32
$GPRMC,033018.20,A,3522.4095,N,13855.9290,E,78.272480,219.016592,250719,,*01
$GPGGA,033018.20,3522.4095,N,13855.9290,E,1,00,0.0,594.296814,M,0.0,M,,*69
$GPGLL,3522.4095,N,13855.9290,E,033018.20,A,*25
$GPGSA,A,3,,,,,,,,,,,,,0.0,0.0,0.0*32
$GPRMC,033018.30,A,3522.4078,N,13855.9274,E,78.523829,218.455789,250719,,*0F
$GPGGA,033018.30,3522.4078,N,13855.9274,E,1,00,0.0,594.260254,M,0.0,M,,*66
$GPGLL,3522.4078,N,13855.9274,E,033018.30,A,*2D
$GPGSA,A,3,,,,,,,,,,,,,0.0,0.0,0.0*32
$GPRMC,033018.40,A,3522.4062,N,13855.9257,E,78.727805,218.814341,250719,,*03
$GPGGA,033018.40,3522.4062,N,13855.9257,E,1,00,0.0,594.337402,M,0.0,M,,*6D
$GPGLL,3522.4062,N,13855.9257,E,033018.40,A,*20
$GPGSA,A,3,,,,,,,,,,,,,0.0,0.0,0.0*32
$GPRMC,033018.50,A,3522.4045,N,13855.9241,E,78.842105,218.581305,250719,,*04
$GPGGA,033018.50,3522.4045,N,13855.9241,E,1,00,0.0,594.352478,M,0.0,M,,*60
$GPGLL,3522.4045,N,13855.9241,E,033018.50,A,*23
$GPGSA,A,3,,,,,,,,,,,,,0.0,0.0,0.0*32
$GPRMC,033018.60,A,3522.4028,N,13855.9225,E,79.179059,218.068054,250719,,*03
$GPGGA,033018.60,3522.4028,N,13855.9225,E,1,00,0.0,594.389099,M,0.0,M,,*67
$GPGLL,3522.4028,N,13855.9225,E,033018.60,A,*29
$GPGSA,A,3,,,,,,,,,,,,,0.0,0.0,0.0*32
$GPRMC,033018.70,A,3522.4011,N,13855.9208,E,79.424131,218.387672,250719,,*05
$GPGGA,033018.70,3522.4011,N,13855.9208,E,1,00,0.0,594.421326,M,0.0,M,,*61
$GPGLL,3522.4011,N,13855.9208,E,033018.70,A,*2D
$GPGSA,A,3,,,,,,,,,,,,,0.0,0.0,0.0*32
$GPRMC,033018.80,A,3522.3994,N,13855.9191,E,79.623962,218.476471,250719,,*09
$GPGGA,033018.80,3522.3994,N,13855.9191,E,1,00,0.0,594.483276,M,0.0,M,,*62
$GPGLL,3522.3994,N,13855.9191,E,033018.80,A,*22
$GPGSA,A,3,,,,,,,,,,,,,0.0,0.0,0.0*32
$GPRMC,033018.90,A,3522.3976,N,13855.9174,E,79.752170,218.518825,250719,,*07
$GPGGA,033018.90,3522.3976,N,13855.9174,E,1,00,0.0,594.501648,M,0.0,M,,*66
$GPGLL,3522.3976,N,13855.9174,E,033018.90,A,*24
$GPGSA,A,3,,,,,,,,,,,,,0.0,0.0,0.0*32
$GPRMC,033019.00,A,3522.3959,N,13855.9158,E,79.614281,218.569117,250719,,*0C
$GPGGA,033019.00,3522.3959,N,13855.9158,E,1,00,0.0,594.511108,M,0.0,M,,*6F
$GPGLL,3522.3959,N,13855.9158,E,033019.00,A,*2F
$GPGSA,A,3,,,,,,,,,,,,,0.0,0.0,0.0*32
$GPRMC,033019.10,A,3522.3942,N,13855.9141,E,79.150461,218.388041,250719,,*0B
$GPGGA,033019.10,3522.3942,N,13855.9141,E,1,00,0.0,594.551453,M,0.0,M,,*63
$GPGLL,3522.3942,N,13855.9141,E,033019.10,A,*2C
$GPGSA,A,3,,,,,,,,,,,,,0.0,0.0,0.0*32
$GPRMC,033019.20,A,3522.3926,N,13855.9125,E,78.394262,217.933306,250719,,*03
$GPGGA,033019.20,3522.3926,N,13855.9125,E,1,00,0.0,594.578186,M,0.0,M,,*66
$GPGLL,3522.3926,N,13855.9125,E,033019.20,A,*2F
$GPGSA,A,3,,,,,,,,,,,,,0.0,0.0,0.0*32
$GPRMC,033019.30,A,3522.3909,N,13855.9109,E,77.643508,218.917241,250719,,*01
$GPGGA,033019.30,3522.3909,N,13855.9109,E,1,00,0.0,594.740295,M,0.0,M,,*6C
$GPGLL,3522.3909,N,13855.9109,E,033019.30,A,*2D
$GPGSA,A,3,,,,,,,,,,,,,0.0,0.0,0.0*32
$GPRMC,033019.40,A,3522.3893,N,13855.9093,E,76.803442,218.827532,250719,,*03
$GPGGA,033019.40,3522.3893,N,13855.9093,E,1,00,0.0,594.786560,M,0.0,M,,*6C
$GPGLL,3522.3893,N,13855.9093,E,033019.40,A,*2A
$GPGSA,A,3,,,,,,,,,,,,,0.0,0.0,0.0*32
$GPRMC,033019.50,A,3522.3876,N,13855.9077,E,75.674251,218.814382,250719,,*07
$GPGGA,033019.50,3522.3876,N,13855.9077,E,1,00,0.0,594.866028,M,0.0,M,,*64
$GPGLL,3522.3876,N,13855.9077,E,033019.50,A,*2A
$GPGSA,A,3,,,,,,,,,,,,,0.0,0.0,0.0*32
$GPRMC,033019.60,A,3522.3861,N,13855.9061,E,74.771758,219.376081,250719,,*02
$GPGGA,033019.60,3522.3861,N,13855.9061,E,1,00,0.0,595.021790,M,0.0,M,,*68
$GPGLL,3522.3861,N,13855.9061,E,033019.60,A,*28
$GPGSA,A,3,,,,,,,,,,,,,0.0,0.0,0.0*32
$GPRMC,033019.70,A,3522.3845,N,13855.9045,E,73.562663,219.091143,250719,,*08
$GPGGA,033019.70,3522.3845,N,13855.9045,E,1,00,0.0,595.133606,M,0.0,M,,*65
$GPGLL,3522.3845,N,13855.9045,E,033019.70,A,*29
$GPGSA,A,3,,,,,,,,,,,,,0.0,0.0,0.0*32
$GPRMC,033019.80,A,3522.3829,N,13855.9030,E,72.286734,219.254321,250719,,*0D
$GPGGA,033019.80,3522.3829,N,13855.9030,E,1,00,0.0,595.195496,M,0.0,M,,*65
$GPGLL,3522.3829,N,13855.9030,E,033019.80,A,*2E
$GPGSA,A,3,,,,,,,,,,,,,0.0,0.0,0.0*32
$GPRMC,033019.90,A,3522.3814,N,13855.9014,E,71.318114,219.786271,250719,,*0B
$GPGGA,033019.90,3522.3814,N,13855.9014,E,1,00,0.0,595.235535,M,0.0,M,,*6D
$GPGLL,3522.3814,N,13855.9014,E,033019.90,A,*27
$GPGSA,A,3,,,,,,,,,,,,,0.0,0.0,0.0*32
$GPRMC,033020.00,A,3522.3799,N,13855.8999,E,69.929893,219.545770,250719,,*01
$GPGGA,033020.00,3522.3799,N,13855.8999,E,1,00,0.0,595.179565,M,0.0,M,,*67
$GPGLL,3522.3799,N,13855.8999,E,033020.00,A,*23
$GPGSA,A,3,,,,,,,,,,,,,0.0,0.0,0.0*32
$GPRMC,033020.10,A,3522.3785,N,13855.8984,E,68.636995,220.234910,250719,,*05
$GPGGA,033020.10,3522.3785,N,13855.8984,E,1,00,0.0,595.283142,M,0.0,M,,*60
$GPGLL,3522.3785,N,13855.8984,E,033020.10,A,*23
$GPGSA,A,3,,,,,,,,,,,,,0.0,0.0,0.0*32
$GPRMC,033020.20,A,3522.3771,N,13855.8970,E,67.538185,220.363123,250719,,*06
$GPGGA,033020.20,3522.3771,N,13855.8970,E,1,00,0.0,595.449036,M,0.0,M,,*61
$GPGLL,3522.3771,N,13855.8970,E,033020.20,A,*20
$GPGSA,A,3,,,,,,,,,,,,,0.0,0.0,0.0*32
$GPRMC,033020.30,A,3522.3757,N,13855.8955,E,66.599267,220.690735,250719,,*09
$GPGGA,033020.30,3522.3757,N,13855.8955,E,1,00,0.0,595.562622,M,0.0,M,,*68
$GPGLL,3522.3757,N,13855.8955,E,033020.30,A,*22
$GPGSA,A,3,,,,,,,,,,,,,0.0,0.0,0.0*32
$GPRMC,033020.40,A,3522.3744,N,13855.8940,E,65.476127,220.870798,250719,,*0B
$GPGGA,033020.40,3522.3744,N,13855.8940,E,1,00,0.0,595.684998,M,0.0,M,,*6C
$GPGLL,3522.3744,N,13855.8940,E,033020.40,A,*23
$GPGSA,A,3,,,,,,,,,,,,,0.0,0.0,0.0*32
$GPRMC,033020.50,A,3522.3730,N,13855.8926,E,64.734795,219.487266,250719,,*08
$GPGGA,033020.50,3522.3730,N,13855.8926,E,1,00,0.0,595.691040,M,0.0,M,,*66
$GPGLL,3522.3730,N,13855.8926,E,033020.50,A,*21
$GPGSA,A,3,,,,,,,,,,,,,0.0,0.0,0.0*32
$GPRMC,033020.60,A,3522.3716,N,13855.8913,E,63.879928,218.712519,250719,,*01
$GPGGA,033020.60,3522.3716,N,13855.8913,E,1,00,0.0,595.746033,M,0.0,M,,*68
$GPGLL,3522.3716,N,13855.8913,E,033020.60,A,*20
$GPGSA,A,3,,,,,,,,,,,,,0.0,0.0,0.0*32
$GPRMC,033020.70,A,3522.3703,N,13855.8900,E,62.926715,218.679478,250719,,*06
$GPGGA,033020.70,3522.3703,N,13855.8900,E,1,00,0.0,595.819397,M,0.0,M,,*67
$GPGLL,3522.3703,N,13855.8900,E,033020.70,A,*27
$GPGSA,A,3,,,,,,,,,,,,,0.0,0.0,0.0*32
$GPRMC,033020.80,A,3522.3690,N,13855.8887,E,62.040094,218.528239,250719,,*0F
$GPGGA,033020.80,3522.3690,N,13855.8887,E,1,00,0.0,595.851746,M,0.0,M,,*69
$GPGLL,3522.3690,N,13855.8887,E,033020.80,A,*2D
$GPGSA,A,3,,,,,,,,,,,,,0.0,0.0,0.0*32
$GPRMC,033020.90,A,3522.3677,N,13855.8875,E,61.124443,218.830065,250719,,*0B
$GPGGA,033020.90,3522.3677,N,13855.8875,E,1,00,0.0,595.852600,M,0.0,M,,*6C
$GPGLL,3522.3677,N,13855.8875,E,033020.90,A,*28
$GPGSA,A,3,,,,,,,,,,,,,0.0,0.0,0.0*32
$GPRMC,033021.00,A,3522.3664,N,13855.8862,E,60.281119,217.932058,250719,,*02
$GPGGA,033021.00,3522.3664,N,13855.8862,E,1,00,0.0,595.825562,M,0.0,M,,*67
$GPGLL,3522.3664,N,13855.8862,E,033021.00,A,*24
$GPGSA,A,3,,,,,,,,,,,,,0.0,0.0,0.0*32
$GPRMC,033021.10,A,3522.3651,N,13855.8850,E,59.671056,217.225373,250719,,*08
$GPGGA,033021.10,3522.3651,N,13855.8850,E,1,00,0.0,595.749512,M,0.0,M,,*63
$GPGLL,3522.3651,N,13855.8850,E,033021.10,A,*22
$GPGSA,A,3,,,,,,,,,,,,,0.0,0.0,0.0*32
$GPRMC,033021.20,A,3522.3638,N,13855.8839,E,59.056836,216.148828,250719,,*0A
$GPGGA,033021.20,3522.3638,N,13855.8839,E,1,00,0.0,595.672180,M,0.0,M,,*66
$GPGLL,3522.3638,N,13855.8839,E,033021.20,A,*21
$GPGSA,A,3,,,,,,,,,,,,,0.0,0.0,0.0*32
$GPRMC,033021.30,A,3522.3625,N,13855.8827,E,58.275729,216.976606,250719,,*0C
$GPGGA,033021.30,3522.3625,N,13855.8827,E,1,00,0.0,595.705933,M,0.0,M,,*65
$GPGLL,3522.3625,N,13855.8827,E,033021.30,A,*23
$GPGSA,A,3,,,,,,,,,,,,,0.0,0.0,0.0*32
$GPRMC,033021.40,A,3522.3612,N,13855.8815,E,57.464200,216.459871,250719,,*07
$GPGGA,033021.40,3522.3612,N,13855.8815,E,1,00,0.0,595.687744,M,0.0,M,,*62
$GPGLL,3522.3612,N,13855.8815,E,033021.40,A,*21
$GPGSA,A,3,,,,,,,,,,,,,0.0,0.0,0.0*32
$GPRMC,033021.50,A,3522.3600,N,13855.8804,E,56.709467,216.030290,250719,,*05
$GPGGA,033021.50,3522.3600,N,13855.8804,E,1,00,0.0,595.751587,M,0.0,M,,*67
$GPGLL,3522.3600,N,13855.8804,E,033021.50,A,*23
$GPGSA,A,3,,,,,,,,,,,,,0.0,0.0,0.0*32
$GPRMC,033021.60,A,3522.3587,N,13855.8793,E,55.789334,215.228835,250719,,*0C
$GPGGA,033021.60,3522.3587,N,13855.8793,E,1,00,0.0,595.794067,M,0.0,M,,*6B
$GPGLL,3522.3587,N,13855.8793,E,033021.60,A,*2D
$GPGSA,A,3,,,,,,,,,,,,,0.0,0.0,0.0*32
$GPRMC,033021.70,A,3522.3575,N,13855.8782,E,55.302709,215.200773,250719,,*0A
$GPGGA,033021.70,3522.3575,N,13855.8782,E,1,00,0.0,595.923157,M,0.0,M,,*67
$GPGLL,3522.3575,N,13855.8782,E,033021.70,A,*21
$GPGSA,A,3,,,,,,,,,,,,,0.0,0.0,0.0*32
$GPRMC,033021.80,A,3522.3563,N,13855.8772,E,54.740098,213.801807,250719,,*00
$GPGGA,033021.80,3522.3563,N,13855.8772,E,1,00,0.0,595.967896,M,0.0,M,,*64
$GPGLL,3522.3563,N,13855.8772,E,033021.80,A,*26
$GPGSA,A,3,,,,,,,,,,,,,0.0,0.0,0.0*32
$GPRMC,033021.90,A,3522.3550,N,13855.8762,E,54.131938,213.495257,250719,,*0D
$GPGGA,033021.90,3522.3550,N,13855.8762,E,1,00,0.0,596.016907,M,0.0,M,,*61
$GPGLL,3522.3550,N,13855.8762,E,033021.90,A,*26
$GPGSA,A,3,,,,,,,,,,,,,0.0,0.0,0.0*32
$GPRMC,033022.00,A,3522.3538,N,13855.8752,E,53.323750,212.646838,250719,,*02
$GPGGA,033022.00,3522.3538,N,13855.8752,E,1,00,0.0,596.154907,M,0.0,M,,*61
$GPGLL,3522.3538,N,13855.8752,E,033022.00,A,*21
$GPGSA,A,3,,,,,,,,,,,,,0.0,0.0,0.0*32
$GPRMC,033022.10,A,3522.3525,N,13855.8743,E,52.573783,211.839385,250719,,*0B
$GPGGA,033022.10,3522.3525,N,13855.8743,E,1,00,0.0,596.180908,M,0.0,M,,*6A
$GPGLL,3522.3525,N,13855.8743,E,033022.10,A,*2C
$GPGSA,A,3,,,,,,,,,,,,,0.0,0.0,0.0*32
$GPRMC,033022.20,A,3522.3513,N,13855.8734,E,52.785066,211.031711,250719,,*03
$GPGGA,033022.20,3522.3513,N,13855.8734,E,1,00,0.0,596.378113,M,0.0,M,,*6B
$GPGLL,3522.3513,N,13855.8734,E,033022.20,A,*2A
$GPGSA,A,3,,,,,,,,,,,,,0.0,0.0,0.0*32
$GPRMC,033022.30,A,3522.3501,N,13855.8725,E,52.360889,210.145569,250719,,*09
$GPGGA,033022.30,3522.3501,N,13855.8725,E,1,00,0.0,596.586182,M,0.0,M,,*66
$GPGLL,3522.3501,N,13855.8725,E,033022.30,A,*28
$GPGSA,A,3,,,,,,,,,,,,,0.0,0.0,0.0*32
$GPRMC,033022.40,A,3522.3488,N,13855.8717,E,52.286107,207.060077,250719,,*03
$GPGGA,033022.40,3522.3488,N,13855.8717,E,1,00,0.0,596.619690,M,0.0,M,,*61
$GPGLL,3522.3488,N,13855.8717,E,033022.40,A,*2E
$GPGSA,A,3,,,,,,,,,,,,,0.0,0.0,0.0*32
$GPRMC,033022.50,A,3522.3475,N,13855.8709,E,52.239231,206.512766,250719,,*0B
$GPGGA,033022.50,3522.3475,N,13855.8709,E,1,00,0.0,596.683899,M,0.0,M,,*69
$GPGLL,3522.3475,N,13855.8709,E,033022.50,A,*22
$GPGSA,A,3,,,,,,,,,,,,,0.0,0.0,0.0*32
$GPRMC,033022.60,A,3522.3462,N,13855.8702,E,52.406360,205.328848,250719,,*05
$GPGGA,033022.60,3522.3462,N,13855.8702,E,1,00,0.0,596.693115,M,0.0,M,,*6B
$GPGLL,3522.3462,N,13855.8702,E,033022.60,A,*2C
$GPGSA,A,3,,,,,,,,,,,,,0.0,0.0,0.0*32
$GPRMC,033022.70,A,3522.3449,N,13855.8694,E,52.882403,204.859035,250719,,*0F
$GPGGA,033022.70,3522.3449,N,13855.8694,E,1,00,0.0,596.659363,M,0.0,M,,*68
$GPGLL,3522.3449,N,13855.8694,E,033022.70,A,*2A
$GPGSA,A,3,,,,,,,,,,,,,0.0,0.0,0.0*32
$GPRMC,033022.80,A,3522.3435,N,13855.8687,E,52.913728,204.045914,250719,,*05
$GPGGA,033022.80,3522.3435,N,13855.8687,E,1,00,0.0,596.657349,M,0.0,M,,*68
$GPGLL,3522.3435,N,13855.8687,E,033022.80,A,*2C
$GPGSA,A,3,,,,,,,,,,,,,0.0,0.0,0.0*32
$GPRMC,033022.90,A,3522.3422,N,13855.8680,E,53.545455,202.827793,250719,,*09
$GPGGA,033022.90,3522.3422,N,13855.8680,E,1,00,0.0,596.700806,M,0.0,M,,*6B
$GPGLL,3522.3422,N,13855.8680,E,033022.90,A,*2C
$GPGSA,A,3,,,,,,,,,,,,,0.0,0.0,0.0*32
$GPRMC,033023.00,A,3522.3408,N,13855.8673,E,53.616851,200.864262,250719,,*06
$GPGGA,033023.00,3522.3408,N,13855.8673,E,1,00,0.0,596.665833,M,0.0,M,,*63
$GPGLL,3522.3408,N,13855.8673,E,033023.00,A,*20
$GPGSA,A,3,,,,,,,,,,,,,0.0,0.0,0.0*32
$GPRMC,033023.10,A,3522.3394,N,13855.8667,E,53.637086,199.991530,250719,,*09
$GPGGA,033023.10,3522.3394,N,13855.8667,E,1,00,0.0,596.620544,M,0.0,M,,*69
$GPGLL,3522.3394,N,13855.8667,E,033023.10,A,*26
$GPGSA,A,3,,,,,,,,,,,,,0.0,0.0,0.0*32
$GPRMC,033023.20,A,3522.3380,N,13855.8661,E,53.409202,198.940566,250719,,*06
$GPGGA,033023.20,3522.3380,N,13855.8661,E,1,00,0.0,596.523010,M,0.0,M,,*6D
$GPGLL,3522.3380,N,13855.8661,E,033023.20,A,*26
$GPGSA,A,3,,,,,,,,,,,,,0.0,0.0,0.0*32
$GPRMC,033023.30,A,3522.3366,N,13855.8656,E,53.250611,197.753180,250719,,*08
$GPGGA,033023.30,3522.3366,N,13855.8656,E,1,00,0.0,596.532837,M,0.0,M,,*6D
$GPGLL,3522.3366,N,13855.8656,E,033023.30,A,*2B
$GPGSA,A,3,,,,,,,,,,,,,0.0,0.0,0.0*32
$GPRMC,033023.40,A,3522.3352,N,13855.8651,E,52.631980,195.801584,250719,,*00
$GPGGA,033023.40,3522.3352,N,13855.8651,E,1,00,0.0,596.514709,M,0.0,M,,*6C
$GPGLL,3522.3352,N,13855.8651,E,033023.40,A,*2C
$GPGSA,A,3,,,,,,,,,,,,,0.0,0.0,0.0*32
$GPRMC,033023.50,A,3522.3338,N,13855.8647,E,52.128559,194.219131,250719,,*05
$GPGGA,033023.50,3522.3338,N,13855.8647,E,1,00,0.0,596.526855,M,0.0,M,,*61
$GPGLL,3522.3338,N,13855.8647,E,033023.50,A,*26
$GPGSA,A,3,,,,,,,,,,,,,0.0,0.0,0.0*32
$GPRMC,033023.60,A,3522.3324,N,13855.8643,E,51.536329,192.183064,250719,,*01
$GPGGA,033023.60,3522.3324,N,13855.8643,E,1,00,0.0,596.435852,M,0.0,M,,*6F
$GPGLL,3522.3324,N,13855.8643,E,033023.60,A,*2C
$GPGSA,A,3,,,,,,,,,,,,,0.0,0.0,0.0*32
$GPRMC,033023.70,A,3522.3310,N,13855.8640,E,51.340894,190.867526,250719,,*0C
$GPGGA,033023.70,3522.3310,N,13855.8640,E,1,00,0.0,596.366211,M,0.0,M,,*66
$GPGLL,3522.3310,N,13855.8640,E,033023.70,A,*29
$GPGSA,A,3,,,,,,,,,,,,,0.0,0.0,0.0*32
$GPRMC,033023.80,A,3522.3296,N,13855.8637,E,50.623344,189.024090,250719,,*04
$GPGGA,033023.80,3522.3296,N,13855.8637,E,1,00,0.0,596.301636,M,0.0,M,,*66
$GPGLL,3522.3296,N,13855.8637,E,033023.80,A,*29
$GPGSA,A,3,,,,,,,,,,,,,0.0,0.0,0.0*32
$GPRMC,033023.90,A,3522.3282,N,13855.8635,E,50.698299,187.260674,250719,,*03
$GPGGA,033023.90,3522.3282,N,13855.8635,E,1,00,0.0,596.329834,M,0.0,M,,*66
$GPGLL,3522.3282,N,13855.8635,E,033023.90,A,*2F
$GPGSA,A,3,,,,,,,,,,,,,0.0,0.0,0.0*32
$GPRMC,033024.00,A,3522.3268,N,13855.8633,E,50.550263,186.128665,250719,,*03
$GPGGA,033024.00,3522.3268,N,13855.8633,E,1,00,0.0,596.279663,M,0.0,M,,*62
$GPGLL,3522.3268,N,13855.8633,E,033024.00,A,*23
$GPGSA,A,3,,,,,,,,,,,,,0.0,0.0,0.0*32
$GPRMC,033024.10,A,3522.3255,N,13855.8631,E,49.450679,184.955402,250719,,*0B
$GPGGA,033024.10,3522.3255,N,13855.8631,E,1,00,0.0,596.468262,M,0.0,M,,*6C
$GPGLL,3522.3255,N,13855.8631,E,033024.10,A,*2E
$GPGSA,A,3,,,,,,,,,,,,,0.0,0.0,0.0*32
$GPRMC,033024.20,A,3522.3241,N,13855.8631,E,50.332603,180.959296,250719,,*08
$GPGGA,033024.20,3522.3241,N,13855.8631,E,1,00,0.0,596.513977,M,0.0,M,,*68
$GPGLL,3522.3241,N,13855.8631,E,033024.20,A,*28
$GPGSA,A,3,,,,,,,,,,,,,0.0,0.0,0.0*32
$GPRMC,033024.30,A,3522.3227,N,13855.8631,E,51.762917,179.086049,250719,,*0E
$GPGGA,033024.30,3522.3227,N,13855.8631,E,1,00,0.0,596.436462,M,0.0,M,,*66
$GPGLL,3522.3227,N,13855.8631,E,033024.30,A,*29
$GPGSA,A,3,,,,,,,,,,,,,0.0,0.0,0.0*32
$GPRMC,033024.40,A,3522.3212,N,13855.8632,E,51.581690,178.349789,250719,,*09
$GPGGA,033024.40,3522.3212,N,13855.8632,E,1,00,0.0,596.449097,M,0.0,M,,*62
$GPGLL,3522.3212,N,13855.8632,E,033024.40,A,*2B
$GPGSA,A,3,,,,,,,,,,,,,0.0,0.0,0.0*32
$GPRMC,033024.50,A,3522.3198,N,13855.8633,E,51.919134,177.787099,250719,,*03
$GPGGA,033024.50,3522.3198,N,13855.8633,E,1,00,0.0,596.453613,M,0.0,M,,*62
$GPGLL,3522.3198,N,13855.8633,E,033024.50,A,*2A
$GPGSA,A,3,,,,,,,,,,,,,0.0,0.0,0.0*32
$GPRMC,033024.60,A,3522.3183,N,13855.8634,E,52.452796,176.345522,250719,,*0C
$GPGGA,033024.60,3522.3183,N,13855.8634,E,1,00,0.0,596.503601,M,0.0,M,,*6B
$GPGLL,3522.3183,N,13855.8634,E,033024.60,A,*24
$GPGSA,A,3,,,,,,,,,,,,,0.0,0.0,0.0*32
$GPRMC,033024.70,A,3522.3169,N,13855.8635,E,52.309069,174.865151,250719,,*0D
$GPGGA,033024.70,3522.3169,N,13855.8635,E,1,00,0.0,596.540222,M,0.0,M,,*6D
$GPGLL,3522.3169,N,13855.8635,E,033024.70,A,*20
$GPGSA,A,3,,,,,,,,,,,,,0.0,0.0,0.0*32
$GPRMC,033024.80,A,3522.3154,N,13855.8637,E,52.786397,173.899263,250719,,*09
$GPGGA,033024.80,3522.3154,N,13855.8637,E,1,00,0.0,596.574890,M,0.0,M,,*6A
$GPGLL,3522.3154,N,13855.8637,E,033024.80,A,*23
$GPGSA,A,3,,,,,,,,,,,,,0.0,0.0,0.0*32
$GPRMC,033024.90,A,3522.3139,N,13855.8640,E,53.274216,171.745748,250719,,*02
$GPGGA,033024.90,3522.3139,N,13855.8640,E,1,00,0.0,596.642639,M,0.0,M,,*6B
$GPGLL,3522.3139,N,13855.8640,E,033024.90,A,*29
$GPGSA,A,3,,,,,,,,,,,,,0.0,0.0,0.0*32
