$GPGGA,025953.900,3525.3467,N,13851.0385,E,2,8,1.36,979.4,M,39.1,M,0000,0000*5D
$GPGSA,A,3,03,28,22,17,01,11,19,08,,,,,1.59,1.36,0.83*0E
$GPGSV,3,1,10,03,69,090,44,28,62,263,39,22,50,057,37,50,46,199,31*7B
$GPGSV,3,2,10,17,42,318,37,01,41,047,33,11,24,081,26,19,21,307,39*7E
$GPGSV,3,3,10,08,11,116,25,30,02,222,*72
$GPRMC,025953.900,A,3525.3467,N,13851.0385,E,5.40,247.82,210720,,,D*61
$GPGGA,025954.000,3525.3470,N,13851.0382,E,2,8,1.36,979.3,M,39.1,M,0000,0000*55
$GPGSA,A,3,03,28,22,17,01,11,19,08,,,,,1.59,1.36,0.83*0E
$GPGSV,3,1,10,03,69,090,44,28,62,263,39,22,50,057,37,50,46,199,32*78
$GPGSV,3,2,10,17,42,318,37,01,41,047,33,11,24,081,26,19,21,307,39*7E
$GPGSV,3,3,10,08,11,116,32,30,02,222,*74
$GPRMC,025954.000,A,3525.3470,N,13851.0382,E,5.40,250.77,210720,,,D*62
$GPGGA,025954.100,3525.3473,N,13851.0379,E,2,8,1.36,979.3,M,39.1,M,0000,0000*53
$GPGSA,A,3,03,28,22,17,01,11,19,08,,,,,1.59,1.36,0.83*0E
$GPGSV,3,1,10,03,69,090,43,28,62,263,39,22,50,057,37,50,46,199,33*7E
$GPGSV,3,2,10,17,42,318,39,01,41,047,33,11,24,081,29,19,21,307,39*7F
$GPGSV,3,3,10,08,11,116,32,30,02,222,*74
$GPRMC,025954.100,A,3525.3473,N,13851.0379,E,5.43,254.11,210720,,,D*63
$GPGGA,025954.200,3525.3474,N,13851.0376,E,2,8,1.36,979.3,M,39.1,M,0000,0000*58
$GPGSA,A,3,03,28,22,17,01,11,19,08,,,,,1.59,1.36,0.83*0E
$GPGSV,3,1,10,03,69,090,43,28,62,263,39,22,50,057,36,50,46,199,34*78
$GPGSV,3,2,10,17,42,318,39,01,41,047,33,11,24,081,29,19,21,307,34*72
$GPGSV,3,3,10,08,11,116,32,30,02,222,*74
$GPRMC,025954.200,A,3525.3474,N,13851.0376,E,5.52,255.83,210720,,,D*62
$GPGGA,025954.300,3525.3476,N,13851.0374,E,2,8,1.36,979.3,M,39.1,M,0000,0000*59
$GPGSA,A,3,03,28,22,17,01,11,19,08,,,,,1.59,1.36,0.83*0E
$GPGSV,3,1,10,03,69,090,42,28,62,263,35,22,50,057,36,50,46,199,35*74
$GPGSV,3,2,10,17,42,318,39,01,41,047,35,11,24,081,29,19,21,307,34*74
$GPGSV,3,3,10,08,11,116,32,30,02,222,*74
$GPRMC,025954.300,A,3525.3476,N,13851.0374,E,5.54,259.45,210720,,,D*63
$GPGGA,025954.400,3525.3479,N,13851.0371,E,2,8,1.36,979.3,M,39.1,M,0000,0000*54
$GPGSA,A,3,03,28,22,17,01,11,19,08,,,,,1.59,1.36,0.83*0E
$GPGSV,3,1,10,03,69,090,42,28,62,263,35,22,50,057,36,50,46,199,36*77
$GPGSV,3,2,10,17,42,318,39,01,41,047,35,11,24,081,29,19,21,307,34*74
$GPGSV,3,3,10,08,11,116,32,30,02,222,*74
$GPRMC,025954.400,A,3525.3479,N,13851.0371,E,5.57,262.84,210720,,,D*68
$GPGGA,025954.500,3525.3480,N,13851.0369,E,2,8,1.36,979.3,M,39.1,M,0000,0000*5A
$GPGSA,A,3,03,28,22,17,01,11,19,08,,,,,1.59,1.36,0.83*0E
$GPGSV,3,1,10,03,69,090,40,28,62,263,35,22,50,057,38,50,46,199,37*7A
$GPGSV,3,2,10,17,42,318,39,01,41,047,35,11,24,081,29,19,21,307,34*74
$GPGSV,3,3,10,08,11,116,31,30,02,222,*77
$GPRMC,025954.500,A,3525.3480,N,13851.0369,E,5.60,265.40,210720,,,D*6D
$GPGGA,025954.600,3525.3482,N,13851.0368,E,2,8,1.36,979.2,M,39.1,M,0000,0000*5B
$GPGSA,A,3,03,28,22,17,01,11,19,08,,,,,1.59,1.36,0.83*0E
$GPGSV,3,1,10,03,69,090,40,28,62,263,35,22,50,057,38,50,46,199,38*75
$GPGSV,3,2,10,17,42,318,39,01,41,047,35,11,24,081,29,19,21,307,34*74
$GPGSV,3,3,10,08,11,116,31,30,02,222,*77
$GPRMC,025954.600,A,3525.3482,N,13851.0368,E,5.68,268.51,210720,,,D*68
$GPGGA,025954.700,3525.3484,N,13851.0365,E,2,8,1.36,979.2,M,39.1,M,0000,0000*51
$GPGSA,A,3,03,28,22,17,01,11,19,08,,,,,1.59,1.36,0.83*0E
$GPGSV,3,1,10,03,69,090,40,28,62,263,37,22,50,057,38,50,46,199,38*77
$GPGSV,3,2,10,17,42,318,39,01,41,047,36,11,24,081,28,19,21,307,34*76
$GPGSV,3,3,10,08,11,116,31,30,02,222,*77
$GPRMC,025954.700,A,3525.3484,N,13851.0365,E,5.80,270.97,210720,,,D*67
$GPGGA,025954.800,3525.3485,N,13851.0362,E,2,8,1.36,979.2,M,39.1,M,0000,0000*58
$GPGSA,A,3,03,28,22,17,01,11,19,08,,,,,1.59,1.36,0.83*0E
$GPGSV,3,1,10,03,69,090,40,28,62,263,37,22,50,057,38,50,46,199,38*77
$GPGSV,3,2,10,17,42,318,39,01,41,047,36,11,24,081,28,19,21,307,31*73
$GPGSV,3,3,10,08,11,116,31,30,02,222,*77
$GPRMC,025954.800,A,3525.3485,N,13851.0362,E,5.95,273.50,210720,,,D*62
$GPGGA,025954.900,3525.3487,N,13851.0360,E,2,8,1.36,979.2,M,39.1,M,0000,0000*59
$GPGSA,A,3,03,28,22,17,01,11,19,08,,,,,1.59,1.36,0.83*0E
$GPGSV,3,1,10,03,69,090,40,28,62,263,40,22,50,057,38,50,46,199,38*77
$GPGSV,3,2,10,17,42,318,39,01,41,047,36,11,24,081,28,19,21,307,31*73
$GPGSV,3,3,10,08,11,116,31,30,02,222,*77
$GPRMC,025954.900,A,3525.3487,N,13851.0360,E,6.08,275.72,210720,,,D*62
$GPGGA,025955.000,3525.3486,N,13851.0356,E,2,8,1.36,979.2,M,39.1,M,0000,0000*55
$GPGSA,A,3,03,28,22,17,01,11,19,08,,,,,1.59,1.36,0.83*0E
$GPGSV,3,1,10,03,69,090,42,28,62,263,40,22,50,057,38,50,46,199,38*75
$GPGSV,3,2,10,17,42,318,39,01,41,047,36,11,24,081,28,19,21,307,31*73
$GPGSV,3,3,10,08,11,116,31,30,02,222,*77
$GPRMC,025955.000,A,3525.3486,N,13851.0356,E,6.54,278.43,210720,,,D*68
$GPGGA,025955.100,3525.3487,N,13851.0354,E,2,8,1.36,979.2,M,39.1,M,0000,0000*57
$GPGSA,A,3,03,28,22,17,01,11,19,08,,,,,1.59,1.36,0.83*0E
$GPGSV,3,1,10,03,69,090,42,28,62,263,42,22,50,057,40,50,46,199,37*77
$GPGSV,3,2,10,17,42,318,39,01,41,047,36,11,24,081,28,19,21,307,31*73
$GPGSV,3,3,10,08,11,116,30,30,02,222,*76
$GPRMC,025955.100,A,3525.3487,N,13851.0354,E,6.83,282.45,210720,,,D*63
$GPGGA,025955.200,3525.3486,N,13851.0352,E,2,8,1.36,979.2,M,39.1,M,0000,0000*53
$GPGSA,A,3,03,28,22,17,01,11,19,08,,,,,1.59,1.36,0.83*0E
$GPGSV,3,1,10,03,69,090,43,28,62,263,42,22,50,057,40,50,46,199,36*77
$GPGSV,3,2,10,17,42,318,39,01,41,047,33,11,24,081,28,19,21,307,31*76
$GPGSV,3,3,10,08,11,116,30,30,02,222,*76
$GPRMC,025955.200,A,3525.3486,N,13851.0352,E,7.02,284.98,210720,,,D*69
$GPGGA,025955.300,3525.3485,N,13851.0349,E,2,8,1.36,979.2,M,39.1,M,0000,0000*5B
$GPGSA,A,3,03,28,22,17,01,11,19,08,,,,,1.59,1.36,0.83*0E
$GPGSV,3,1,10,03,69,090,43,28,62,263,43,22,50,057,40,50,46,199,36*76
$GPGSV,3,2,10,17,42,318,37,01,41,047,33,11,24,081,28,19,21,307,31*78
$GPGSV,3,3,10,08,11,116,30,30,02,222,*76
$GPRMC,025955.300,A,3525.3485,N,13851.0349,E,7.14,286.60,210720,,,D*63
$GPGGA,025955.400,3525.3484,N,13851.0346,E,2,8,1.36,979.2,M,39.1,M,0000,0000*52
$GPGSA,A,3,03,28,22,17,01,11,19,08,,,,,1.59,1.36,0.83*0E
$GPGSV,3,1,10,03,69,090,43,28,62,263,43,22,50,057,39,50,46,199,36*78
$GPGSV,3,2,10,17,42,318,37,01,41,047,33,11,24,081,28,19,21,307,31*78
$GPGSV,3,3,10,08,11,116,30,30,02,222,*76
$GPRMC,025955.400,A,3525.3484,N,13851.0346,E,7.25,288.08,210720,,,D*68
$GPGGA,025955.500,3525.3484,N,13851.0344,E,2,8,1.36,979.2,M,39.1,M,0000,0000*51
$GPGSA,A,3,03,28,22,17,01,11,19,08,,,,,1.59,1.36,0.83*0E
$GPGSV,3,1,10,03,69,090,43,28,62,263,41,22,50,057,39,50,46,199,36*7A
$GPGSV,3,2,10,17,42,318,37,01,41,047,33,11,24,081,28,19,21,307,31*78
$GPGSV,3,3,10,08,11,116,30,30,02,222,*76
$GPRMC,025955.500,A,3525.3484,N,13851.0344,E,7.31,290.05,210720,,,D*6A
$GPGGA,025955.600,3525.3484,N,13851.0342,E,2,8,1.36,979.2,M,39.1,M,0000,0000*54
$GPGSA,A,3,03,28,22,17,01,11,19,08,,,,,1.59,1.36,0.83*0E
$GPGSV,3,1,10,03,69,090,42,28,62,263,41,22,50,057,39,50,46,199,36*7B
$GPGSV,3,2,10,17,42,318,41,01,41,047,35,11,24,081,28,19,21,307,31*7F
$GPGSV,3,3,10,08,11,116,30,30,02,222,*76
$GPRMC,025955.600,A,3525.3484,N,13851.0342,E,7.45,292.63,210720,,,D*6E
$GPGGA,025955.700,3525.3485,N,13851.0341,E,2,8,1.36,979.2,M,39.1,M,0000,0000*57
$GPGSA,A,3,03,28,22,17,01,11,19,08,,,,,1.59,1.36,0.83*0E
$GPGSV,3,1,10,03,69,090,42,28,62,263,41,22,50,057,38,50,46,199,35*79
$GPGSV,3,2,10,17,42,318,41,01,41,047,35,11,24,081,28,19,21,307,31*7F
$GPGSV,3,3,10,08,11,116,30,30,02,222,*76
$GPRMC,025955.700,A,3525.3485,N,13851.0341,E,7.03,303.18,210720,,,D*6A
$GPGGA,025955.800,3525.3485,N,13851.0340,E,2,8,1.36,979.2,M,39.1,M,0000,0000*59
$GPGSA,A,3,03,28,22,17,01,11,19,08,,,,,1.59,1.36,0.83*0E
$GPGSV,3,1,10,03,69,090,41,28,62,263,39,22,50,057,38,50,46,199,35*75
$GPGSV,3,2,10,17,42,318,41,01,41,047,35,11,24,081,28,19,21,307,31*7F
$GPGSV,3,3,10,08,11,116,30,30,02,222,*76
$GPRMC,025955.800,A,3525.3485,N,13851.0340,E,7.28,304.51,210720,,,D*67
$GPGGA,025955.900,3525.3482,N,13851.0337,E,2,8,1.36,979.2,M,39.1,M,0000,0000*5F
$GPGSA,A,3,03,28,22,17,01,11,19,08,,,,,1.59,1.36,0.83*0E
$GPGSV,3,1,10,03,69,090,41,28,62,263,39,22,50,057,38,50,46,199,35*75
$GPGSV,3,2,10,17,42,318,41,01,41,047,35,11,24,081,33,19,21,307,28*7D
$GPGSV,3,3,10,08,11,116,30,30,02,222,*76
$GPRMC,025955.900,A,3525.3482,N,13851.0337,E,7.70,303.47,210720,,,D*6C
$GPGGA,025956.000,3525.3483,N,13851.0336,E,2,8,1.36,979.2,M,39.1,M,0000,0000*55
$GPGSA,A,3,03,28,22,17,01,11,19,08,,,,,1.59,1.36,0.83*0E
$GPGSV,3,1,10,03,69,090,41,28,62,263,39,22,50,057,40,50,46,199,35*7A
$GPGSV,3,2,10,17,42,318,41,01,41,047,36,11,24,081,33,19,21,307,28*7E
$GPGSV,3,3,10,08,11,116,30,30,02,222,*76
$GPRMC,025956.000,A,3525.3483,N,13851.0336,E,7.77,305.49,210720,,,D*69
$GPGGA,025956.100,3525.3485,N,13851.0334,E,2,8,1.36,979.2,M,39.1,M,0000,0000*50
$GPGSA,A,3,03,28,22,17,01,11,19,08,,,,,1.59,1.36,0.83*0E
$GPGSV,3,1,10,03,69,090,40,28,62,263,39,22,50,057,40,50,46,199,35*7B
$GPGSV,3,2,10,17,42,318,39,01,41,047,36,11,24,081,33,19,21,307,28*71
$GPGSV,3,3,10,08,11,116,30,30,02,222,*76
$GPRMC,025956.100,A,3525.3485,N,13851.0334,E,8.55,309.62,210720,,,D*66
$GPGGA,025956.200,3525.3486,N,13851.0333,E,2,8,1.36,979.2,M,39.1,M,0000,0000*57
$GPGSA,A,3,03,28,22,17,01,11,19,08,,,,,1.59,1.36,0.83*0E
$GPGSV,3,1,10,03,69,090,40,28,62,263,39,22,50,057,40,50,46,199,35*7B
$GPGSV,3,2,10,17,42,318,39,01,41,047,36,11,24,081,33,19,21,307,28*71
$GPGSV,3,3,10,08,11,116,30,30,02,222,*76
$GPRMC,025956.200,A,3525.3486,N,13851.0333,E,8.90,310.55,210720,,,D*64
$GPGGA,025956.300,3525.3488,N,13851.0332,E,2,8,1.36,979.2,M,39.1,M,0000,0000*59
$GPGSA,A,3,03,28,22,17,01,11,19,08,,,,,1.59,1.36,0.83*0E
$GPGSV,3,1,10,03,69,090,41,28,62,263,39,22,50,057,40,50,46,199,35*7A
$GPGSV,3,2,10,17,42,318,41,01,41,047,38,11,24,081,33,19,21,307,28*70
$GPGSV,3,3,10,08,11,116,21,30,02,222,*76
$GPRMC,025956.300,A,3525.3488,N,13851.0332,E,8.99,309.89,210720,,,D*6A
$GPGGA,025956.400,3525.3490,N,13851.0331,E,2,8,1.36,979.1,M,39.1,M,0000,0000*57
$GPGSA,A,3,03,28,22,17,01,11,19,08,,,,,1.59,1.36,0.83*0E
$GPGSV,3,1,10,03,69,090,41,28,62,263,38,22,50,057,40,50,46,199,35*7B
$GPGSV,3,2,10,17,42,318,41,01,41,047,38,11,24,081,33,19,21,307,28*70
$GPGSV,3,3,10,08,11,116,21,30,02,222,*76
$GPRMC,025956.400,A,3525.3490,N,13851.0331,E,9.04,310.62,210720,,,D*6F
$GPGGA,025956.500,3525.3492,N,13851.0330,E,2,7,1.77,979.1,M,39.1,M,0000,0000*5F
$GPGSA,A,3,03,28,22,17,01,11,19,,,,,,1.99,1.77,0.92*0F
$GPGSV,3,1,10,03,69,090,41,28,62,263,38,22,50,057,41,50,46,199,34*7B
$GPGSV,3,2,10,17,42,318,42,01,41,047,38,11,24,081,33,19,21,307,31*7B
$GPGSV,3,3,10,08,11,116,21,30,02,222,*76
$GPRMC,025956.500,A,3525.3492,N,13851.0330,E,9.24,311.36,210720,,,D*6F
$GPGGA,025956.600,3525.3493,N,13851.0329,E,2,7,1.77,979.1,M,39.1,M,0000,0000*55
$GPGSA,A,3,03,28,22,17,01,11,19,,,,,,1.99,1.77,0.92*0F
$GPGSV,3,1,10,03,69,090,41,28,62,263,38,22,50,057,41,50,46,199,*7C
$GPGSV,3,2,10,17,42,318,42,01,41,047,39,11,24,081,25,19,21,307,31*7D
$GPGSV,3,3,10,08,11,116,21,30,02,222,*76
$GPRMC,025956.600,A,3525.3493,N,13851.0329,E,9.41,310.94,210720,,,D*6F
$GPGGA,025956.700,3525.3495,N,13851.0328,E,2,7,1.77,979.1,M,39.1,M,0000,0000*53
$GPGSA,A,3,03,28,22,17,01,11,19,,,,,,1.99,1.77,0.92*0F
$GPGSV,3,1,10,03,69,090,42,28,62,263,38,22,50,057,41,50,46,199,*7F
$GPGSV,3,2,10,17,42,318,42,01,41,047,39,11,24,081,25,19,21,307,31*7D
$GPGSV,3,3,10,08,11,116,21,30,02,222,*76
$GPRMC,025956.700,A,3525.3495,N,13851.0328,E,9.57,311.35,210720,,,D*64
$GPGGA,025956.800,3525.3496,N,13851.0326,E,2,7,1.77,979.1,M,39.1,M,0000,0000*51
$GPGSA,A,3,03,28,22,17,01,11,19,,,,,,1.99,1.77,0.92*0F
$GPGSV,3,1,10,03,69,090,42,28,62,263,38,22,50,057,41,50,46,199,27*7A
$GPGSV,3,2,10,17,42,318,41,01,41,047,39,11,24,081,25,19,21,307,31*7E
$GPGSV,3,3,10,08,11,116,21,30,02,222,*76
$GPRMC,025956.800,A,3525.3496,N,13851.0326,E,9.78,311.41,210720,,,D*68
$GPGGA,025956.900,3525.3499,N,13851.0325,E,2,8,1.36,979.0,M,39.1,M,0000,0000*57
$GPGSA,A,3,03,28,22,17,01,11,19,08,,,,,1.59,1.36,0.83*0E
$GPGSV,3,1,10,03,69,090,42,28,62,263,38,22,50,057,41,50,46,199,27*7A
$GPGSV,3,2,10,17,42,318,41,01,41,047,39,11,24,081,25,19,21,307,31*7E
$GPGSV,3,3,10,08,11,116,25,30,02,222,*72
$GPRMC,025956.900,A,3525.3499,N,13851.0325,E,10.00,311.31,210720,,,D*55
$GPGGA,025957.100,3525.3502,N,13851.0323,E,2,8,1.36,979.0,M,39.1,M,0000,0000*5B
$GPGSA,A,3,03,28,22,17,01,11,19,08,,,,,1.59,1.36,0.83*0E
$GPGSV,3,1,10,03,69,090,42,28,62,263,37,22,50,057,41,50,46,199,31*72
$GPGSV,3,2,10,17,42,318,40,01,41,047,40,11,24,081,30,19,21,307,32*76
$GPGSV,3,3,10,08,11,116,25,30,02,222,*72
$GPRMC,025957.100,A,3525.3502,N,13851.0323,E,10.08,311.25,210720,,,D*54
$GPGGA,025957.200,3525.3504,N,13851.0322,E,2,8,1.36,979.0,M,39.1,M,0000,0000*5F
$GPGSA,A,3,03,28,22,17,01,11,19,08,,,,,2.02,1.36,1.49*04
$GPGSV,3,1,10,03,69,090,42,28,62,263,37,22,50,057,41,50,46,199,31*72
$GPGSV,3,2,10,17,42,318,40,01,41,047,40,11,24,081,30,19,21,307,32*76
$GPGSV,3,3,10,08,11,116,25,30,02,222,*72
$GPRMC,025957.200,A,3525.3504,N,13851.0322,E,10.28,311.71,210720,,,D*53
$GPGGA,025957.300,3525.3506,N,13851.0320,E,2,8,1.36,979.0,M,39.1,M,0000,0000*5E
$GPGSA,A,3,03,28,22,17,01,11,19,08,,,,,2.02,1.36,1.49*04
$GPGSV,3,1,10,03,69,090,42,28,62,263,37,22,50,057,41,50,46,199,33*70
$GPGSV,3,2,10,17,42,318,40,01,41,047,40,11,24,081,30,19,21,307,32*76
$GPGSV,3,3,10,08,11,116,25,30,02,222,*72
$GPRMC,025957.300,A,3525.3506,N,13851.0320,E,10.55,311.83,210720,,,D*55
$GPGGA,025957.400,3525.3508,N,13851.0319,E,2,8,1.36,978.9,M,39.1,M,0000,0000*55
$GPGSA,A,3,03,28,22,17,01,11,19,08,,,,,2.02,1.36,1.49*04
$GPGSV,3,1,10,03,69,090,42,28,62,263,38,22,50,057,41,50,46,199,33*7F
$GPGSV,3,2,10,17,42,318,40,01,41,047,40,11,24,081,30,19,21,307,32*76
$GPGSV,3,3,10,08,11,116,25,30,02,222,*72
$GPRMC,025957.400,A,3525.3508,N,13851.0319,E,10.80,312.17,210720,,,D*50
$GPGGA,025957.500,3525.3510,N,13851.0318,E,2,8,1.36,978.9,M,39.1,M,0000,0000*5C
$GPGSA,A,3,03,28,22,17,01,11,19,08,,,,,2.02,1.36,1.49*04
$GPGSV,3,1,10,03,69,090,42,28,62,263,38,22,50,057,41,50,46,199,33*7F
$GPGSV,3,2,10,17,42,318,40,01,41,047,40,11,24,081,30,19,21,307,32*76
$GPGSV,3,3,10,08,11,116,25,30,02,222,*72
$GPRMC,025957.500,A,3525.3510,N,13851.0318,E,10.95,312.28,210720,,,D*51
$GPGGA,025957.600,3525.3512,N,13851.0317,E,2,8,1.36,978.8,M,39.1,M,0000,0000*53
$GPGSA,A,3,03,28,22,17,01,11,19,08,,,,,2.02,1.36,1.49*04
$GPGSV,3,1,10,03,69,090,42,28,62,263,38,22,50,057,41,50,46,199,34*78
$GPGSV,3,2,10,17,42,318,40,01,41,047,40,11,24,081,30,19,21,307,34*70
$GPGSV,3,3,10,08,11,116,26,30,02,222,*71
$GPRMC,025957.600,A,3525.3512,N,13851.0317,E,11.14,312.88,210720,,,D*5D
$GPGGA,025957.700,3525.3515,N,13851.0316,E,2,8,1.36,978.8,M,39.1,M,0000,0000*54
$GPGSA,A,3,03,28,22,17,01,11,19,08,,,,,2.02,1.36,1.49*04
$GPGSV,3,1,10,03,69,090,42,28,62,263,38,22,50,057,41,50,46,199,34*78
$GPGSV,3,2,10,17,42,318,40,01,41,047,39,11,24,081,30,19,21,307,34*7E
$GPGSV,3,3,10,08,11,116,26,30,02,222,*71
$GPRMC,025957.700,A,3525.3515,N,13851.0316,E,11.28,313.06,210720,,,D*52
$GPGGA,025957.800,3525.3518,N,13851.0314,E,2,8,1.36,978.7,M,39.1,M,0000,0000*5B
$GPGSA,A,3,03,28,22,17,01,11,19,08,,,,,2.02,1.36,1.49*04
$GPGSV,3,1,10,03,69,090,42,28,62,263,38,22,50,057,41,50,46,199,34*78
$GPGSV,3,2,10,17,42,318,39,01,41,047,39,11,24,081,26,19,21,307,34*77
$GPGSV,3,3,10,08,11,116,26,30,02,222,*71
$GPRMC,025957.800,A,3525.3518,N,13851.0314,E,11.49,312.68,210720,,,D*5C
$GPGGA,025957.900,3525.3521,N,13851.0312,E,2,8,1.36,978.7,M,39.1,M,0000,0000*56
$GPGSA,A,3,03,28,22,17,01,11,19,08,,,,,2.02,1.36,1.49*04
$GPGSV,3,1,10,03,69,090,42,28,62,263,38,22,50,057,41,50,46,199,34*78
$GPGSV,3,2,10,17,42,318,39,01,41,047,39,11,24,081,26,19,21,307,34*77
$GPGSV,3,3,10,08,11,116,26,30,02,222,*71
$GPRMC,025957.900,A,3525.3521,N,13851.0312,E,11.65,313.20,210720,,,D*52
$GPGGA,025958.100,3525.3527,N,13851.0307,E,2,8,1.36,978.6,M,39.1,M,0000,0000*52
$GPGSA,A,3,03,28,22,17,01,11,19,08,,,,,2.02,1.36,1.49*04
$GPGSV,3,1,10,03,69,090,42,28,62,263,38,22,50,057,41,50,46,199,33*7F
$GPGSV,3,2,10,17,42,318,39,01,41,047,39,11,24,081,26,19,21,307,35*76
$GPGSV,3,3,10,08,11,116,26,30,02,222,*71
$GPRMC,025958.100,A,3525.3527,N,13851.0307,E,12.15,313.73,210720,,,D*55
$GPGGA,025958.200,3525.3530,N,13851.0305,E,2,8,1.36,978.6,M,39.1,M,0000,0000*55
$GPGSA,A,3,03,28,22,17,01,11,19,08,,,,,2.02,1.36,1.49*04
$GPGSV,3,1,10,03,69,090,42,28,62,263,38,22,50,057,41,50,46,199,31*7D
$GPGSV,3,2,10,17,42,318,39,01,41,047,39,11,24,081,26,19,21,307,35*76
$GPGSV,3,3,10,08,11,116,26,30,02,222,*71
$GPRMC,025958.200,A,3525.3530,N,13851.0305,E,12.30,314.12,210720,,,D*55
$GPGGA,025958.300,3525.3533,N,13851.0303,E,2,8,1.36,978.5,M,39.1,M,0000,0000*52
$GPGSA,A,3,03,28,22,17,01,11,19,08,,,,,2.02,1.36,1.49*04
$GPGSV,3,1,10,03,69,090,42,28,62,263,38,22,50,057,41,50,46,199,31*7D
$GPGSV,3,2,10,17,42,318,39,01,41,047,39,11,24,081,26,19,21,307,35*76
$GPGSV,3,3,10,08,11,116,26,30,02,222,*71
$GPRMC,025958.300,A,3525.3533,N,13851.0303,E,12.59,314.40,210720,,,D*59
$GPGGA,025958.400,3525.3536,N,13851.0301,E,2,8,1.36,978.5,M,39.1,M,0000,0000*52
$GPGSA,A,3,03,28,22,17,01,11,19,08,,,,,2.02,1.36,1.49*04
$GPGSV,3,1,10,03,69,090,42,28,62,263,38,22,50,057,41,50,46,199,31*7D
$GPGSV,3,2,10,17,42,318,39,01,41,047,39,11,24,081,26,19,21,307,35*76
$GPGSV,3,3,10,08,11,116,26,30,02,222,*71
$GPRMC,025958.400,A,3525.3536,N,13851.0301,E,12.74,315.38,210720,,,D*58
$GPGGA,025958.500,3525.3539,N,13851.0298,E,2,8,1.36,978.4,M,39.1,M,0000,0000*5C
$GPGSA,A,3,03,28,22,17,01,11,19,08,,,,,2.02,1.36,1.49*04
$GPGSV,3,1,10,03,69,090,42,28,62,263,38,22,50,057,41,50,46,199,31*7D
$GPGSV,3,2,10,17,42,318,39,01,41,047,39,11,24,081,21,19,21,307,35*71
$GPGSV,3,3,10,08,11,116,26,30,02,222,*71
$GPRMC,025958.500,A,3525.3539,N,13851.0298,E,12.99,314.54,210720,,,D*5F
$GPGGA,025958.600,3525.3542,N,13851.0295,E,2,8,1.36,978.4,M,39.1,M,0000,0000*5E
$GPGSA,A,3,03,28,22,17,01,11,19,08,,,,,2.02,1.36,1.49*04
$GPGSV,3,1,10,03,69,090,42,28,62,263,38,22,50,057,41,50,46,199,31*7D
$GPGSV,3,2,10,17,42,318,39,01,41,047,39,11,24,081,21,19,21,307,34*70
$GPGSV,3,3,10,08,11,116,26,30,02,222,*71
$GPRMC,025958.600,A,3525.3542,N,13851.0295,E,13.25,314.68,210720,,,D*54
$GPGGA,025958.700,3525.3545,N,13851.0292,E,2,8,1.36,978.4,M,39.1,M,0000,0000*5F
$GPGSA,A,3,03,28,22,17,01,11,19,08,,,,,2.02,1.36,1.49*04
$GPGSV,3,1,10,03,69,090,42,28,62,263,38,22,50,057,41,50,46,199,31*7D
$GPGSV,3,2,10,17,42,318,39,01,41,047,39,11,24,081,21,19,21,307,34*70
$GPGSV,3,3,10,08,11,116,26,30,02,222,*71
$GPRMC,025958.700,A,3525.3545,N,13851.0292,E,13.45,313.86,210720,,,D*54
$GPGGA,025958.800,3525.3549,N,13851.0289,E,2,8,1.36,978.3,M,39.1,M,0000,0000*51
$GPGSA,A,3,03,28,22,17,01,11,19,08,,,,,2.02,1.36,1.49*04
$GPGSV,3,1,10,03,69,090,42,28,62,263,38,22,50,057,41,50,46,199,31*7D
$GPGSV,3,2,10,17,42,318,39,01,41,047,39,11,24,081,21,19,21,307,34*70
$GPGSV,3,3,10,08,11,116,26,30,02,222,*71
$GPRMC,025958.800,A,3525.3549,N,13851.0289,E,13.46,314.73,210720,,,D*53
$GPGGA,025958.900,3525.3552,N,13851.0287,E,2,7,2.03,978.3,M,39.1,M,0000,0000*5E
$GPGSA,A,3,03,28,22,17,01,11,19,,,,,,3.06,2.03,2.29*09
$GPGSV,3,1,10,03,69,090,42,28,62,263,38,22,50,057,41,50,46,199,31*7D
$GPGSV,3,2,10,17,42,318,39,01,41,047,39,11,24,081,21,19,21,307,34*70
$GPGSV,3,3,10,08,11,116,20,30,02,222,*77
$GPRMC,025958.900,A,3525.3552,N,13851.0287,E,13.70,314.93,210720,,,D*5D
$GPGGA,025959.000,3525.3554,N,13851.0283,E,2,7,2.03,978.3,M,39.1,M,0000,0000*54
$GPGSA,A,3,03,28,22,17,01,11,19,,,,,,3.06,2.03,2.29*09
$GPGSV,3,1,10,03,69,090,42,28,62,263,36,22,50,057,41,50,46,199,31*73
$GPGSV,3,2,10,17,42,318,39,01,41,047,39,11,24,081,21,19,21,307,34*70
$GPGSV,3,3,10,08,11,116,20,30,02,222,*77
$GPRMC,025959.000,A,3525.3554,N,13851.0283,E,13.94,314.75,210720,,,D*55
$GPGGA,025959.100,3525.3557,N,13851.0280,E,2,7,2.03,978.2,M,39.1,M,0000,0000*54
$GPGSA,A,3,03,28,22,17,01,11,19,,,,,,3.06,2.03,2.29*09
$GPGSV,3,1,10,03,69,090,42,28,62,263,35,22,50,057,41,50,46,199,31*70
$GPGSV,3,2,10,17,42,318,40,01,41,047,39,11,24,081,25,19,21,307,34*7A
$GPGSV,3,3,10,08,11,116,20,30,02,222,*77
$GPRMC,025959.100,A,3525.3557,N,13851.0280,E,14.08,314.26,210720,,,D*50
$GPGGA,025959.200,3525.3561,N,13851.0277,E,2,7,2.03,978.2,M,39.1,M,0000,0000*5A
$GPGSA,A,3,03,28,22,17,01,11,19,,,,,,3.06,2.03,2.29*09
$GPGSV,3,1,10,03,69,090,42,28,62,263,34,22,50,057,41,50,46,199,30*70
$GPGSV,3,2,10,17,42,318,40,01,41,047,39,11,24,081,25,19,21,307,34*7A
$GPGSV,3,3,10,08,11,116,20,30,02,222,*77
$GPRMC,025959.200,A,3525.3561,N,13851.0277,E,14.25,313.96,210720,,,D*5D
$GPGGA,025959.300,3525.3564,N,13851.0273,E,2,7,2.03,978.1,M,39.1,M,0000,0000*59
$GPGSA,A,3,03,28,22,17,01,11,19,,,,,,3.06,2.03,2.29*09
$GPGSV,3,1,10,03,69,090,42,28,62,263,34,22,50,057,41,50,46,199,30*70
$GPGSV,3,2,10,17,42,318,40,01,41,047,39,11,24,081,25,19,21,307,34*7A
$GPGSV,3,3,10,08,11,116,20,30,02,222,*77
$GPRMC,025959.300,A,3525.3564,N,13851.0273,E,14.47,313.20,210720,,,D*54
$GPGGA,025959.400,3525.3567,N,13851.0269,E,2,7,2.03,978.0,M,39.1,M,0000,0000*57
$GPGSA,A,3,03,28,22,17,01,11,19,,,,,,3.06,2.03,2.29*09
$GPGSV,3,1,10,03,69,090,42,28,62,263,34,22,50,057,41,50,46,199,30*70
$GPGSV,3,2,10,17,42,318,40,01,41,047,39,11,24,081,25,19,21,307,34*7A
$GPGSV,3,3,10,08,11,116,20,30,02,222,*77
$GPRMC,025959.400,A,3525.3567,N,13851.0269,E,14.67,313.65,210720,,,D*58
$GPGGA,025959.500,3525.3570,N,13851.0265,E,2,7,2.03,978.0,M,39.1,M,0000,0000*5C
$GPGSA,A,3,03,28,22,17,01,11,19,,,,,,3.06,2.03,2.29*09
$GPGSV,3,1,10,03,69,090,42,28,62,263,34,22,50,057,41,50,46,199,30*70
$GPGSV,3,2,10,17,42,318,40,01,41,047,39,11,24,081,25,19,21,307,34*7A
$GPGSV,3,3,10,08,11,116,20,30,02,222,*77
$GPRMC,025959.500,A,3525.3570,N,13851.0265,E,14.70,313.48,210720,,,D*5A
$GPGGA,025959.600,3525.3573,N,13851.0262,E,2,7,2.03,977.9,M,39.1,M,0000,0000*5D
$GPGSA,A,3,03,28,22,17,01,11,19,,,,,,3.06,2.03,2.29*09
$GPGSV,3,1,10,03,69,090,42,28,62,263,34,22,50,057,41,50,46,199,30*70
$GPGSV,3,2,10,17,42,318,40,01,41,047,39,11,24,081,25,19,21,307,34*7A
$GPGSV,3,3,10,08,11,116,20,30,02,222,*77
$GPRMC,025959.600,A,3525.3573,N,13851.0262,E,14.88,313.04,210720,,,D*52
$GPGGA,025959.700,3525.3575,N,13851.0258,E,2,7,2.03,977.9,M,39.1,M,0000,0000*53
$GPGSA,A,3,03,28,22,17,01,11,19,,,,,,3.06,2.03,2.29*09
$GPGSV,3,1,10,03,69,090,42,28,62,263,34,22,50,057,41,50,46,199,26*77
$GPGSV,3,2,10,17,42,318,40,01,41,047,39,11,24,081,25,19,21,307,34*7A
$GPGSV,3,3,10,08,11,116,20,30,02,222,*77
$GPRMC,025959.700,A,3525.3575,N,13851.0258,E,14.94,312.70,210720,,,D*53
$GPGGA,025959.800,3525.3578,N,13851.0254,E,2,7,2.03,977.8,M,39.1,M,0000,0000*5C
$GPGSA,A,3,03,28,22,17,01,11,19,,,,,,3.06,2.03,2.29*09
$GPGSV,3,1,10,03,69,090,42,28,62,263,34,22,50,057,41,50,46,199,26*77
$GPGSV,3,2,10,17,42,318,40,01,41,047,39,11,24,081,25,19,21,307,34*7A
$GPGSV,3,3,10,08,11,116,20,30,02,222,*77
$GPRMC,025959.800,A,3525.3578,N,13851.0254,E,15.16,313.53,210720,,,D*56
$GPGGA,025959.900,3525.3581,N,13851.0251,E,2,7,2.03,977.8,M,39.1,M,0000,0000*5E
$GPGSA,A,3,03,28,22,17,01,11,19,,,,,,3.06,2.03,2.29*09
$GPGSV,3,1,10,03,69,090,42,28,62,263,34,22,50,057,41,50,46,199,26*77
$GPGSV,3,2,10,17,42,318,40,01,41,047,39,11,24,081,25,19,21,307,35*7B
$GPGSV,3,3,10,08,11,116,20,30,02,222,*77
$GPRMC,025959.900,A,3525.3581,N,13851.0251,E,15.31,313.63,210720,,,D*52
$GPGGA,030000.000,3525.3583,N,13851.0248,E,2,7,2.03,977.7,M,39.1,M,0000,0000*53
$GPGSA,A,3,03,28,22,17,01,11,19,,,,,,3.06,2.03,2.29*09
$GPGSV,3,1,10,03,69,090,42,28,62,263,34,22,50,057,41,50,46,199,26*77
$GPGSV,3,2,10,17,42,318,40,01,41,047,39,11,24,081,25,19,21,307,35*7B
$GPGSV,3,3,10,08,11,116,20,30,02,222,*77
$GPRMC,030000.000,A,3525.3583,N,13851.0248,E,15.35,313.32,210720,,,D*50
$GPGGA,030000.100,3525.3586,N,13851.0244,E,2,7,2.03,977.7,M,39.1,M,0000,0000*5B
$GPGSA,A,3,03,28,22,17,01,11,19,,,,,,3.06,2.03,2.29*09
$GPGSV,3,1,10,03,69,090,42,28,62,263,33,22,50,057,41,50,46,199,26*70
$GPGSV,3,2,10,17,42,318,40,01,41,047,39,11,24,081,25,19,21,307,35*7B
$GPGSV,3,3,10,08,11,116,20,30,02,222,*77
$GPRMC,030000.100,A,3525.3586,N,13851.0244,E,15.58,312.80,210720,,,D*5B
$GPGGA,030000.200,3525.3589,N,13851.0241,E,2,8,1.36,977.7,M,39.1,M,0000,0000*58
$GPGSA,A,3,03,28,22,17,01,11,19,08,,,,,2.02,1.36,1.49*04
$GPGSV,3,1,10,03,69,090,42,28,62,263,32,22,50,057,41,50,46,199,25*72
$GPGSV,3,2,10,17,42,318,40,01,41,047,39,11,24,081,25,19,21,307,35*7B
$GPGSV,3,3,10,08,11,116,22,30,02,222,*75
$GPRMC,030000.200,A,3525.3589,N,13851.0241,E,15.75,313.22,210720,,,D*54
$GPGGA,030000.300,3525.3592,N,13851.0238,E,2,8,1.36,977.7,M,39.1,M,0000,0000*5D
$GPGSA,A,3,03,28,22,17,01,11,19,08,,,,,2.02,1.36,1.49*04
$GPGSV,3,1,10,03,69,090,42,28,62,263,32,22,50,057,41,50,46,199,25*72
$GPGSV,3,2,10,17,42,318,40,01,41,047,39,11,24,081,25,19,21,307,35*7B
$GPGSV,3,3,10,08,11,116,23,30,02,222,*74
$GPRMC,030000.300,A,3525.3592,N,13851.0238,E,16.01,313.61,210720,,,D*56
$GPGGA,030000.400,3525.3595,N,13851.0234,E,2,8,1.36,977.7,M,39.1,M,0000,0000*51
$GPGSA,A,3,03,28,22,17,01,11,19,08,,,,,2.02,1.36,1.49*04
$GPGSV,3,1,10,03,69,090,42,28,62,263,32,22,50,057,41,50,46,199,25*72
$GPGSV,3,2,10,17,42,318,40,01,41,047,39,11,24,081,25,19,21,307,35*7B
$GPGSV,3,3,10,08,11,116,24,30,02,222,*73
$GPRMC,030000.400,A,3525.3595,N,13851.0234,E,16.05,313.03,210720,,,D*5A
$GPGGA,030000.500,3525.3599,N,13851.0230,E,2,8,1.36,977.7,M,39.1,M,0000,0000*58
$GPGSA,A,3,03,28,22,17,01,11,19,08,,,,,2.02,1.36,1.49*04
$GPGSV,3,1,10,03,69,090,42,28,62,263,32,22,50,057,41,50,46,199,25*72
$GPGSV,3,2,10,17,42,318,40,01,41,047,39,11,24,081,25,19,21,307,35*7B
$GPGSV,3,3,10,08,11,116,24,30,02,222,*73
$GPRMC,030000.500,A,3525.3599,N,13851.0230,E,16.22,313.15,210720,,,D*51
$GPGGA,030000.600,3525.3602,N,13851.0226,E,2,8,1.36,977.7,M,39.1,M,0000,0000*5D
$GPGSA,A,3,03,28,22,17,01,11,19,08,,,,,2.02,1.36,1.49*04
$GPGSV,3,1,10,03,69,090,42,28,62,263,32,22,50,057,41,50,46,199,25*72
$GPGSV,3,2,10,17,42,318,40,01,41,047,39,11,24,081,25,19,21,307,36*78
$GPGSV,3,3,10,08,11,116,24,30,02,222,*73
$GPRMC,030000.600,A,3525.3602,N,13851.0226,E,16.37,313.40,210720,,,D*50
$GPGGA,030000.700,3525.3606,N,13851.0222,E,2,8,1.36,977.7,M,39.1,M,0000,0000*5C
$GPGSA,A,3,03,28,22,17,01,11,19,08,,,,,2.02,1.36,1.49*04
$GPGSV,3,1,10,03,69,090,42,28,62,263,33,22,50,057,41,50,46,199,25*73
$GPGSV,3,2,10,17,42,318,40,01,41,047,39,11,24,081,25,19,21,307,36*78
$GPGSV,3,3,10,08,11,116,24,30,02,222,*73
$GPRMC,030000.700,A,3525.3606,N,13851.0222,E,16.46,313.64,210720,,,D*51
$GPGGA,030000.800,3525.3610,N,13851.0218,E,2,8,1.36,977.8,M,39.1,M,0000,0000*52
$GPGSA,A,3,03,28,22,17,01,11,19,08,,,,,2.02,1.36,1.49*04
$GPGSV,3,1,10,03,69,090,42,28,62,263,33,22,50,057,41,50,46,199,25*73
$GPGSV,3,2,10,17,42,318,40,01,41,047,39,11,24,081,25,19,21,307,36*78
$GPGSV,3,3,10,08,11,116,24,30,02,222,*73
$GPRMC,030000.800,A,3525.3610,N,13851.0218,E,16.47,313.23,210720,,,D*52
$GPGGA,030000.900,3525.3614,N,13851.0214,E,2,8,1.36,977.9,M,39.1,M,0000,0000*5A
$GPGSA,A,3,03,28,22,17,01,11,19,08,,,,,2.02,1.36,1.49*04
$GPGSV,3,1,10,03,69,090,42,28,62,263,33,22,50,057,41,50,46,199,25*73
$GPGSV,3,2,10,17,42,318,40,01,41,047,39,11,24,081,25,19,21,307,36*78
$GPGSV,3,3,10,08,11,116,24,30,02,222,*73
$GPRMC,030000.900,A,3525.3614,N,13851.0214,E,16.61,313.37,210720,,,D*5A
$GPGGA,030001.100,3525.3621,N,13851.0208,E,2,8,1.36,977.9,M,39.1,M,0000,0000*58
$GPGSA,A,3,03,28,22,17,01,11,19,08,,,,,2.02,1.36,1.49*04
$GPGSV,3,1,10,03,69,090,42,28,62,263,36,22,50,057,41,50,46,199,25*76
$GPGSV,3,2,10,17,42,318,40,01,41,047,39,11,24,081,23,19,21,307,36*7E
$GPGSV,3,3,10,08,11,116,24,30,02,222,*73
$GPRMC,030001.100,A,3525.3621,N,13851.0208,E,16.74,312.76,210720,,,D*58
$GPGGA,030001.200,3525.3626,N,13851.0204,E,2,8,1.36,978.0,M,39.1,M,0000,0000*56
$GPGSA,A,3,03,28,22,17,01,11,19,08,,,,,2.02,1.36,1.49*04
$GPGSV,3,1,10,03,69,090,42,28,62,263,37,22,50,057,41,50,46,199,25*77
$GPGSV,3,2,10,17,42,318,40,01,41,047,39,11,24,081,23,19,21,307,36*7E
$GPGSV,3,3,10,08,11,116,24,30,02,222,*73
$GPRMC,030001.200,A,3525.3626,N,13851.0204,E,16.89,313.13,210720,,,D*50
$GPGGA,030001.300,3525.3630,N,13851.0201,E,2,8,1.36,978.1,M,39.1,M,0000,0000*54
$GPGSA,A,3,03,28,22,17,01,11,19,08,,,,,2.02,1.36,1.49*04
$GPGSV,3,1,10,03,69,090,42,28,62,263,37,22,50,057,41,50,46,199,26*74
$GPGSV,3,2,10,17,42,318,40,01,41,047,39,11,24,081,23,19,21,307,36*7E
$GPGSV,3,3,10,08,11,116,24,30,02,222,*73
$GPRMC,030001.300,A,3525.3630,N,13851.0201,E,17.20,314.25,210720,,,D*53
$GPGGA,030001.400,3525.3633,N,13851.0197,E,2,8,1.36,978.1,M,39.1,M,0000,0000*5C
$GPGSA,A,3,03,28,22,17,01,11,19,08,,,,,2.02,1.36,1.49*04
$GPGSV,3,1,10,03,69,090,42,28,62,263,37,22,50,057,41,50,46,199,26*74
$GPGSV,3,2,10,17,42,318,40,01,41,047,39,11,24,081,23,19,21,307,36*7E
$GPGSV,3,3,10,08,11,116,24,30,02,222,*73
$GPRMC,030001.400,A,3525.3633,N,13851.0197,E,17.28,313.84,210720,,,D*5F
$GPGGA,030001.500,3525.3637,N,13851.0193,E,2,8,1.36,978.2,M,39.1,M,0000,0000*5E
$GPGSA,A,3,03,28,22,17,01,11,19,08,,,,,2.02,1.36,1.49*04
$GPGSV,3,1,10,03,69,090,42,28,62,263,37,22,50,057,41,50,46,199,26*74
$GPGSV,3,2,10,17,42,318,40,01,41,047,39,11,24,081,23,19,21,307,36*7E
$GPGSV,3,3,10,08,11,116,24,30,02,222,*73
$GPRMC,030001.500,A,3525.3637,N,13851.0193,E,17.21,314.29,210720,,,D*57
$GPGGA,030001.600,3525.3641,N,13851.0189,E,2,8,1.36,978.3,M,39.1,M,0000,0000*56
$GPGSA,A,3,03,28,22,17,01,11,19,08,,,,,2.02,1.36,1.49*04
$GPGSV,3,1,10,03,69,090,42,28,62,263,37,22,50,057,41,50,46,199,26*74
$GPGSV,3,2,10,17,42,318,40,01,41,047,39,11,24,081,23,19,21,307,36*7E
$GPGSV,3,3,10,08,11,116,24,30,02,222,*73
$GPRMC,030001.600,A,3525.3641,N,13851.0189,E,17.62,313.74,210720,,,D*56
$GPGGA,030001.700,3525.3644,N,13851.0185,E,2,8,1.36,978.2,M,39.1,M,0000,0000*5F
$GPGSA,A,3,03,28,22,17,01,11,19,08,,,,,2.02,1.36,1.49*04
$GPGSV,3,1,10,03,69,090,42,28,62,263,37,22,50,057,41,50,46,199,26*74
$GPGSV,3,2,10,17,42,318,40,01,41,047,39,11,24,081,23,19,21,307,36*7E
$GPGSV,3,3,10,08,11,116,24,30,02,222,*73
$GPRMC,030001.700,A,3525.3644,N,13851.0185,E,17.64,313.89,210720,,,D*5A
$GPGGA,030001.800,3525.3648,N,13851.0180,E,2,8,1.36,978.3,M,39.1,M,0000,0000*58
$GPGSA,A,3,03,28,22,17,01,11,19,08,,,,,2.02,1.36,1.49*04
$GPGSV,3,1,10,03,69,090,42,28,62,263,37,22,50,057,41,50,46,199,26*74
$GPGSV,3,2,10,17,42,318,40,01,41,047,39,11,24,081,23,19,21,307,36*7E
$GPGSV,3,3,10,08,11,116,24,30,02,222,*73
$GPRMC,030001.800,A,3525.3648,N,13851.0180,E,17.74,313.77,210720,,,D*5C
$GPGGA,030001.900,3525.3651,N,13851.0176,E,2,8,1.36,978.4,M,39.1,M,0000,0000*5F
$GPGSA,A,3,03,28,22,17,01,11,19,08,,,,,2.02,1.36,1.49*04
$GPGSV,3,1,10,03,69,090,42,28,62,263,37,22,50,057,41,50,46,199,26*74
$GPGSV,3,2,10,17,42,318,40,01,41,047,39,11,24,081,23,19,21,307,36*7E
$GPGSV,3,3,10,08,11,116,24,30,02,222,*73
$GPRMC,030001.900,A,3525.3651,N,13851.0176,E,17.94,314.25,210720,,,D*52
$GPGGA,030002.000,3525.3655,N,13851.0172,E,2,8,1.36,978.4,M,39.1,M,0000,0000*55
$GPGSA,A,3,03,28,22,17,01,11,19,08,,,,,2.02,1.36,1.49*04
$GPGSV,3,1,10,03,69,090,42,28,62,263,37,22,50,057,41,50,46,199,26*74
$GPGSV,3,2,10,17,42,318,40,01,41,047,39,11,24,081,23,19,21,307,36*7E
$GPGSV,3,3,10,08,11,116,24,30,02,222,*73
$GPRMC,030002.000,A,3525.3655,N,13851.0172,E,17.83,314.31,210720,,,D*5B
$GPGGA,030002.100,3525.3659,N,13851.0168,E,2,8,1.36,978.5,M,39.1,M,0000,0000*52
$GPGSA,A,3,03,28,22,17,01,11,19,08,,,,,2.02,1.36,1.49*04
$GPGSV,3,1,10,03,69,090,42,28,62,263,37,22,50,057,41,50,46,199,26*74
$GPGSV,3,2,10,17,42,318,40,01,41,047,39,11,24,081,23,19,21,307,37*7F
$GPGSV,3,3,10,08,11,116,24,30,02,222,*73
$GPRMC,030002.100,A,3525.3659,N,13851.0168,E,18.16,314.59,210720,,,D*50
$GPGGA,030002.200,3525.3662,N,13851.0163,E,2,8,1.36,978.6,M,39.1,M,0000,0000*51
$GPGSA,A,3,03,28,22,17,01,11,19,08,,,,,2.02,1.36,1.49*04
$GPGSV,3,1,10,03,69,090,42,28,62,263,37,22,50,057,41,50,46,199,26*74
$GPGSV,3,2,10,17,42,318,40,01,41,047,39,11,24,081,23,19,21,307,37*7F
$GPGSV,3,3,10,08,11,116,24,30,02,222,*73
$GPRMC,030002.200,A,3525.3662,N,13851.0163,E,18.31,314.57,210720,,,D*5B
$GPGGA,030002.300,3525.3666,N,13851.0159,E,2,8,1.36,978.7,M,39.1,M,0000,0000*5C
$GPGSA,A,3,03,28,22,17,01,11,19,08,,,,,2.02,1.36,1.49*04
$GPGSV,3,1,10,03,69,090,42,28,62,263,37,22,50,057,41,50,46,199,33*70
$GPGSV,3,2,10,17,42,318,40,01,41,047,39,11,24,081,24,19,21,307,37*78
$GPGSV,3,3,10,08,11,116,24,30,02,222,*73
$GPRMC,030002.300,A,3525.3666,N,13851.0159,E,18.27,313.94,210720,,,D*58
$GPGGA,030002.400,3525.3670,N,13851.0154,E,2,8,1.36,978.7,M,39.1,M,0000,0000*51
$GPGSA,A,3,03,28,22,17,01,11,19,08,,,,,2.02,1.36,1.49*04
$GPGSV,3,1,10,03,69,090,42,28,62,263,37,22,50,057,41,50,46,199,33*70
$GPGSV,3,2,10,17,42,318,40,01,41,047,39,11,24,081,24,19,21,307,37*78
$GPGSV,3,3,10,08,11,116,24,30,02,222,*73
$GPRMC,030002.400,A,3525.3670,N,13851.0154,E,18.41,314.21,210720,,,D*5C
$GPGGA,030002.500,3525.3674,N,13851.0150,E,2,8,1.36,978.9,M,39.1,M,0000,0000*5E
$GPGSA,A,3,03,28,22,17,01,11,19,08,,,,,2.02,1.36,1.49*04
$GPGSV,3,1,10,03,69,090,42,28,62,263,37,22,50,057,41,50,46,199,33*70
$GPGSV,3,2,10,17,42,318,40,01,41,047,39,11,24,081,24,19,21,307,37*78
$GPGSV,3,3,10,08,11,116,24,30,02,222,*73
$GPRMC,030002.500,A,3525.3674,N,13851.0150,E,18.36,314.39,210720,,,D*54
$GPGGA,030002.600,3525.3678,N,13851.0146,E,2,8,1.36,979.0,M,39.1,M,0000,0000*5E
$GPGSA,A,3,03,28,22,17,01,11,19,08,,,,,2.02,1.36,1.49*04
$GPGSV,3,1,10,03,69,090,42,28,62,263,37,22,50,057,41,50,46,199,33*70
$GPGSV,3,2,10,17,42,318,40,01,41,047,39,11,24,081,24,19,21,307,37*78
$GPGSV,3,3,10,08,11,116,24,30,02,222,*73
$GPRMC,030002.600,A,3525.3678,N,13851.0146,E,18.49,314.94,210720,,,D*53
$GPGGA,030002.700,3525.3682,N,13851.0141,E,2,8,1.36,979.1,M,39.1,M,0000,0000*5C
$GPGSA,A,3,03,28,22,17,01,11,19,08,,,,,2.02,1.36,1.49*04
$GPGSV,3,1,10,03,69,090,42,28,62,263,37,22,50,057,41,50,46,199,33*70
$GPGSV,3,2,10,17,42,318,40,01,41,047,39,11,24,081,24,19,21,307,37*78
$GPGSV,3,3,10,08,11,116,24,30,02,222,*73
$GPRMC,030002.700,A,3525.3682,N,13851.0141,E,18.62,314.07,210720,,,D*53
$GPGGA,030002.800,3525.3685,N,13851.0137,E,2,8,1.36,979.1,M,39.1,M,0000,0000*55
$GPGSA,A,3,03,28,22,17,01,11,19,08,,,,,2.02,1.36,1.49*04
$GPGSV,3,1,10,03,69,090,42,28,62,263,37,22,50,057,41,50,46,199,33*70
$GPGSV,3,2,10,17,42,318,40,01,41,047,39,11,24,081,24,19,21,307,37*78
$GPGSV,3,3,10,08,11,116,24,30,02,222,*73
$GPRMC,030002.800,A,3525.3685,N,13851.0137,E,18.62,314.59,210720,,,D*51
$GPGGA,030002.900,3525.3690,N,13851.0133,E,2,8,1.36,979.3,M,39.1,M,0000,0000*56
$GPGSA,A,3,03,28,22,17,01,11,19,08,,,,,2.02,1.36,1.49*04
$GPGSV,3,1,10,03,69,090,42,28,62,263,37,22,50,057,41,50,46,199,33*70
$GPGSV,3,2,10,17,42,318,40,01,41,047,39,11,24,081,25,19,21,307,37*79
$GPGSV,3,3,10,08,11,116,24,30,02,222,*73
$GPRMC,030002.900,A,3525.3690,N,13851.0133,E,18.90,314.99,210720,,,D*51
$GPGGA,030003.000,3525.3694,N,13851.0129,E,2,8,1.36,979.4,M,39.1,M,0000,0000*56
$GPGSA,A,3,03,28,22,17,01,11,19,08,,,,,2.02,1.36,1.49*04
$GPGSV,3,1,10,03,69,090,42,28,62,263,37,22,50,057,41,50,46,199,33*70
$GPGSV,3,2,10,17,42,318,40,01,41,047,39,11,24,081,25,19,21,307,37*79
$GPGSV,3,3,10,08,11,116,24,30,02,222,*73
$GPRMC,030003.000,A,3525.3694,N,13851.0129,E,18.91,315.20,210720,,,D*54
$GPGGA,030003.100,3525.3699,N,13851.0124,E,2,8,1.36,979.6,M,39.1,M,0000,0000*55
$GPGSA,A,3,03,28,22,17,01,11,19,08,,,,,2.02,1.36,1.49*04
$GPGSV,3,1,10,03,69,090,42,28,62,263,37,22,50,057,41,50,46,199,32*71
$GPGSV,3,2,10,17,42,318,40,01,41,047,39,11,24,081,25,19,21,307,37*79
$GPGSV,3,3,10,08,11,116,25,30,02,222,*72
$GPRMC,030003.100,A,3525.3699,N,13851.0124,E,18.86,314.74,210720,,,D*53
$GPGGA,030003.200,3525.3704,N,13851.0119,E,2,8,1.36,979.8,M,39.1,M,0000,0000*53
$GPGSA,A,3,03,28,22,17,01,11,19,08,,,,,2.02,1.36,1.49*04
$GPGSV,3,1,10,03,69,090,42,28,62,263,37,22,50,057,41,50,46,199,32*71
$GPGSV,3,2,10,17,42,318,40,01,41,047,39,11,24,081,25,19,21,307,37*79
$GPGSV,3,3,10,08,11,116,26,30,02,222,*71
$GPRMC,030003.200,A,3525.3704,N,13851.0119,E,19.05,314.69,210720,,,D*5D
$GPGGA,030003.300,3525.3708,N,13851.0115,E,2,8,1.36,979.8,M,39.1,M,0000,0000*52
$GPGSA,A,3,03,28,22,17,01,11,19,08,,,,,2.02,1.36,1.49*04
$GPGSV,3,1,10,03,69,090,42,28,62,263,37,22,50,057,41,50,46,199,32*71
$GPGSV,3,2,10,17,42,318,40,01,41,047,39,11,24,081,25,19,21,307,37*79
$GPGSV,3,3,10,08,11,116,26,30,02,222,*71
$GPRMC,030003.300,A,3525.3708,N,13851.0115,E,19.31,315.61,210720,,,D*52
$GPGGA,030003.400,3525.3712,N,13851.0110,E,2,8,1.36,980.1,M,39.1,M,0000,0000*54
$GPGSA,A,3,03,28,22,17,01,11,19,08,,,,,2.02,1.36,1.49*04
$GPGSV,3,1,10,03,69,090,42,28,62,263,37,22,50,057,41,50,46,199,32*71
$GPGSV,3,2,10,17,42,318,40,01,41,047,39,11,24,081,25,19,21,307,37*79
$GPGSV,3,3,10,08,11,116,26,30,02,222,*71
$GPRMC,030003.400,A,3525.3712,N,13851.0110,E,19.17,314.80,210720,,,D*51
$GPGGA,030003.500,3525.3717,N,13851.0105,E,2,8,1.36,980.3,M,39.1,M,0000,0000*56
$GPGSA,A,3,03,28,22,17,01,11,19,08,,,,,2.02,1.36,1.49*04
$GPGSV,3,1,10,03,69,090,42,28,62,263,37,22,50,057,41,50,46,199,32*71
$GPGSV,3,2,10,17,42,318,40,01,41,047,39,11,24,081,25,19,21,307,37*79
$GPGSV,3,3,10,08,11,116,26,30,02,222,*71
$GPRMC,030003.500,A,3525.3717,N,13851.0105,E,19.38,315.15,210720,,,D*51
$GPGGA,030003.600,3525.3721,N,13851.0100,E,2,8,1.36,980.5,M,39.1,M,0000,0000*53
$GPGSA,A,3,03,28,22,17,01,11,19,08,,,,,2.02,1.36,1.49*04
$GPGSV,3,1,10,03,69,090,42,28,62,263,37,22,50,057,41,50,46,199,32*71
$GPGSV,3,2,10,17,42,318,40,01,41,047,39,11,24,081,25,19,21,307,37*79
$GPGSV,3,3,10,08,11,116,26,30,02,222,*71
$GPRMC,030003.600,A,3525.3721,N,13851.0100,E,19.36,315.45,210720,,,D*59
$GPGGA,030003.700,3525.3725,N,13851.0095,E,2,8,1.36,980.7,M,39.1,M,0000,0000*59
$GPGSA,A,3,03,28,22,17,01,11,19,08,,,,,2.02,1.36,1.49*04
$GPGSV,3,1,10,03,69,090,42,28,62,263,37,22,50,057,41,50,46,199,32*71
$GPGSV,3,2,10,17,42,318,40,01,41,047,39,11,24,081,24,19,21,307,37*78
$GPGSV,3,3,10,08,11,116,26,30,02,222,*71
$GPRMC,030003.700,A,3525.3725,N,13851.0095,E,19.49,314.81,210720,,,D*50
$GPGGA,030003.800,3525.3730,N,13851.0090,E,2,8,1.36,980.9,M,39.1,M,0000,0000*59
$GPGSA,A,3,03,28,22,17,01,11,19,08,,,,,2.02,1.36,1.49*04
$GPGSV,3,1,10,03,69,090,42,28,62,263,37,22,50,057,41,50,46,199,32*71
$GPGSV,3,2,10,17,42,318,40,01,41,047,39,11,24,081,24,19,21,307,37*78
$GPGSV,3,3,10,08,11,116,26,30,02,222,*71
$GPRMC,030003.800,A,3525.3730,N,13851.0090,E,19.69,315.13,210720,,,D*56
$GPGGA,030003.900,3525.3734,N,13851.0085,E,2,8,1.36,981.0,M,39.1,M,0000,0000*50
$GPGSA,A,3,03,28,22,17,01,11,19,08,,,,,2.02,1.36,1.49*04
$GPGSV,3,1,10,03,69,090,42,28,62,263,37,22,50,057,41,50,46,199,32*71
$GPGSV,3,2,10,17,42,318,40,01,41,047,39,11,24,081,24,19,21,307,37*78
$GPGSV,3,3,10,08,11,116,26,30,02,222,*71
$GPRMC,030003.900,A,3525.3734,N,13851.0085,E,19.68,315.46,210720,,,D*56
$GPGGA,030004.000,3525.3738,N,13851.0080,E,2,8,1.36,981.3,M,39.1,M,0000,0000*54
$GPGSA,A,3,03,28,22,17,01,11,19,08,,,,,2.02,1.36,1.49*04
$GPGSV,3,1,10,03,69,090,42,28,62,263,37,22,50,057,41,50,46,199,32*71
$GPGSV,3,2,10,17,42,318,40,01,41,047,39,11,24,081,24,19,21,307,37*78
$GPGSV,3,3,10,08,11,116,26,30,02,222,*71
$GPRMC,030004.000,A,3525.3738,N,13851.0080,E,19.85,315.86,210720,,,D*5E
$GPGGA,030004.100,3525.3742,N,13851.0075,E,2,8,1.36,981.4,M,39.1,M,0000,0000*55
$GPGSA,A,3,03,28,22,17,01,11,19,08,,,,,2.02,1.36,1.49*04
$GPGSV,3,1,10,03,69,090,42,28,62,263,37,22,50,057,41,50,46,199,32*71
$GPGSV,3,2,10,17,42,318,40,01,41,047,39,11,24,081,24,19,21,307,37*78
$GPGSV,3,3,10,08,11,116,26,30,02,222,*71
$GPRMC,030004.100,A,3525.3742,N,13851.0075,E,19.89,315.05,210720,,,D*5F
$GPGGA,030004.200,3525.3747,N,13851.0070,E,2,8,1.36,981.6,M,39.1,M,0000,0000*54
$GPGSA,A,3,03,28,22,17,01,11,19,08,,,,,2.02,1.36,1.49*04
$GPGSV,3,1,10,03,69,090,42,28,62,263,37,22,50,057,41,50,46,199,32*71
$GPGSV,3,2,10,17,42,318,40,01,41,047,39,11,24,081,24,19,21,307,37*78
$GPGSV,3,3,10,08,11,116,26,30,02,222,*71
$GPRMC,030004.200,A,3525.3747,N,13851.0070,E,19.96,315.23,210720,,,D*56
$GPGGA,030004.300,3525.3751,N,13851.0065,E,2,8,1.36,981.8,M,39.1,M,0000,0000*58
$GPGSA,A,3,03,28,22,17,01,11,19,08,,,,,2.02,1.36,1.49*04
$GPGSV,3,1,10,03,69,090,42,28,62,263,37,22,50,057,41,50,46,199,32*71
$GPGSV,3,2,10,17,42,318,40,01,41,047,39,11,24,081,24,19,21,307,37*78
$GPGSV,3,3,10,08,11,116,26,30,02,222,*71
$GPRMC,030004.300,A,3525.3751,N,13851.0065,E,19.95,315.74,210720,,,D*55
$GPGGA,030004.400,3525.3756,N,13851.0060,E,2,8,1.36,981.8,M,39.1,M,0000,0000*5D
$GPGSA,A,3,03,28,22,17,01,11,19,08,,,,,2.02,1.36,1.49*04
$GPGSV,3,1,10,03,69,090,42,28,62,263,37,22,50,057,41,50,46,199,32*71
$GPGSV,3,2,10,17,42,318,40,01,41,047,39,11,24,081,24,19,21,307,37*78
$GPGSV,3,3,10,08,11,116,26,30,02,222,*71
$GPRMC,030004.400,A,3525.3756,N,13851.0060,E,20.16,315.26,210720,,,D*56
$GPGGA,030004.500,3525.3761,N,13851.0055,E,2,8,1.36,981.9,M,39.1,M,0000,0000*5F
$GPGSA,A,3,03,28,22,17,01,11,19,08,,,,,2.02,1.36,1.49*04
$GPGSV,3,1,10,03,69,090,42,28,62,263,37,22,50,057,41,50,46,199,32*71
$GPGSV,3,2,10,17,42,318,40,01,41,047,39,11,24,081,24,19,21,307,37*78
$GPGSV,3,3,10,08,11,116,26,30,02,222,*71
$GPRMC,030004.500,A,3525.3761,N,13851.0055,E,20.19,314.98,210720,,,D*5E
$GPGGA,030004.600,3525.3766,N,13851.0050,E,2,8,1.36,982.1,M,39.1,M,0000,0000*55
$GPGSA,A,3,03,28,22,17,01,11,19,08,,,,,2.02,1.36,1.49*04
$GPGSV,3,1,10,03,69,090,42,28,62,263,37,22,50,057,41,50,46,199,32*71
$GPGSV,3,2,10,17,42,318,40,01,41,047,39,11,24,081,24,19,21,307,37*78
$GPGSV,3,3,10,08,11,116,26,30,02,222,*71
$GPRMC,030004.600,A,3525.3766,N,13851.0050,E,20.23,315.63,210720,,,D*53
$GPGGA,030004.700,3525.3770,N,13851.0046,E,2,8,1.36,982.2,M,39.1,M,0000,0000*57
$GPGSA,A,3,03,28,22,17,01,11,19,08,,,,,2.02,1.36,1.49*04
$GPGSV,3,1,10,03,69,090,42,28,62,263,37,22,50,057,41,50,46,199,32*71
$GPGSV,3,2,10,17,42,318,40,01,41,047,39,11,24,081,24,19,21,307,37*78
$GPGSV,3,3,10,08,11,116,26,30,02,222,*71
$GPRMC,030004.700,A,3525.3770,N,13851.0046,E,20.33,315.82,210720,,,D*5C
$GPGGA,030004.800,3525.3775,N,13851.0040,E,2,8,1.36,982.3,M,39.1,M,0000,0000*5A
$GPGSA,A,3,03,28,22,17,01,11,19,08,,,,,2.02,1.36,1.49*04
$GPGSV,3,1,10,03,69,090,42,28,62,263,37,22,50,057,41,50,46,199,32*71
$GPGSV,3,2,10,17,42,318,40,01,41,047,39,11,24,081,24,19,21,307,37*78
$GPGSV,3,3,10,08,11,116,26,30,02,222,*71
$GPRMC,030004.800,A,3525.3775,N,13851.0040,E,20.31,315.34,210720,,,D*5F
$GPGGA,030004.900,3525.3779,N,13851.0036,E,2,8,1.36,982.4,M,39.1,M,0000,0000*51
$GPGSA,A,3,03,28,22,17,01,11,19,08,,,,,2.02,1.36,1.49*04
$GPGSV,3,1,10,03,69,090,42,28,62,263,37,22,50,057,41,50,46,199,32*71
$GPGSV,3,2,10,17,42,318,40,01,41,047,39,11,24,081,24,19,21,307,37*78
$GPGSV,3,3,10,08,11,116,25,30,02,222,*72
$GPRMC,030004.900,A,3525.3779,N,13851.0036,E,20.43,315.72,210720,,,D*54
$GPGGA,030005.000,3525.3783,N,13851.0031,E,2,8,1.36,982.4,M,39.1,M,0000,0000*5B
$GPGSA,A,3,03,28,22,17,01,11,19,08,,,,,2.02,1.36,1.49*04
$GPGSV,3,1,10,03,69,090,42,28,62,263,37,22,50,057,41,50,46,199,32*71
$GPGSV,3,2,10,17,42,318,40,01,41,047,39,11,24,081,24,19,21,307,37*78
$GPGSV,3,3,10,08,11,116,25,30,02,222,*72
$GPRMC,030005.000,A,3525.3783,N,13851.0031,E,20.37,315.79,210720,,,D*56
$GPGGA,030005.100,3525.3787,N,13851.0026,E,2,8,1.36,982.5,M,39.1,M,0000,0000*59
$GPGSA,A,3,03,28,22,17,01,11,19,08,,,,,2.02,1.36,1.49*04
$GPGSV,3,1,10,03,69,090,42,28,62,263,37,22,50,057,41,50,46,199,32*71
$GPGSV,3,2,10,17,42,318,40,01,41,047,39,11,24,081,24,19,21,307,37*78
$GPGSV,3,3,10,08,11,116,25,30,02,222,*72
$GPRMC,030005.100,A,3525.3787,N,13851.0026,E,20.51,315.90,210720,,,D*52
$GPGGA,030005.200,3525.3791,N,13851.0021,E,2,8,1.36,982.5,M,39.1,M,0000,0000*5A
$GPGSA,A,3,03,28,22,17,01,11,19,08,,,,,2.02,1.36,1.49*04
$GPGSV,3,1,10,03,69,090,42,28,62,263,37,22,50,057,41,50,46,199,32*71
$GPGSV,3,2,10,17,42,318,40,01,41,047,39,11,24,081,24,19,21,307,37*78
$GPGSV,3,3,10,08,11,116,25,30,02,222,*72
$GPRMC,030005.200,A,3525.3791,N,13851.0021,E,20.53,315.31,210720,,,D*58
$GPGGA,030005.300,3525.3795,N,13851.0016,E,2,8,1.36,982.6,M,39.1,M,0000,0000*58
$GPGSA,A,3,03,28,22,17,01,11,19,08,,,,,2.02,1.36,1.49*04
$GPGSV,3,1,10,03,69,090,42,28,62,263,37,22,50,057,41,50,46,199,32*71
$GPGSV,3,2,10,17,42,318,40,01,41,047,39,11,24,081,24,19,21,307,37*78
$GPGSV,3,3,10,08,11,116,25,30,02,222,*72
$GPRMC,030005.300,A,3525.3795,N,13851.0016,E,20.47,315.59,210720,,,D*52
$GPGGA,030005.400,3525.3799,N,13851.0011,E,2,8,1.36,982.7,M,39.1,M,0000,0000*55
$GPGSA,A,3,03,28,22,17,01,11,19,08,,,,,2.02,1.36,1.49*04
$GPGSV,3,1,10,03,69,090,42,28,62,263,37,22,50,057,41,50,46,199,32*71
$GPGSV,3,2,10,17,42,318,40,01,41,047,39,11,24,081,24,19,21,307,37*78
$GPGSV,3,3,10,08,11,116,25,30,02,222,*72
$GPRMC,030005.400,A,3525.3799,N,13851.0011,E,20.59,315.68,210720,,,D*53
$GPGGA,030005.500,3525.3803,N,13851.0006,E,2,8,1.36,982.7,M,39.1,M,0000,0000*5E
$GPGSA,A,3,03,28,22,17,01,11,19,08,,,,,2.02,1.36,1.49*04
$GPGSV,3,1,10,03,69,090,42,28,62,263,37,22,50,057,41,50,46,199,32*71
$GPGSV,3,2,10,17,42,318,40,01,41,047,39,11,24,081,25,19,21,307,37*79
$GPGSV,3,3,10,08,11,116,25,30,02,222,*72
$GPRMC,030005.500,A,3525.3803,N,13851.0006,E,20.67,315.62,210720,,,D*5F
$GPGGA,030005.600,3525.3808,N,13851.0001,E,2,8,1.36,982.7,M,39.1,M,0000,0000*51
$GPGSA,A,3,03,28,22,17,01,11,19,08,,,,,2.02,1.36,1.49*04
$GPGSV,3,1,10,03,69,090,42,28,62,263,37,22,50,057,41,50,46,199,32*71
$GPGSV,3,2,10,17,42,318,40,01,41,047,39,11,24,081,26,19,21,307,37*7A
$GPGSV,3,3,10,08,11,116,25,30,02,222,*72
$GPRMC,030005.600,A,3525.3808,N,13851.0001,E,20.74,315.97,210720,,,D*58
$GPGGA,030005.700,3525.3812,N,13850.9996,E,2,8,1.36,982.7,M,39.1,M,0000,0000*54
$GPGSA,A,3,03,28,22,17,01,11,19,08,,,,,2.02,1.36,1.49*04
$GPGSV,3,1,10,03,69,090,42,28,62,262,37,22,50,057,41,50,46,199,32*70
$GPGSV,3,2,10,17,42,318,40,01,41,047,39,11,24,081,27,19,21,307,36*7A
$GPGSV,3,3,10,08,11,116,25,30,02,222,*72
$GPRMC,030005.700,A,3525.3812,N,13850.9996,E,20.69,315.98,210720,,,D*5E
$GPGGA,030005.800,3525.3816,N,13850.9992,E,2,8,1.36,982.7,M,39.1,M,0000,0000*5B
$GPGSA,A,3,03,28,22,17,01,11,19,08,,,,,2.02,1.36,1.49*04
$GPGSV,3,1,10,03,69,090,42,28,62,262,37,22,50,057,41,50,46,199,32*70
$GPGSV,3,2,10,17,42,318,40,01,41,047,39,11,24,081,27,19,21,307,35*79
$GPGSV,3,3,10,08,11,116,25,30,02,222,*72
$GPRMC,030005.800,A,3525.3816,N,13850.9992,E,20.67,316.11,210720,,,D*5D
$GPGGA,030005.900,3525.3820,N,13850.9987,E,2,8,1.36,982.7,M,39.1,M,0000,0000*5B
$GPGSA,A,3,03,28,22,17,01,11,19,08,,,,,2.02,1.36,1.49*04
$GPGSV,3,1,10,03,69,090,42,28,62,262,37,22,50,057,41,50,46,199,32*70
$GPGSV,3,2,10,17,42,318,40,01,41,047,39,11,24,081,27,19,21,307,34*78
$GPGSV,3,3,10,08,11,116,25,30,02,222,*72
$GPRMC,030005.900,A,3525.3820,N,13850.9987,E,20.74,315.67,210720,,,D*5D
$GPGGA,030006.000,3525.3824,N,13850.9982,E,2,8,1.36,982.7,M,39.1,M,0000,0000*50
$GPGSA,A,3,03,28,22,17,01,11,19,08,,,,,2.02,1.36,1.49*04
$GPGSV,3,1,10,03,69,090,42,28,62,262,37,22,50,057,41,50,46,199,32*70
$GPGSV,3,2,10,17,42,318,40,01,41,047,39,11,24,081,28,19,21,307,34*77
$GPGSV,3,3,10,08,11,116,25,30,02,222,*72
$GPRMC,030006.000,A,3525.3824,N,13850.9982,E,20.81,315.59,210720,,,D*51
$GPGGA,030006.100,3525.3828,N,13850.9977,E,2,8,1.36,982.7,M,39.1,M,0000,0000*57
$GPGSA,A,3,03,28,22,17,01,11,19,08,,,,,2.02,1.36,1.49*04
$GPGSV,3,1,10,03,69,090,42,28,62,262,37,22,50,057,41,50,46,199,32*70
$GPGSV,3,2,10,17,42,318,40,01,41,047,39,11,24,081,28,19,21,307,34*77
$GPGSV,3,3,10,08,11,116,25,30,02,222,*72
$GPRMC,030006.100,A,3525.3828,N,13850.9977,E,20.87,315.73,210720,,,D*58
$GPGGA,030006.200,3525.3832,N,13850.9972,E,2,8,1.36,982.7,M,39.1,M,0000,0000*5A
$GPGSA,A,3,03,28,22,17,01,11,19,08,,,,,2.02,1.36,1.49*04
$GPGSV,3,1,10,03,69,090,42,28,62,262,37,22,50,057,41,50,46,199,32*70
$GPGSV,3,2,10,17,42,318,40,01,41,047,39,11,24,081,28,19,21,307,34*77
$GPGSV,3,3,10,08,11,116,25,30,02,222,*72
$GPRMC,030006.200,A,3525.3832,N,13850.9972,E,20.71,315.37,210720,,,D*5C
$GPGGA,030006.300,3525.3835,N,13850.9967,E,2,8,1.36,982.7,M,39.1,M,0000,0000*58
$GPGSA,A,3,03,28,22,17,01,11,19,08,,,,,2.02,1.36,1.49*04
$GPGSV,3,1,10,03,69,090,42,28,62,262,37,22,50,057,41,50,46,199,32*70
$GPGSV,3,2,10,17,42,318,40,01,41,047,39,11,24,081,28,19,21,307,34*77
$GPGSV,3,3,10,08,11,116,25,30,02,222,*72
$GPRMC,030006.300,A,3525.3835,N,13850.9967,E,20.86,315.10,210720,,,D*53
$GPGGA,030006.400,3525.3839,N,13850.9962,E,2,8,1.36,982.8,M,39.1,M,0000,0000*59
$GPGSA,A,3,03,28,22,17,01,11,19,08,,,,,2.02,1.36,1.49*04
$GPGSV,3,1,10,03,69,090,42,28,62,262,37,22,50,057,41,50,46,199,32*70
$GPGSV,3,2,10,17,42,318,40,01,41,047,39,11,24,081,28,19,21,307,34*77
$GPGSV,3,3,10,08,11,116,25,30,02,222,*72
$GPRMC,030006.400,A,3525.3839,N,13850.9962,E,20.77,315.63,210720,,,D*57
$GPGGA,030006.500,3525.3843,N,13850.9957,E,2,8,1.36,982.8,M,39.1,M,0000,0000*53
$GPGSA,A,3,03,28,22,17,01,11,19,08,,,,,2.02,1.36,1.49*04
$GPGSV,3,1,10,03,69,090,42,28,62,262,37,22,50,057,41,50,46,199,32*70
$GPGSV,3,2,10,17,42,318,40,01,41,047,39,11,24,081,28,19,21,307,34*77
$GPGSV,3,3,10,08,11,116,25,30,02,222,*72
$GPRMC,030006.500,A,3525.3843,N,13850.9957,E,20.86,315.19,210720,,,D*5E
$GPGGA,030006.600,3525.3847,N,13850.9953,E,2,8,1.36,982.7,M,39.1,M,0000,0000*5F
$GPGSA,A,3,03,28,22,17,01,11,19,08,,,,,2.02,1.36,1.49*04
$GPGSV,3,1,10,03,69,090,42,28,62,262,37,22,50,057,41,50,46,199,33*71
$GPGSV,3,2,10,17,42,318,40,01,41,047,39,11,24,081,29,19,21,307,34*76
$GPGSV,3,3,10,08,11,116,25,30,02,222,*72
$GPRMC,030006.600,A,3525.3847,N,13850.9953,E,20.80,315.21,210720,,,D*50
$GPGGA,030006.700,3525.3851,N,13850.9948,E,2,8,1.36,982.7,M,39.1,M,0000,0000*53
$GPGSA,A,3,03,28,22,17,01,11,19,08,,,,,2.02,1.36,1.49*04
$GPGSV,3,1,10,03,69,090,42,28,62,262,38,22,50,057,41,50,46,199,33*7E
$GPGSV,3,2,10,17,42,318,40,01,41,047,39,11,24,081,30,19,21,307,34*7E
$GPGSV,3,3,10,08,11,116,26,30,02,222,*71
$GPRMC,030006.700,A,3525.3851,N,13850.9948,E,21.09,315.19,210720,,,D*57
$GPGGA,030006.800,3525.3855,N,13850.9943,E,2,8,1.36,982.7,M,39.1,M,0000,0000*53
$GPGSA,A,3,03,28,22,17,01,11,19,08,,,,,2.02,1.36,1.49*04
$GPGSV,3,1,10,03,69,090,42,28,62,262,38,22,50,057,41,50,46,199,32*7F
$GPGSV,3,2,10,17,42,318,40,01,41,047,39,11,24,081,31,19,21,307,34*7F
$GPGSV,3,3,10,08,11,116,27,30,02,222,*70
$GPRMC,030006.800,A,3525.3855,N,13850.9943,E,20.95,315.33,210720,,,D*5B
$GPGGA,030006.900,3525.3859,N,13850.9938,E,2,8,1.36,982.6,M,39.1,M,0000,0000*53
$GPGSA,A,3,03,28,22,17,01,11,19,08,,,,,2.02,1.36,1.49*04
$GPGSV,3,1,10,03,69,090,42,28,62,262,38,22,50,057,41,50,46,199,32*7F
$GPGSV,3,2,10,17,42,318,40,01,41,047,39,11,24,081,31,19,21,307,34*7F
$GPGSV,3,3,10,08,11,116,27,30,02,222,*70
$GPRMC,030006.900,A,3525.3859,N,13850.9938,E,20.85,314.71,210720,,,D*5C
$GPGGA,030007.000,3525.3863,N,13850.9934,E,2,8,1.36,982.6,M,39.1,M,0000,0000*5E
$GPGSA,A,3,03,28,22,17,01,11,19,08,,,,,2.02,1.36,1.49*04
$GPGSV,3,1,10,03,69,090,42,28,62,262,38,22,50,057,41,50,46,199,32*7F
$GPGSV,3,2,10,17,42,318,40,01,41,047,39,11,24,081,31,19,21,307,34*7F
$GPGSV,3,3,10,08,11,116,27,30,02,222,*70
$GPRMC,030007.000,A,3525.3863,N,13850.9934,E,21.02,315.34,210720,,,D*5F
$GPGGA,030007.100,3525.3867,N,13850.9929,E,2,8,1.36,982.6,M,39.1,M,0000,0000*57
$GPGSA,A,3,03,28,22,17,01,11,19,08,,,,,2.02,1.36,1.49*04
$GPGSV,3,1,10,03,69,090,42,28,62,262,38,22,50,057,41,50,46,199,30*7D
$GPGSV,3,2,10,17,42,318,40,01,41,047,39,11,24,081,31,19,21,307,34*7F
$GPGSV,3,3,10,08,11,116,27,30,02,222,*70
$GPRMC,030007.100,A,3525.3867,N,13850.9929,E,21.06,315.61,210720,,,D*52
$GPGGA,030007.200,3525.3871,N,13850.9925,E,2,8,1.36,982.7,M,39.1,M,0000,0000*5E
$GPGSA,A,3,03,28,22,17,01,11,19,08,,,,,2.02,1.36,1.49*04
$GPGSV,3,1,10,03,69,090,42,28,62,262,38,22,50,057,41,50,46,199,29*75
$GPGSV,3,2,10,17,42,318,40,01,41,047,39,11,24,081,31,19,21,307,34*7F
$GPGSV,3,3,10,08,11,116,27,30,02,222,*70
$GPRMC,030007.200,A,3525.3871,N,13850.9925,E,21.01,314.76,210720,,,D*5A
$GPGGA,030007.300,3525.3875,N,13850.9920,E,2,8,1.36,982.8,M,39.1,M,0000,0000*51
$GPGSA,A,3,03,28,22,17,01,11,19,08,,,,,2.02,1.36,1.49*04
$GPGSV,3,1,10,03,69,090,42,28,62,262,38,22,50,057,41,50,46,199,28*74
$GPGSV,3,2,10,17,42,318,40,01,41,047,39,11,24,081,31,19,21,307,34*7F
$GPGSV,3,3,10,08,11,116,27,30,02,222,*70
$GPRMC,030007.300,A,3525.3875,N,13850.9920,E,21.14,315.26,210720,,,D*5A
$GPGGA,030007.400,3525.3879,N,13850.9915,E,2,8,1.36,982.8,M,39.1,M,0000,0000*5C
$GPGSA,A,3,03,28,22,17,01,11,19,08,,,,,2.02,1.36,1.49*04
$GPGSV,3,1,10,03,69,090,42,28,62,262,38,22,50,057,41,50,46,199,27*7B
$GPGSV,3,2,10,17,42,318,40,01,41,047,39,11,24,081,31,19,21,307,34*7F
$GPGSV,3,3,10,08,11,116,27,30,02,222,*70
$GPRMC,030007.400,A,3525.3879,N,13850.9915,E,21.01,315.23,210720,,,D*56
$GPGGA,030007.500,3525.3883,N,13850.9910,E,2,8,1.36,982.9,M,39.1,M,0000,0000*5C
$GPGSA,A,3,03,28,22,17,01,11,19,08,,,,,2.02,1.36,1.49*04
$GPGSV,3,1,10,03,69,090,42,28,62,262,38,22,50,057,40,50,46,199,27*7A
$GPGSV,3,2,10,17,42,318,40,01,41,047,39,11,24,081,31,19,21,307,35*7E
$GPGSV,3,3,10,08,11,116,27,30,02,222,*70
$GPRMC,030007.500,A,3525.3883,N,13850.9910,E,21.15,315.83,210720,,,D*58
$GPGGA,030007.600,3525.3887,N,13850.9905,E,2,8,1.36,982.9,M,39.1,M,0000,0000*5F
$GPGSA,A,3,03,28,22,17,01,11,19,08,,,,,2.02,1.36,1.49*04
$GPGSV,3,1,10,03,69,090,42,28,62,262,38,22,50,057,40,50,46,199,27*7A
$GPGSV,3,2,10,17,42,318,40,01,41,047,39,11,24,081,31,19,21,307,35*7E
$GPGSV,3,3,10,08,11,116,27,30,02,222,*70
$GPRMC,030007.600,A,3525.3887,N,13850.9905,E,21.22,315.72,210720,,,D*51
$GPGGA,030007.700,3525.3891,N,13850.9900,E,2,8,1.36,983.0,M,39.1,M,0000,0000*54
$GPGSA,A,3,03,28,22,17,01,11,19,08,,,,,2.02,1.36,1.49*04
$GPGSV,3,1,10,03,69,090,42,28,62,262,38,22,50,057,40,50,46,199,27*7A
$GPGSV,3,2,10,17,42,318,40,01,41,047,39,11,24,081,31,19,21,307,35*7E
$GPGSV,3,3,10,08,11,116,27,30,02,222,*70
$GPRMC,030007.700,A,3525.3891,N,13850.9900,E,21.05,316.18,210720,,,D*58
$GPGGA,030007.800,3525.3895,N,13850.9895,E,2,8,1.36,983.0,M,39.1,M,0000,0000*52
$GPGSA,A,3,03,28,22,17,01,11,19,08,,,,,2.02,1.36,1.49*04
$GPGSV,3,1,10,03,69,090,42,28,62,262,39,22,50,057,40,50,46,199,27*7B
$GPGSV,3,2,10,17,42,318,40,01,41,047,39,11,24,081,31,19,21,307,35*7E
$GPGSV,3,3,10,08,11,116,27,30,02,222,*70
$GPRMC,030007.800,A,3525.3895,N,13850.9895,E,21.18,316.23,210720,,,D*5A
$GPGGA,030007.900,3525.3899,N,13850.9889,E,2,8,1.36,983.1,M,39.1,M,0000,0000*53
$GPGSA,A,3,03,28,22,17,01,11,19,08,,,,,2.02,1.36,1.49*04
$GPGSV,3,1,10,03,69,090,42,28,62,262,39,22,50,057,40,50,46,199,28*74
$GPGSV,3,2,10,17,42,318,40,01,41,047,39,11,24,081,31,19,21,307,35*7E
$GPGSV,3,3,10,08,11,116,28,30,02,222,*7F
$GPRMC,030007.900,A,3525.3899,N,13850.9889,E,21.17,316.08,210720,,,D*5C
$GPGGA,030008.000,3525.3904,N,13850.9884,E,2,8,1.36,983.1,M,39.1,M,0000,0000*5D
$GPGSA,A,3,03,28,22,17,01,11,19,08,,,,,2.02,1.36,1.49*04
$GPGSV,3,1,10,03,69,090,42,28,62,262,39,22,50,057,40,50,46,199,28*74
$GPGSV,3,2,10,17,42,318,40,01,41,047,39,11,24,081,31,19,21,307,35*7E
$GPGSV,3,3,10,08,11,116,29,30,02,222,*7E
$GPRMC,030008.000,A,3525.3904,N,13850.9884,E,21.22,316.35,210720,,,D*5A
$GPGGA,030008.100,3525.3908,N,13850.9879,E,2,8,1.36,983.2,M,39.1,M,0000,0000*51
$GPGSA,A,3,03,28,22,17,01,11,19,08,,,,,2.02,1.36,1.49*04
$GPGSV,3,1,10,03,69,090,42,28,62,262,39,22,50,057,40,50,46,199,28*74
$GPGSV,3,2,10,17,42,318,40,01,41,047,39,11,24,081,31,19,21,307,35*7E
$GPGSV,3,3,10,08,11,116,29,30,02,222,*7E
$GPRMC,030008.100,A,3525.3908,N,13850.9879,E,21.05,316.93,210720,,,D*5C
$GPGGA,030008.200,3525.3912,N,13850.9874,E,2,8,1.36,983.2,M,39.1,M,0000,0000*54
$GPGSA,A,3,03,28,22,17,01,11,19,08,,,,,2.02,1.36,1.49*04
$GPGSV,3,1,10,03,69,090,42,28,62,262,39,22,50,057,40,50,46,199,28*74
$GPGSV,3,2,10,17,42,318,40,01,41,047,39,11,24,081,30,19,21,307,35*7F
$GPGSV,3,3,10,08,11,116,29,30,02,222,*7E
$GPRMC,030008.200,A,3525.3912,N,13850.9874,E,21.24,316.78,210720,,,D*5F
$GPGGA,030008.300,3525.3917,N,13850.9869,E,2,8,1.36,983.4,M,39.1,M,0000,0000*5A
$GPGSA,A,3,03,28,22,17,01,11,19,08,,,,,2.02,1.36,1.49*04
$GPGSV,3,1,10,03,69,090,42,28,62,262,39,22,50,057,40,50,46,199,28*74
$GPGSV,3,2,10,17,42,318,40,01,41,047,39,11,24,081,30,19,21,307,35*7F
$GPGSV,3,3,10,08,11,116,29,30,02,222,*7E
$GPRMC,030008.300,A,3525.3917,N,13850.9869,E,20.75,317.15,210720,,,D*58
$GPGGA,030008.400,3525.3921,N,13850.9864,E,2,8,1.36,983.5,M,39.1,M,0000,0000*54
$GPGSA,A,3,03,28,22,17,01,11,19,08,,,,,2.02,1.36,1.49*04
$GPGSV,3,1,10,03,69,090,42,28,62,262,39,22,50,057,40,50,46,199,30*7D
$GPGSV,3,2,10,17,42,318,40,01,41,047,39,11,24,081,30,19,21,307,35*7F
$GPGSV,3,3,10,08,11,116,30,30,02,222,*76
$GPRMC,030008.400,A,3525.3921,N,13850.9864,E,20.68,317.71,210720,,,D*59
$GPGGA,030008.500,3525.3925,N,13850.9858,E,2,8,1.54,983.6,M,39.1,M,0000,0000*59
$GPGSA,A,3,03,28,22,17,01,11,19,08,,,,,2.55,1.54,2.03*0F
$GPGSV,3,1,10,03,69,090,42,28,62,262,39,22,50,057,40,50,46,199,31*7C
$GPGSV,3,2,10,17,42,318,40,01,41,047,39,11,24,081,30,19,21,307,35*7F
$GPGSV,3,3,10,08,11,116,30,30,02,222,*76
$GPRMC,030008.500,A,3525.3925,N,13850.9858,E,21.02,317.14,210720,,,D*5D
$GPGGA,030008.600,3525.3929,N,13850.9853,E,2,7,1.54,983.6,M,39.1,M,0000,0000*52
$GPGSA,A,3,03,28,22,17,01,11,08,,,,,,2.55,1.54,2.03*07
$GPGSV,3,1,10,03,69,090,42,28,62,262,39,22,50,057,40,50,46,199,32*7F
$GPGSV,3,2,10,17,42,318,40,01,41,047,39,11,24,081,30,19,21,307,*79
$GPGSV,3,3,10,08,11,116,30,30,02,222,*76
$GPRMC,030008.600,A,3525.3929,N,13850.9853,E,21.27,318.08,210720,,,D*5C
$GPGGA,030008.700,3525.3933,N,13850.9848,E,2,7,1.54,983.7,M,39.1,M,0000,0000*53
$GPGSA,A,3,03,28,22,17,01,11,08,,,,,,2.55,1.54,2.03*07
$GPGSV,3,1,10,03,69,090,42,28,62,262,39,22,50,057,40,50,46,199,33*7E
$GPGSV,3,2,10,17,42,318,40,01,41,047,39,11,24,081,30,19,21,307,*79
$GPGSV,3,3,10,08,11,116,30,30,02,222,*76
$GPRMC,030008.700,A,3525.3933,N,13850.9848,E,21.25,318.28,210720,,,D*5C
$GPGGA,030008.800,3525.3937,N,13850.9843,E,2,7,1.54,983.8,M,39.1,M,0000,0000*5C
$GPGSA,A,3,03,28,22,17,01,11,08,,,,,,2.55,1.54,2.03*07
$GPGSV,3,1,10,03,69,090,42,28,62,262,39,22,50,057,40,50,46,199,33*7E
$GPGSV,3,2,10,17,42,318,40,01,41,047,39,11,24,081,29,19,21,307,*71
$GPGSV,3,3,10,08,11,116,30,30,02,222,*76
$GPRMC,030008.800,A,3525.3937,N,13850.9843,E,21.26,318.55,210720,,,D*55
$GPGGA,030008.900,3525.3942,N,13850.9837,E,2,7,1.54,983.9,M,39.1,M,0000,0000*5D
$GPGSA,A,3,03,28,22,17,01,11,08,,,,,,2.55,1.54,2.03*07
$GPGSV,3,1,10,03,69,090,42,28,62,262,39,22,50,057,40,50,46,199,33*7E
$GPGSV,3,2,10,17,42,318,40,01,41,047,39,11,24,081,28,19,21,307,*70
$GPGSV,3,3,10,08,11,116,30,30,02,222,*76
$GPRMC,030008.900,A,3525.3942,N,13850.9837,E,21.42,318.66,210720,,,D*57
$GPGGA,030009.000,3525.3946,N,13850.9833,E,2,7,1.54,984.0,M,39.1,M,0000,0000*5B
$GPGSA,A,3,03,28,22,17,01,11,08,,,,,,2.55,1.54,2.03*07
$GPGSV,3,1,10,03,69,090,42,28,62,262,38,22,50,057,40,50,46,199,33*7F
$GPGSV,3,2,10,17,42,318,40,01,41,047,39,11,24,081,27,19,21,307,*7F
$GPGSV,3,3,10,08,11,116,30,30,02,222,*76
$GPRMC,030009.000,A,3525.3946,N,13850.9833,E,21.40,319.87,210720,,,D*53
$GPGGA,030009.100,3525.3951,N,13850.9828,E,2,7,1.54,984.0,M,39.1,M,0000,0000*56
$GPGSA,A,3,03,28,22,17,01,11,08,,,,,,2.55,1.54,2.03*07
$GPGSV,3,1,10,03,69,090,42,28,62,262,38,22,50,057,40,50,46,199,33*7F
$GPGSV,3,2,10,17,42,318,40,01,41,047,39,11,24,081,27,19,21,307,*7F
$GPGSV,3,3,10,08,11,116,30,30,02,222,*76
$GPRMC,030009.100,A,3525.3951,N,13850.9828,E,21.63,320.29,210720,,,D*51
$GPGGA,030009.200,3525.3955,N,13850.9823,E,2,7,1.54,984.0,M,39.1,M,0000,0000*5A
$GPGSA,A,3,03,28,22,17,01,11,08,,,,,,2.55,1.54,2.03*07
$GPGSV,3,1,10,03,69,090,42,28,62,262,38,22,50,057,40,50,46,199,33*7F
$GPGSV,3,2,10,17,42,318,40,01,41,047,39,11,24,081,27,19,21,307,*7F
$GPGSV,3,3,10,08,11,116,30,30,02,222,*76
$GPRMC,030009.200,A,3525.3955,N,13850.9823,E,21.57,320.07,210720,,,D*56
$GPGGA,030009.300,3525.3960,N,13850.9818,E,2,7,1.54,983.9,M,39.1,M,0000,0000*5B
$GPGSA,A,3,03,28,22,17,01,11,08,,,,,,2.55,1.54,2.03*07
$GPGSV,3,1,10,03,69,090,42,28,62,262,38,22,50,057,40,50,46,199,33*7F
$GPGSV,3,2,10,17,42,318,40,01,41,047,39,11,24,081,27,19,21,307,*7F
$GPGSV,3,3,10,08,11,116,30,30,02,222,*76
$GPRMC,030009.300,A,3525.3960,N,13850.9818,E,21.48,321.06,210720,,,D*57
$GPGGA,030009.400,3525.3964,N,13850.9814,E,2,7,1.54,983.8,M,39.1,M,0000,0000*55
$GPGSA,A,3,03,28,22,17,01,11,08,,,,,,2.55,1.54,2.03*07
$GPGSV,3,1,10,03,69,090,42,28,62,262,38,22,50,057,40,50,46,199,31*7D
$GPGSV,3,2,10,17,42,318,40,01,41,047,39,11,24,081,25,19,21,307,*7D
$GPGSV,3,3,10,08,11,116,30,30,02,222,*76
$GPRMC,030009.400,A,3525.3964,N,13850.9814,E,21.59,320.80,210720,,,D*57
$GPGGA,030009.500,3525.3969,N,13850.9809,E,2,7,1.54,983.8,M,39.1,M,0000,0000*55
$GPGSA,A,3,03,28,22,17,01,11,08,,,,,,2.55,1.54,2.03*07
$GPGSV,3,1,10,03,69,090,42,28,62,262,39,22,50,057,40,50,46,199,30*7D
$GPGSV,3,2,10,17,42,318,40,01,41,047,39,11,24,081,24,19,21,307,*7C
$GPGSV,3,3,10,08,11,116,30,30,02,222,*76
$GPRMC,030009.500,A,3525.3969,N,13850.9809,E,21.67,321.55,210720,,,D*53
$GPGGA,030009.600,3525.3973,N,13850.9804,E,2,8,1.36,983.7,M,39.1,M,0000,0000*54
$GPGSA,A,3,03,28,22,17,01,11,19,08,,,,,2.02,1.36,1.49*04
$GPGSV,3,1,10,03,69,090,42,28,62,262,40,22,50,057,40,50,46,199,29*7B
$GPGSV,3,2,10,17,42,318,40,01,41,047,39,11,24,081,23,19,21,307,27*7E
$GPGSV,3,3,10,08,11,116,28,30,02,222,*7F
