$GPGGA,054348.500,3523.7527,N,13851.9383,E,2,9,1.05,1088.1,M,39.1,M,0000,0000*6D
$GPGSA,A,3,19,06,17,02,09,04,03,12,05,,,,1.63,1.05,1.24*07
$GPGSV,3,1,11,19,79,204,46,06,61,341,39,17,61,166,44,09,55,112,45*7E
$GPGSV,3,2,11,50,47,199,36,04,36,061,44,02,30,305,34,12,15,303,29*70
$GPGSV,3,3,11,05,13,243,29,03,08,052,21,28,04,192,*4B
$GPRMC,054348.500,A,3523.7527,N,13851.9383,E,23.34,38.05,210720,,,D*61
$GPGGA,054348.600,3523.7532,N,13851.9388,E,2,9,1.05,1088.0,M,39.1,M,0000,0000*60
$GPGSA,A,3,19,06,17,02,09,04,03,12,05,,,,1.63,1.05,1.24*07
$GPGSV,3,1,11,19,79,204,45,06,61,341,38,17,61,166,44,09,55,112,45*7C
$GPGSV,3,2,11,50,47,199,36,04,36,061,44,02,30,305,34,12,15,303,29*70
$GPGSV,3,3,11,05,13,243,29,03,08,052,21,28,04,192,*4B
$GPRMC,054348.600,A,3523.7532,N,13851.9388,E,23.33,38.13,210720,,,D*6D
$GPGGA,054348.700,3523.7537,N,13851.9393,E,2,9,1.05,1087.9,M,39.1,M,0000,0000*68
$GPGSA,A,3,19,06,17,02,09,04,03,12,05,,,,1.63,1.05,1.24*07
$GPGSV,3,1,11,19,79,204,44,06,61,341,37,17,61,166,44,09,55,112,45*72
$GPGSV,3,2,11,50,47,199,36,04,36,061,44,02,30,305,34,12,15,303,28*71
$GPGSV,3,3,11,05,13,243,29,03,08,052,21,28,04,192,*4B
$GPRMC,054348.700,A,3523.7537,N,13851.9393,E,23.36,37.96,210720,,,D*64
$GPGGA,054348.800,3523.7542,N,13851.9398,E,2,9,1.05,1088.1,M,39.1,M,0000,0000*69
$GPGSA,A,3,19,06,17,02,09,04,03,12,05,,,,1.63,1.05,1.24*07
$GPGSV,3,1,11,19,79,204,44,06,61,341,37,17,61,166,44,09,55,112,45*72
$GPGSV,3,2,11,50,47,199,37,04,36,061,44,02,30,305,34,12,15,303,28*70
$GPGSV,3,3,11,05,13,243,29,03,08,052,23,28,04,192,*49
$GPRMC,054348.800,A,3523.7542,N,13851.9398,E,23.19,38.20,210720,,,D*6D
$GPGGA,054348.900,3523.7548,N,13851.9402,E,2,9,1.05,1088.0,M,39.1,M,0000,0000*67
$GPGSA,A,3,19,06,17,02,09,04,03,12,05,,,,1.63,1.05,1.24*07
$GPGSV,3,1,11,19,79,204,44,06,61,341,37,17,61,166,44,09,55,112,45*72
$GPGSV,3,2,11,50,47,199,37,04,36,061,44,02,30,305,35,12,15,303,28*71
$GPGSV,3,3,11,05,13,243,29,03,08,052,24,28,04,192,*4E
$GPRMC,054348.900,A,3523.7548,N,13851.9402,E,23.42,38.53,210720,,,D*68
$GPGGA,054349.100,3523.7558,N,13851.9412,E,2,9,1.05,1088.0,M,39.1,M,0000,0000*6E
$GPGSA,A,3,19,06,17,02,09,04,03,12,05,,,,1.63,1.05,1.24*07
$GPGSV,3,1,11,19,79,204,44,06,61,341,37,17,61,166,44,09,55,112,45*72
$GPGSV,3,2,11,50,47,199,37,04,36,061,45,02,30,305,35,12,15,303,28*70
$GPGSV,3,3,11,05,13,243,26,03,08,052,25,28,04,192,*40
$GPRMC,054349.100,A,3523.7558,N,13851.9412,E,23.50,38.85,210720,,,D*69
$GPGGA,054349.200,3523.7563,N,13851.9417,E,2,9,1.05,1088.0,M,39.1,M,0000,0000*60
$GPGSA,A,3,19,06,17,02,09,04,03,12,05,,,,1.63,1.05,1.24*07
$GPGSV,3,1,11,19,79,204,44,06,61,341,37,17,61,166,44,09,55,112,45*72
$GPGSV,3,2,11,50,47,199,37,04,36,061,45,02,30,305,35,12,15,303,28*70
$GPGSV,3,3,11,05,13,243,25,03,08,052,25,28,04,192,*43
$GPRMC,054349.200,A,3523.7563,N,13851.9417,E,23.64,39.63,210720,,,D*69
$GPGGA,054349.300,3523.7568,N,13851.9422,E,2,9,1.05,1088.0,M,39.1,M,0000,0000*6C
$GPGSA,A,3,19,06,17,02,09,04,03,12,05,,,,1.63,1.05,1.24*07
$GPGSV,3,1,11,19,79,204,44,06,61,341,38,17,61,166,44,09,55,112,45*7D
$GPGSV,3,2,11,50,47,199,37,04,36,061,45,02,30,305,35,12,15,303,28*70
$GPGSV,3,3,11,05,13,243,25,03,08,052,25,28,04,192,*43
$GPRMC,054349.300,A,3523.7568,N,13851.9422,E,23.43,39.47,210720,,,D*66
$GPGGA,054349.400,3523.7573,N,13851.9427,E,2,8,1.13,1088.1,M,39.1,M,0000,0000*63
$GPGSA,A,3,19,06,17,02,09,04,03,05,,,,,1.70,1.13,1.27*02
$GPGSV,3,1,11,19,79,204,45,06,61,341,40,17,61,166,44,09,55,112,45*73
$GPGSV,3,2,11,50,47,199,37,04,36,061,45,02,30,305,35,12,15,303,27*7F
$GPGSV,3,3,11,05,13,244,25,03,08,052,25,28,04,192,*44
$GPRMC,054349.400,A,3523.7573,N,13851.9427,E,23.43,40.05,210720,,,D*66
$GPGGA,054349.500,3523.7579,N,13851.9432,E,2,8,1.13,1088.1,M,39.1,M,0000,0000*6C
$GPGSA,A,3,19,06,17,02,09,04,03,05,,,,,1.70,1.13,1.27*02
$GPGSV,3,1,11,19,79,204,45,06,61,341,41,17,61,166,44,09,55,112,45*72
$GPGSV,3,2,11,50,47,199,36,04,36,061,44,02,30,305,34,12,15,303,26*7F
$GPGSV,3,3,11,05,13,244,25,03,08,052,25,28,04,192,*44
$GPRMC,054349.500,A,3523.7579,N,13851.9432,E,23.54,40.07,210720,,,D*6D
$GPGGA,054349.600,3523.7583,N,13851.9438,E,2,7,1.71,1088.1,M,39.1,M,0000,0000*6B
$GPGSA,A,3,19,06,17,02,09,04,03,,,,,,2.83,1.71,2.26*0E
$GPGSV,3,1,11,19,79,204,45,06,61,341,42,17,61,166,44,09,55,112,45*71
$GPGSV,3,2,11,50,47,199,36,04,36,061,44,02,30,305,34,12,15,303,26*7F
$GPGSV,3,3,11,05,13,244,25,03,08,052,25,28,04,192,*44
$GPRMC,054349.600,A,3523.7583,N,13851.9438,E,23.71,41.46,210720,,,D*62
$GPGGA,054349.700,3523.7588,N,13851.9443,E,2,7,1.71,1088.2,M,39.1,M,0000,0000*6E
$GPGSA,A,3,19,06,17,02,09,04,03,,,,,,2.83,1.71,2.25*0D
$GPGSV,3,1,11,19,79,204,45,06,61,341,43,17,61,166,44,09,55,112,45*70
$GPGSV,3,2,11,50,47,199,36,04,36,061,44,02,30,305,34,12,15,303,26*7F
$GPGSV,3,3,11,05,13,244,25,03,08,052,25,28,04,192,*44
$GPRMC,054349.700,A,3523.7588,N,13851.9443,E,23.93,41.48,210720,,,D*66
$GPGGA,054349.800,3523.7593,N,13851.9448,E,2,7,1.71,1088.1,M,39.1,M,0000,0000*63
$GPGSA,A,3,19,06,17,02,09,04,03,,,,,,2.83,1.71,2.25*0D
$GPGSV,3,1,11,19,79,204,45,06,61,341,43,17,61,166,44,09,55,112,45*70
$GPGSV,3,2,11,50,47,199,36,04,36,061,44,02,30,305,34,12,15,303,26*7F
$GPGSV,3,3,11,05,13,244,25,03,08,052,25,28,04,192,*44
$GPRMC,054349.800,A,3523.7593,N,13851.9448,E,23.49,41.55,210720,,,D*63
$GPGGA,054349.900,3523.7598,N,13851.9453,E,2,7,1.71,1088.0,M,39.1,M,0000,0000*62
$GPGSA,A,3,19,06,17,02,09,04,03,,,,,,2.83,1.71,2.26*0E
$GPGSV,3,1,11,19,79,204,45,06,61,341,43,17,61,166,44,09,55,112,45*70
$GPGSV,3,2,11,50,47,199,36,04,36,061,43,02,30,305,34,12,15,303,26*78
$GPGSV,3,3,11,05,13,244,25,03,08,052,25,28,04,192,*44
$GPRMC,054349.900,A,3523.7598,N,13851.9453,E,23.28,41.95,210720,,,D*68
$GPGGA,054350.000,3523.7603,N,13851.9459,E,2,8,1.13,1088.1,M,39.1,M,0000,0000*62
$GPGSA,A,3,19,06,17,02,09,04,03,05,,,,,1.70,1.13,1.26*03
$GPGSV,3,1,11,19,79,204,45,06,61,341,43,17,61,166,44,09,55,112,36*74
$GPGSV,3,2,11,50,47,199,36,04,36,061,43,02,30,305,34,12,15,303,25*7B
$GPGSV,3,3,11,05,13,244,25,03,08,052,25,28,04,192,*44
$GPRMC,054350.000,A,3523.7603,N,13851.9459,E,23.75,43.97,210720,,,D*6A
$GPGGA,054350.100,3523.7608,N,13851.9465,E,2,8,1.13,1088.2,M,39.1,M,0000,0000*64
$GPGSA,A,3,19,06,17,02,09,04,03,05,,,,,1.70,1.13,1.27*02
$GPGSV,3,1,11,19,79,204,45,06,61,341,43,17,61,166,44,09,55,112,36*74
$GPGSV,3,2,11,50,47,199,36,04,36,061,42,02,30,305,32,12,15,303,24*7D
$GPGSV,3,3,11,05,13,244,25,03,08,052,24,28,04,192,*45
$GPRMC,054350.100,A,3523.7608,N,13851.9465,E,24.12,44.19,210720,,,D*68
$GPGGA,054350.200,3523.7612,N,13851.9471,E,2,8,1.13,1088.2,M,39.1,M,0000,0000*69
$GPGSA,A,3,19,06,17,02,09,04,03,05,,,,,1.70,1.13,1.27*02
$GPGSV,3,1,11,19,79,204,45,06,61,341,42,17,61,166,44,09,55,112,37*74
$GPGSV,3,2,11,50,47,199,36,04,36,061,42,02,30,305,31,12,15,303,23*79
$GPGSV,3,3,11,05,13,244,24,03,08,052,24,28,04,192,*44
$GPRMC,054350.200,A,3523.7612,N,13851.9471,E,24.09,45.21,210720,,,D*65
$GPGGA,054350.300,3523.7617,N,13851.9477,E,2,8,1.13,1088.3,M,39.1,M,0000,0000*6A
$GPGSA,A,3,19,06,17,02,09,04,03,05,,,,,1.70,1.13,1.27*02
$GPGSV,3,1,11,19,79,204,45,06,61,341,42,17,61,166,44,09,55,112,38*7B
$GPGSV,3,2,11,50,47,199,36,04,36,061,41,02,30,305,30,12,15,303,23*7B
$GPGSV,3,3,11,05,13,244,23,03,08,052,24,28,04,192,*43
$GPRMC,054350.300,A,3523.7617,N,13851.9477,E,24.04,44.43,210720,,,D*6F
$GPGGA,054350.400,3523.7622,N,13851.9483,E,2,7,1.71,1088.2,M,39.1,M,0000,0000*6A
$GPGSA,A,3,19,06,17,02,09,04,03,,,,,,2.83,1.71,2.25*0D
$GPGSV,3,1,11,19,79,204,45,06,61,341,42,17,61,166,44,09,55,112,40*74
$GPGSV,3,2,11,50,47,199,36,04,36,061,41,02,30,305,30,12,15,303,23*7B
$GPGSV,3,3,11,05,13,244,23,03,08,052,24,28,04,192,*43
$GPRMC,054350.400,A,3523.7622,N,13851.9483,E,24.24,44.94,210720,,,D*6D
$GPGGA,054350.500,3523.7627,N,13851.9488,E,2,7,1.71,1088.2,M,39.1,M,0000,0000*65
$GPGSA,A,3,19,06,17,02,09,04,03,,,,,,2.83,1.71,2.25*0D
$GPGSV,3,1,11,19,79,204,46,06,61,341,42,17,61,166,44,09,55,112,41*76
$GPGSV,3,2,11,50,47,199,36,04,36,061,41,02,30,305,30,12,15,303,23*7B
$GPGSV,3,3,11,05,13,244,23,03,08,052,24,28,04,192,*43
$GPRMC,054350.500,A,3523.7627,N,13851.9488,E,23.71,45.39,210720,,,D*63
$GPGGA,054350.600,3523.7632,N,13851.9494,E,2,7,1.71,1088.1,M,39.1,M,0000,0000*6C
$GPGSA,A,3,19,06,17,02,09,04,03,,,,,,2.83,1.71,2.25*0D
$GPGSV,3,1,11,19,79,204,46,06,61,341,42,17,61,166,44,09,55,112,42*75
$GPGSV,3,2,11,50,47,199,36,04,36,061,40,02,30,305,30,12,15,303,23*7A
$GPGSV,3,3,11,05,13,244,23,03,08,052,24,28,04,192,*43
$GPRMC,054350.600,A,3523.7632,N,13851.9494,E,24.03,45.31,210720,,,D*63
$GPGGA,054350.700,3523.7637,N,13851.9499,E,2,8,1.13,1088.0,M,39.1,M,0000,0000*6F
$GPGSA,A,3,19,06,17,02,09,04,03,05,,,,,1.70,1.13,1.27*02
$GPGSV,3,1,11,19,79,204,46,06,61,341,41,17,61,166,43,09,55,112,43*70
$GPGSV,3,2,11,50,47,199,36,04,36,061,40,02,30,305,30,12,15,303,23*7A
$GPGSV,3,3,11,05,13,244,23,03,08,052,24,28,04,192,*43
$GPRMC,054350.700,A,3523.7637,N,13851.9499,E,24.08,46.07,210720,,,D*67
$GPGGA,054350.800,3523.7642,N,13851.9505,E,2,8,1.13,1088.0,M,39.1,M,0000,0000*66
$GPGSA,A,3,19,06,17,02,09,04,03,05,,,,,1.70,1.13,1.27*02
$GPGSV,3,1,11,19,79,203,46,06,61,341,40,17,61,166,43,09,55,112,42*77
$GPGSV,3,2,11,50,47,199,37,04,36,061,40,02,30,305,29,12,15,303,23*73
$GPGSV,3,3,11,05,13,244,23,03,08,052,24,28,04,192,*43
$GPRMC,054350.800,A,3523.7642,N,13851.9505,E,23.85,46.27,210720,,,D*6E
$GPGGA,054350.900,3523.7646,N,13851.9511,E,2,8,1.13,1088.1,M,39.1,M,0000,0000*67
$GPGSA,A,3,19,06,17,02,09,04,03,05,,,,,1.70,1.13,1.27*02
$GPGSV,3,1,11,19,79,203,46,06,61,341,40,17,61,166,43,09,55,112,42*77
$GPGSV,3,2,11,50,47,199,38,04,36,061,40,02,30,305,28,12,15,303,23*7D
$GPGSV,3,3,11,05,13,244,23,03,08,052,24,28,04,192,*43
$GPRMC,054350.900,A,3523.7646,N,13851.9511,E,24.32,47.14,210720,,,D*64
$GPGGA,054351.000,3523.7651,N,13851.9517,E,2,8,1.13,1088.1,M,39.1,M,0000,0000*6F
$GPGSA,A,3,19,06,17,02,09,04,03,05,,,,,1.70,1.13,1.26*03
$GPGSV,3,1,11,19,79,203,46,06,61,341,40,17,61,166,44,09,55,112,42*70
$GPGSV,3,2,11,50,47,199,38,04,36,061,40,02,30,305,27,12,15,303,23*72
$GPGSV,3,3,11,05,13,244,23,03,08,052,24,28,04,192,*43
$GPRMC,054351.000,A,3523.7651,N,13851.9517,E,24.24,47.38,210720,,,D*65
$GPGGA,054351.100,3523.7656,N,13851.9523,E,2,8,1.13,1088.1,M,39.1,M,0000,0000*6E
$GPGSA,A,3,19,06,17,02,09,04,03,05,,,,,1.70,1.13,1.27*02
$GPGSV,3,1,11,19,79,203,46,06,61,341,40,17,61,166,44,09,55,112,43*71
$GPGSV,3,2,11,50,47,199,38,04,36,061,40,02,30,305,27,12,15,303,23*72
$GPGSV,3,3,11,05,13,244,23,03,08,052,24,28,04,192,*43
$GPRMC,054351.100,A,3523.7656,N,13851.9523,E,24.21,47.47,210720,,,D*69
$GPGGA,054351.200,3523.7661,N,13851.9529,E,2,8,1.13,1088.0,M,39.1,M,0000,0000*62
$GPGSA,A,3,19,06,17,02,09,04,03,05,,,,,1.70,1.13,1.26*03
$GPGSV,3,1,11,19,79,203,46,06,61,341,40,17,61,166,44,09,55,112,44*76
$GPGSV,3,2,11,50,47,199,37,04,36,061,40,02,30,305,27,12,15,303,23*7D
$GPGSV,3,3,11,05,13,244,23,03,08,052,24,28,04,192,*43
$GPRMC,054351.200,A,3523.7661,N,13851.9529,E,24.04,47.45,210720,,,D*61
$GPGGA,054351.300,3523.7666,N,13851.9535,E,2,8,1.13,1088.0,M,39.1,M,0000,0000*69
$GPGSA,A,3,19,06,17,02,09,04,03,05,,,,,1.70,1.13,1.27*02
$GPGSV,3,1,11,19,79,203,46,06,61,341,40,17,61,166,44,09,55,112,45*77
$GPGSV,3,2,11,50,47,199,36,04,36,061,40,02,30,305,27,12,15,303,22*7D
$GPGSV,3,3,11,05,13,244,23,03,08,052,24,28,04,192,*43
$GPRMC,054351.300,A,3523.7666,N,13851.9535,E,24.09,47.62,210720,,,D*62
$GPGGA,054351.400,3523.7670,N,13851.9540,E,2,7,1.71,1088.0,M,39.1,M,0000,0000*60
$GPGSA,A,3,19,06,17,02,09,04,03,,,,,,2.83,1.71,2.25*0D
$GPGSV,3,1,11,19,79,203,46,06,61,341,41,17,61,166,44,09,55,112,46*75
$GPGSV,3,2,11,50,47,199,36,04,36,061,40,02,30,305,27,12,15,303,22*7D
$GPGSV,3,3,11,05,13,244,23,03,08,052,24,28,04,192,*43
$GPRMC,054351.400,A,3523.7670,N,13851.9540,E,24.14,47.49,210720,,,D*65
$GPGGA,054351.500,3523.7675,N,13851.9546,E,2,7,1.71,1087.9,M,39.1,M,0000,0000*64
$GPGSA,A,3,19,06,17,02,09,04,03,,,,,,2.83,1.71,2.26*0E
$GPGSV,3,1,11,19,79,203,46,06,61,341,42,17,61,166,44,09,55,112,46*76
$GPGSV,3,2,11,50,47,199,36,04,36,061,40,02,30,305,27,12,15,303,22*7D
$GPGSV,3,3,11,05,13,244,23,03,08,052,24,28,04,192,*43
$GPRMC,054351.500,A,3523.7675,N,13851.9546,E,24.29,47.82,210720,,,D*6E
$GPGGA,054351.600,3523.7680,N,13851.9552,E,2,7,1.71,1087.9,M,39.1,M,0000,0000*68
$GPGSA,A,3,19,06,17,02,09,04,03,,,,,,2.83,1.71,2.25*0D
$GPGSV,3,1,11,19,79,203,46,06,61,341,43,17,61,166,44,09,55,112,46*77
$GPGSV,3,2,11,50,47,199,36,04,36,061,40,02,30,305,27,12,15,303,22*7D
$GPGSV,3,3,11,05,13,244,23,03,08,052,24,28,04,192,*43
$GPRMC,054351.600,A,3523.7680,N,13851.9552,E,24.35,48.19,210720,,,D*62
$GPGGA,054351.700,3523.7685,N,13851.9558,E,2,7,1.71,1087.9,M,39.1,M,0000,0000*66
$GPGSA,A,3,19,06,17,02,09,04,03,,,,,,2.83,1.71,2.25*0D
$GPGSV,3,1,11,19,79,203,46,06,61,341,44,17,61,166,44,09,55,112,45*73
$GPGSV,3,2,11,50,47,199,36,04,36,061,40,02,30,305,27,12,15,303,22*7D
$GPGSV,3,3,11,05,13,244,22,03,08,052,24,28,04,192,*42
$GPRMC,054351.700,A,3523.7685,N,13851.9558,E,23.84,48.31,210720,,,D*6B
$GPGGA,054351.800,3523.7689,N,13851.9564,E,2,7,1.71,1087.9,M,39.1,M,0000,0000*6A
$GPGSA,A,3,19,06,17,02,09,04,03,,,,,,2.83,1.71,2.25*0D
$GPGSV,3,1,11,19,79,203,46,06,61,341,44,17,61,166,44,09,55,112,45*73
$GPGSV,3,2,11,50,47,199,36,04,36,061,40,02,30,305,27,12,15,303,22*7D
$GPGSV,3,3,11,05,13,244,21,03,08,052,24,28,04,192,*41
$GPRMC,054351.800,A,3523.7689,N,13851.9564,E,23.91,48.91,210720,,,D*69
$GPGGA,054351.900,3523.7694,N,13851.9569,E,2,7,1.71,1087.8,M,39.1,M,0000,0000*6B
$GPGSA,A,3,19,06,17,02,09,04,03,,,,,,2.83,1.71,2.25*0D
$GPGSV,3,1,11,19,79,203,46,06,61,341,44,17,61,166,44,09,55,112,45*73
$GPGSV,3,2,11,50,47,199,37,04,36,061,40,02,30,305,27,12,15,303,22*7C
$GPGSV,3,3,11,05,13,244,21,03,08,052,24,28,04,192,*41
$GPRMC,054351.900,A,3523.7694,N,13851.9569,E,24.36,48.67,210720,,,D*6A
$GPGGA,054352.000,3523.7699,N,13851.9574,E,2,8,1.13,1087.8,M,39.1,M,0000,0000*6B
$GPGSA,A,3,19,06,17,02,09,04,03,05,,,,,1.70,1.13,1.27*02
$GPGSV,3,1,11,19,79,203,46,06,61,341,42,17,61,166,44,09,55,112,45*75
$GPGSV,3,2,11,50,47,199,37,04,36,061,40,02,30,305,27,12,15,303,22*7C
$GPGSV,3,3,11,05,13,244,21,03,08,052,24,28,04,192,*41
$GPRMC,054352.000,A,3523.7699,N,13851.9574,E,24.13,48.40,210720,,,D*63
$GPGGA,054352.100,3523.7703,N,13851.9580,E,2,8,1.13,1087.6,M,39.1,M,0000,0000*6D
$GPGSA,A,3,19,06,17,02,09,04,03,05,,,,,1.70,1.13,1.26*03
$GPGSV,3,1,11,19,79,203,46,06,61,341,41,17,61,166,44,09,55,112,45*76
$GPGSV,3,2,11,50,47,199,37,04,36,061,40,02,30,305,27,12,15,303,22*7C
$GPGSV,3,3,11,05,13,244,21,03,08,052,24,28,04,192,*41
$GPRMC,054352.100,A,3523.7703,N,13851.9580,E,24.20,48.06,210720,,,D*69
$GPGGA,054352.200,3523.7707,N,13851.9586,E,2,7,1.71,1087.7,M,39.1,M,0000,0000*66
$GPGSA,A,3,19,06,17,02,09,04,03,,,,,,2.83,1.71,2.25*0D
$GPGSV,3,1,11,19,79,203,46,06,61,341,42,17,61,166,44,09,55,112,44*74
$GPGSV,3,2,11,50,47,199,37,04,36,061,40,02,30,305,27,12,15,303,22*7C
$GPGSV,3,3,11,05,13,244,21,03,08,052,24,28,04,192,*41
$GPRMC,054352.200,A,3523.7707,N,13851.9586,E,24.03,48.48,210720,,,D*63
$GPGGA,054352.300,3523.7712,N,13851.9592,E,2,7,1.71,1087.9,M,39.1,M,0000,0000*68
$GPGSA,A,3,19,06,17,02,09,04,03,,,,,,2.83,1.71,2.26*0E
$GPGSV,3,1,11,19,79,203,46,06,61,341,43,17,61,166,44,09,55,112,44*75
$GPGSV,3,2,11,50,47,199,37,04,36,061,40,02,30,305,27,12,15,303,22*7C
$GPGSV,3,3,11,05,13,244,21,03,08,052,24,28,04,192,*41
$GPRMC,054352.300,A,3523.7712,N,13851.9592,E,23.45,48.68,210720,,,D*64
$GPGGA,054352.400,3523.7716,N,13851.9597,E,2,7,1.71,1087.9,M,39.1,M,0000,0000*6E
$GPGSA,A,3,19,06,17,02,09,04,03,,,,,,2.83,1.71,2.25*0D
$GPGSV,3,1,11,19,79,203,46,06,61,341,43,17,61,166,44,09,55,112,44*75
$GPGSV,3,2,11,50,47,199,37,04,36,061,40,02,30,305,27,12,15,303,22*7C
$GPGSV,3,3,11,05,13,244,21,03,08,052,24,28,04,192,*41
$GPRMC,054352.400,A,3523.7716,N,13851.9597,E,22.74,48.87,210720,,,D*60
$GPGGA,054352.500,3523.7721,N,13851.9603,E,2,7,1.71,1087.8,M,39.1,M,0000,0000*64
$GPGSA,A,3,19,06,17,02,09,04,03,,,,,,2.83,1.71,2.25*0D
$GPGSV,3,1,11,19,79,203,46,06,61,341,42,17,61,166,44,09,55,112,45*75
$GPGSV,3,2,11,50,47,199,37,04,36,061,39,02,30,305,27,12,15,303,22*72
$GPGSV,3,3,11,05,13,244,21,03,08,052,24,28,04,192,*41
$GPRMC,054352.500,A,3523.7721,N,13851.9603,E,24.22,48.67,210720,,,D*60
$GPGGA,054352.600,3523.7725,N,13851.9608,E,2,7,1.71,1087.6,M,39.1,M,0000,0000*66
$GPGSA,A,3,19,06,17,02,09,04,03,,,,,,2.83,1.71,2.25*0D
$GPGSV,3,1,11,19,79,203,46,06,61,341,42,17,61,166,44,09,55,112,45*75
$GPGSV,3,2,11,50,47,199,37,04,36,061,38,02,30,305,28,12,15,303,22*7C
$GPGSV,3,3,11,05,13,244,21,03,08,052,24,28,04,192,*41
$GPRMC,054352.600,A,3523.7725,N,13851.9608,E,24.24,48.85,210720,,,D*66
$GPGGA,054352.700,3523.7730,N,13851.9614,E,2,8,1.13,1087.6,M,39.1,M,0000,0000*65
$GPGSA,A,3,19,06,17,02,09,04,03,05,,,,,1.70,1.13,1.27*02
$GPGSV,3,1,11,19,79,203,46,06,61,341,41,17,61,166,43,09,55,112,45*71
$GPGSV,3,2,11,50,47,199,37,04,36,061,37,02,30,305,28,12,15,303,22*73
$GPGSV,3,3,11,05,13,244,21,03,08,052,24,28,04,192,*41
$GPRMC,054352.700,A,3523.7730,N,13851.9614,E,23.61,48.54,210720,,,D*64
$GPGGA,054352.800,3523.7734,N,13851.9619,E,2,8,1.13,1087.6,M,39.1,M,0000,0000*63
$GPGSA,A,3,19,06,17,02,09,04,03,05,,,,,1.70,1.13,1.26*03
$GPGSV,3,1,11,19,79,203,46,06,61,341,40,17,61,166,43,09,55,112,45*70
$GPGSV,3,2,11,50,47,199,37,04,36,061,38,02,30,305,28,12,15,303,22*7C
$GPGSV,3,3,11,05,13,244,21,03,08,052,24,28,04,192,*41
$GPRMC,054352.800,A,3523.7734,N,13851.9619,E,23.65,48.60,210720,,,D*61
$GPGGA,054352.900,3523.7739,N,13851.9625,E,2,8,1.13,1087.6,M,39.1,M,0000,0000*60
$GPGSA,A,3,19,06,17,02,09,04,03,05,,,,,1.70,1.13,1.26*03
$GPGSV,3,1,11,19,79,203,46,06,61,341,40,17,61,166,43,09,55,112,45*70
$GPGSV,3,2,11,50,47,199,37,04,36,061,38,02,30,305,28,12,15,303,22*7C
$GPGSV,3,3,11,05,13,244,21,03,08,052,23,28,04,192,*46
$GPRMC,054352.900,A,3523.7739,N,13851.9625,E,23.81,48.85,210720,,,D*63
$GPGGA,054353.000,3523.7743,N,13851.9631,E,2,8,1.13,1087.6,M,39.1,M,0000,0000*60
$GPGSA,A,3,19,06,17,02,09,04,03,05,,,,,1.70,1.13,1.27*02
$GPGSV,3,1,11,19,79,203,46,06,61,341,40,17,61,166,43,09,55,112,45*70
$GPGSV,3,2,11,50,47,199,37,04,36,061,38,02,30,305,28,12,15,303,22*7C
$GPGSV,3,3,11,05,13,244,21,03,08,052,22,28,04,192,*47
$GPRMC,054353.000,A,3523.7743,N,13851.9631,E,23.52,49.33,210720,,,D*61
$GPGGA,054353.100,3523.7747,N,13851.9637,E,2,8,1.13,1087.4,M,39.1,M,0000,0000*61
$GPGSA,A,3,19,06,17,02,09,04,03,05,,,,,1.70,1.13,1.27*02
$GPGSV,3,1,11,19,79,203,45,06,61,341,39,17,61,166,43,09,55,112,45*7D
$GPGSV,3,2,11,50,47,199,37,04,36,061,39,02,30,305,28,12,15,303,22*7D
$GPGSV,3,3,11,05,13,244,21,03,08,052,22,28,04,192,*47
$GPRMC,054353.100,A,3523.7747,N,13851.9637,E,24.06,50.41,210720,,,D*69
$GPGGA,054353.200,3523.7751,N,13851.9643,E,2,8,1.13,1087.4,M,39.1,M,0000,0000*66
$GPGSA,A,3,19,06,17,02,09,04,03,05,,,,,1.70,1.13,1.26*03
$GPGSV,3,1,11,19,79,203,45,06,61,341,39,17,61,166,43,09,55,112,45*7D
$GPGSV,3,2,11,50,47,199,37,04,36,061,39,02,30,305,28,12,15,303,22*7D
$GPGSV,3,3,11,05,13,244,21,03,08,052,22,28,04,192,*47
$GPRMC,054353.200,A,3523.7751,N,13851.9643,E,23.79,50.75,210720,,,D*66
$GPGGA,054353.300,3523.7756,N,13851.9649,E,2,7,1.71,1087.4,M,39.1,M,0000,0000*61
$GPGSA,A,3,19,06,17,02,09,04,03,,,,,,2.83,1.71,2.25*0D
$GPGSV,3,1,11,19,79,203,45,06,61,341,40,17,61,166,43,09,55,112,45*73
$GPGSV,3,2,11,50,47,199,37,04,36,061,39,02,30,305,29,12,15,303,22*7C
$GPGSV,3,3,11,05,13,244,21,03,08,052,22,28,04,192,*47
$GPRMC,054353.300,A,3523.7756,N,13851.9649,E,23.83,50.26,210720,,,D*69
$GPGGA,054353.400,3523.7761,N,13851.9654,E,2,7,1.71,1087.3,M,39.1,M,0000,0000*69
$GPGSA,A,3,19,06,17,02,09,04,03,,,,,,2.83,1.71,2.25*0D
$GPGSV,3,1,11,19,79,203,44,06,61,341,41,17,61,166,43,09,55,112,45*73
$GPGSV,3,2,11,50,47,199,37,04,36,061,40,02,30,305,30,12,15,303,22*7A
$GPGSV,3,3,11,05,13,244,21,03,08,052,22,28,04,192,*47
$GPRMC,054353.400,A,3523.7761,N,13851.9654,E,23.87,49.00,210720,,,D*6E
$GPGGA,054353.500,3523.7766,N,13851.9661,E,2,7,1.71,1087.4,M,39.1,M,0000,0000*6E
$GPGSA,A,3,19,06,17,02,09,04,03,,,,,,2.83,1.71,2.25*0D
$GPGSV,3,1,11,19,79,203,45,06,61,341,42,17,61,166,43,09,55,112,44*70
$GPGSV,3,2,11,50,47,199,37,04,36,061,40,02,30,305,31,12,15,303,22*7B
$GPGSV,3,3,11,05,13,244,21,03,08,052,22,28,04,192,*47
$GPRMC,054353.500,A,3523.7766,N,13851.9661,E,23.92,47.96,210720,,,D*6B
$GPGGA,054353.600,3523.7770,N,13851.9667,E,2,7,1.71,1087.4,M,39.1,M,0000,0000*6C
$GPGSA,A,3,19,06,17,02,09,04,03,,,,,,2.83,1.71,2.25*0D
$GPGSV,3,1,11,19,79,203,45,06,61,341,41,17,61,166,43,09,55,112,44*73
$GPGSV,3,2,11,50,47,199,37,04,36,061,40,02,30,305,31,12,15,303,22*7B
$GPGSV,3,3,11,05,13,244,21,03,08,052,21,28,04,192,*44
$GPRMC,054353.600,A,3523.7770,N,13851.9667,E,23.88,47.21,210720,,,D*6E
$GPGGA,054353.700,3523.7775,N,13851.9672,E,2,7,1.71,1087.5,M,39.1,M,0000,0000*6D
$GPGSA,A,3,19,06,17,02,09,04,03,,,,,,2.83,1.71,2.25*0D
$GPGSV,3,1,11,19,79,203,46,06,61,341,41,17,61,166,43,09,55,112,44*70
$GPGSV,3,2,11,50,47,199,37,04,36,061,40,02,30,305,31,12,15,303,22*7B
$GPGSV,3,3,11,05,13,244,21,03,08,052,21,28,04,192,*44
$GPRMC,054353.700,A,3523.7775,N,13851.9672,E,23.87,46.34,210720,,,D*64
$GPGGA,054353.800,3523.7780,N,13851.9678,E,2,7,1.71,1087.4,M,39.1,M,0000,0000*63
$GPGSA,A,3,19,06,17,02,09,04,03,,,,,,2.83,1.71,2.25*0D
$GPGSV,3,1,11,19,79,203,46,06,61,341,41,17,61,166,43,09,55,112,44*70
$GPGSV,3,2,11,50,47,199,37,04,36,061,40,02,30,305,31,12,15,303,22*7B
$GPGSV,3,3,11,05,13,244,21,03,08,052,21,28,04,192,*44
$GPRMC,054353.800,A,3523.7780,N,13851.9678,E,23.57,45.63,210720,,,D*67
$GPGGA,054353.900,3523.7785,N,13851.9683,E,2,7,1.71,1087.3,M,39.1,M,0000,0000*64
$GPGSA,A,3,19,06,17,02,09,04,03,,,,,,2.83,1.71,2.25*0D
$GPGSV,3,1,11,19,79,203,46,06,61,341,41,17,61,166,43,09,55,112,44*70
$GPGSV,3,2,11,50,47,199,37,04,36,061,40,02,30,305,31,12,15,303,22*7B
$GPGSV,3,3,11,05,13,244,20,03,08,052,21,28,04,192,*45
$GPRMC,054353.900,A,3523.7785,N,13851.9683,E,23.90,44.96,210720,,,D*67
$GPGGA,054354.000,3523.7790,N,13851.9689,E,2,7,1.71,1087.4,M,39.1,M,0000,0000*63
$GPGSA,A,3,19,06,17,02,09,04,03,,,,,,2.83,1.71,2.25*0D
$GPGSV,3,1,11,19,79,203,47,06,61,341,41,17,61,166,43,09,55,112,44*71
$GPGSV,3,2,11,50,47,199,37,04,36,061,40,02,30,305,31,12,15,303,22*7B
$GPGSV,3,3,11,05,13,244,20,03,08,052,21,28,04,192,*45
$GPRMC,054354.000,A,3523.7790,N,13851.9689,E,23.87,43.97,210720,,,D*67
$GPGGA,054354.100,3523.7795,N,13851.9694,E,2,7,1.71,1087.4,M,39.1,M,0000,0000*6B
$GPGSA,A,3,19,06,17,02,09,04,03,,,,,,2.83,1.71,2.25*0D
$GPGSV,3,1,11,19,79,203,47,06,61,341,41,17,61,166,43,09,55,112,44*71
$GPGSV,3,2,11,50,47,199,37,04,36,061,40,02,30,305,31,12,15,303,22*7B
$GPGSV,3,3,11,05,13,244,20,03,08,052,21,28,04,192,*45
$GPRMC,054354.100,A,3523.7795,N,13851.9694,E,23.82,42.98,210720,,,D*64
$GPGGA,054354.200,3523.7800,N,13851.9700,E,2,7,1.71,1087.3,M,39.1,M,0000,0000*60
$GPGSA,A,3,19,06,17,02,09,04,03,,,,,,2.83,1.71,2.25*0D
$GPGSV,3,1,11,19,79,203,47,06,61,341,41,17,61,166,43,09,55,112,44*71
$GPGSV,3,2,11,50,47,199,37,04,36,061,40,02,30,305,31,12,15,303,22*7B
$GPGSV,3,3,11,05,13,244,20,03,08,052,21,28,04,192,*45
$GPRMC,054354.200,A,3523.7800,N,13851.9700,E,24.37,42.35,210720,,,D*66
$GPGGA,054354.300,3523.7806,N,13851.9704,E,2,7,1.71,1087.1,M,39.1,M,0000,0000*61
$GPGSA,A,3,19,06,17,02,09,04,03,,,,,,2.83,1.71,2.25*0D
$GPGSV,3,1,11,19,79,203,47,06,61,341,41,17,61,166,43,09,55,112,44*71
$GPGSV,3,2,11,50,47,199,37,04,36,061,40,02,30,305,31,12,15,303,22*7B
$GPGSV,3,3,11,05,13,244,20,03,08,052,21,28,04,192,*45
$GPRMC,054354.300,A,3523.7806,N,13851.9704,E,23.80,41.61,210720,,,D*6C
$GPGGA,054354.400,3523.7811,N,13851.9710,E,2,7,1.71,1087.1,M,39.1,M,0000,0000*65
$GPGSA,A,3,19,06,17,02,09,04,03,,,,,,2.83,1.71,2.25*0D
$GPGSV,3,1,11,19,79,203,47,06,61,341,40,17,61,166,44,09,55,112,44*77
$GPGSV,3,2,11,50,47,199,37,04,36,061,40,02,30,305,31,12,15,303,22*7B
$GPGSV,3,3,11,05,13,244,20,03,08,052,21,28,04,192,*45
$GPRMC,054354.400,A,3523.7811,N,13851.9710,E,24.09,40.78,210720,,,D*67
$GPGGA,054354.500,3523.7817,N,13851.9715,E,2,7,1.71,1087.1,M,39.1,M,0000,0000*67
$GPGSA,A,3,19,06,17,02,09,04,03,,,,,,2.83,1.71,2.25*0D
$GPGSV,3,1,11,19,79,203,47,06,61,341,40,17,61,166,44,09,55,112,44*77
$GPGSV,3,2,11,50,47,199,37,04,36,061,41,02,30,305,31,12,15,303,23*7B
$GPGSV,3,3,11,05,13,244,20,03,08,052,21,28,04,192,*45
$GPRMC,054354.500,A,3523.7817,N,13851.9715,E,23.88,40.15,210720,,,D*60
$GPGGA,054354.600,3523.7822,N,13851.9720,E,2,7,1.71,1087.1,M,39.1,M,0000,0000*64
$GPGSA,A,3,19,06,17,02,09,04,03,,,,,,2.83,1.71,2.25*0D
$GPGSV,3,1,11,19,79,203,46,06,61,341,40,17,61,166,44,09,55,112,44*76
$GPGSV,3,2,11,50,47,199,38,04,36,061,41,02,30,305,31,12,15,303,23*74
$GPGSV,3,3,11,05,13,244,20,03,08,052,21,28,04,192,*45
$GPRMC,054354.600,A,3523.7822,N,13851.9720,E,23.86,39.54,210720,,,D*66
$GPGGA,054354.700,3523.7828,N,13851.9725,E,2,7,1.71,1087.2,M,39.1,M,0000,0000*69
$GPGSA,A,3,19,06,17,02,09,04,03,,,,,,2.83,1.71,2.25*0D
$GPGSV,3,1,11,19,79,203,46,06,61,341,40,17,61,166,44,09,55,112,44*76
$GPGSV,3,2,11,50,47,199,38,04,36,061,42,02,30,305,31,12,15,303,23*77
$GPGSV,3,3,11,05,13,244,20,03,08,052,21,28,04,192,*45
$GPRMC,054354.700,A,3523.7828,N,13851.9725,E,23.65,38.56,210720,,,D*66
$GPGGA,054354.800,3523.7834,N,13851.9730,E,2,7,1.71,1087.1,M,39.1,M,0000,0000*6C
$GPGSA,A,3,19,06,17,02,09,04,03,,,,,,2.83,1.71,2.25*0D
$GPGSV,3,1,11,19,79,203,46,06,61,341,40,17,61,166,44,09,55,112,44*76
$GPGSV,3,2,11,50,47,199,38,04,36,061,42,02,30,305,31,12,15,303,23*77
$GPGSV,3,3,11,05,13,244,20,03,08,052,21,28,04,192,*45
$GPRMC,054354.800,A,3523.7834,N,13851.9730,E,23.87,37.66,210720,,,D*60
$GPGGA,054354.900,3523.7839,N,13851.9734,E,2,7,1.71,1087.0,M,39.1,M,0000,0000*65
$GPGSA,A,3,19,06,17,02,09,04,03,,,,,,2.83,1.71,2.25*0D
$GPGSV,3,1,11,19,79,203,46,06,61,341,40,17,61,166,44,09,55,112,44*76
$GPGSV,3,2,11,50,47,199,38,04,36,061,42,02,30,305,31,12,15,303,23*77
$GPGSV,3,3,11,05,13,244,20,03,08,052,21,28,03,192,*42
$GPRMC,054354.900,A,3523.7839,N,13851.9734,E,23.83,36.56,210720,,,D*6E
$GPGGA,054355.000,3523.7845,N,13851.9739,E,2,8,1.13,1086.8,M,39.1,M,0000,0000*69
$GPGSA,A,3,19,06,17,02,09,04,03,05,,,,,1.70,1.13,1.27*02
$GPGSV,3,1,11,19,79,203,46,06,61,341,39,17,61,166,44,09,55,112,44*78
$GPGSV,3,2,11,50,47,199,38,04,36,061,42,02,30,305,31,12,15,303,23*77
$GPGSV,3,3,11,05,13,244,20,03,08,052,21,28,03,192,*42
$GPRMC,054355.000,A,3523.7845,N,13851.9739,E,24.08,35.46,210720,,,D*66
$GPGGA,054355.100,3523.7851,N,13851.9744,E,2,8,1.13,1086.7,M,39.1,M,0000,0000*68
$GPGSA,A,3,19,06,17,02,09,04,03,05,,,,,1.70,1.13,1.27*02
$GPGSV,3,1,11,19,79,203,46,06,61,341,39,17,61,166,44,09,55,112,44*78
$GPGSV,3,2,11,50,47,199,37,04,36,061,42,02,30,305,31,12,15,303,23*78
$GPGSV,3,3,11,05,13,244,20,03,08,052,21,28,03,192,*42
$GPRMC,054355.100,A,3523.7851,N,13851.9744,E,24.07,34.55,210720,,,D*64
$GPGGA,054355.200,3523.7857,N,13851.9749,E,2,7,1.71,1086.9,M,39.1,M,0000,0000*65
$GPGSA,A,3,19,06,17,02,09,04,03,,,,,,2.83,1.71,2.25*0D
$GPGSV,3,1,11,19,79,203,45,06,61,341,39,17,61,166,44,09,55,112,44*7B
$GPGSV,3,2,11,50,47,199,36,04,36,061,42,02,30,305,32,12,15,303,23*7A
$GPGSV,3,3,11,05,13,244,19,03,08,052,21,28,03,192,*48
$GPRMC,054355.200,A,3523.7857,N,13851.9749,E,23.81,33.79,210720,,,D*6C
$GPGGA,054355.300,3523.7862,N,13851.9754,E,2,7,1.71,1086.7,M,39.1,M,0000,0000*60
$GPGSA,A,3,19,06,17,02,09,04,03,,,,,,2.83,1.71,2.25*0D
$GPGSV,3,1,11,19,79,203,45,06,61,341,39,17,61,166,44,09,55,112,43*7C
$GPGSV,3,2,11,50,47,199,35,04,36,061,42,02,30,305,33,12,15,303,23*78
$GPGSV,3,3,11,05,13,244,19,03,08,052,21,28,03,192,*48
$GPRMC,054355.300,A,3523.7862,N,13851.9754,E,23.40,33.48,210720,,,D*68
$GPGGA,054355.400,3523.7868,N,13851.9758,E,2,7,1.71,1086.7,M,39.1,M,0000,0000*61
$GPGSA,A,3,19,06,17,02,09,04,03,,,,,,2.83,1.71,2.25*0D
$GPGSV,3,1,11,19,79,203,45,06,61,341,39,17,61,166,44,09,55,112,43*7C
$GPGSV,3,2,11,50,47,199,35,04,36,061,42,02,30,305,33,12,15,303,23*78
$GPGSV,3,3,11,05,13,244,19,03,08,052,21,28,03,192,*48
$GPRMC,054355.400,A,3523.7868,N,13851.9758,E,23.44,32.72,210720,,,D*65
$GPGGA,054355.500,3523.7874,N,13851.9763,E,2,8,1.13,1086.8,M,39.1,M,0000,0000*61
$GPGSA,A,3,19,06,17,02,09,04,03,05,,,,,1.70,1.13,1.27*02
$GPGSV,3,1,11,19,79,203,45,06,61,341,38,17,61,166,45,09,55,112,43*7C
$GPGSV,3,2,11,50,47,199,35,04,36,061,42,02,30,305,33,12,15,303,23*78
$GPGSV,3,3,11,05,13,244,19,03,08,052,22,28,03,192,*4B
$GPRMC,054355.500,A,3523.7874,N,13851.9763,E,23.90,31.80,210720,,,D*66
$GPGGA,054355.600,3523.7880,N,13851.9769,E,2,8,1.13,1087.0,M,39.1,M,0000,0000*6A
$GPGSA,A,3,19,06,17,02,09,04,03,05,,,,,1.70,1.13,1.27*02
$GPGSV,3,1,11,19,79,203,45,06,61,341,37,17,61,166,45,09,55,112,43*73
$GPGSV,3,2,11,50,47,199,34,04,36,061,43,02,30,305,35,12,15,303,23*7E
$GPGSV,3,3,11,05,13,244,19,03,08,052,23,28,03,192,*4A
$GPRMC,054355.600,A,3523.7880,N,13851.9769,E,23.92,30.91,210720,,,D*67
$GPGGA,054355.700,3523.7886,N,13851.9775,E,2,8,1.13,1087.4,M,39.1,M,0000,0000*64
$GPGSA,A,3,19,06,17,02,09,04,03,05,,,,,1.70,1.13,1.26*03
$GPGSV,3,1,11,19,79,203,43,06,61,341,36,17,61,166,45,09,55,112,43*74
$GPGSV,3,2,11,50,47,199,33,04,36,061,43,02,30,305,36,12,15,303,24*7D
$GPGSV,3,3,11,05,13,244,19,03,08,052,24,28,03,192,*4D
$GPRMC,054355.700,A,3523.7886,N,13851.9775,E,23.95,30.11,210720,,,D*62
$GPGGA,054355.800,3523.7892,N,13851.9782,E,2,9,1.05,1088.1,M,39.1,M,0000,0000*6A
$GPGSA,A,3,19,06,17,02,09,04,03,12,05,,,,1.63,1.05,1.24*07
$GPGSV,3,1,11,19,79,203,42,06,61,341,36,17,61,166,45,09,55,112,43*75
$GPGSV,3,2,11,50,47,199,33,04,36,061,43,02,30,305,37,12,15,303,24*7C
$GPGSV,3,3,11,05,13,244,19,03,08,052,24,28,03,192,*4D
$GPRMC,054355.800,A,3523.7892,N,13851.9782,E,23.92,29.09,210720,,,D*66
$GPGGA,054355.900,3523.7898,N,13851.9788,E,2,7,1.71,1088.3,M,39.1,M,0000,0000*64
$GPGSA,A,3,19,06,17,02,09,04,03,,,,,,2.83,1.71,2.25*0D
$GPGSV,3,1,11,19,79,203,42,06,61,341,37,17,61,166,45,09,55,112,43*74
$GPGSV,3,2,11,50,47,199,33,04,36,061,43,02,30,305,38,12,15,303,24*73
$GPGSV,3,3,11,05,13,244,19,03,08,052,24,28,03,192,*4D
$GPRMC,054355.900,A,3523.7898,N,13851.9788,E,24.19,28.35,210720,,,D*6D
$GPGGA,054356.000,3523.7904,N,13851.9793,E,2,7,1.71,1088.6,M,39.1,M,0000,0000*65
$GPGSA,A,3,19,06,17,02,09,04,03,,,,,,2.83,1.71,2.25*0D
$GPGSV,3,1,11,19,79,203,42,06,61,341,37,17,61,166,45,09,55,112,43*74
$GPGSV,3,2,11,50,47,199,33,04,36,061,43,02,30,305,39,12,15,303,24*72
$GPGSV,3,3,11,05,13,244,19,03,08,052,24,28,03,192,*4D
$GPRMC,054356.000,A,3523.7904,N,13851.9793,E,24.22,27.42,210720,,,D*6E
$GPGGA,054356.100,3523.7910,N,13851.9799,E,2,8,1.54,1088.9,M,39.1,M,0000,0000*6C
$GPGSA,A,3,19,06,17,02,09,04,03,12,,,,,2.39,1.54,1.83*07
$GPGSV,3,1,11,19,79,203,42,06,61,341,37,17,61,166,45,09,55,112,43*74
$GPGSV,3,2,11,50,47,199,33,04,36,061,44,02,30,305,39,12,15,303,24*75
$GPGSV,3,3,11,05,13,244,19,03,08,052,24,28,03,192,*4D
$GPRMC,054356.100,A,3523.7910,N,13851.9799,E,24.15,26.60,210720,,,D*65
$GPGGA,054356.200,3523.7916,N,13851.9803,E,2,8,1.54,1089.0,M,39.1,M,0000,0000*6D
$GPGSA,A,3,19,06,17,02,09,04,03,12,,,,,2.39,1.54,1.83*07
$GPGSV,3,1,11,19,79,203,42,06,61,341,37,17,61,166,45,09,55,112,43*74
$GPGSV,3,2,11,50,47,199,33,04,36,061,44,02,30,305,39,12,15,303,24*75
$GPGSV,3,3,11,05,13,244,19,03,08,052,24,28,03,192,*4D
$GPRMC,054356.200,A,3523.7916,N,13851.9803,E,24.17,25.42,210720,,,D*6D
$GPGGA,054356.300,3523.7922,N,13851.9807,E,2,8,1.54,1089.1,M,39.1,M,0000,0000*6E
$GPGSA,A,3,19,06,17,02,09,04,03,12,,,,,2.39,1.54,1.83*07
$GPGSV,3,1,11,19,79,203,42,06,61,341,37,17,61,166,45,09,55,112,43*74
$GPGSV,3,2,11,50,47,199,32,04,36,061,43,02,30,305,39,12,15,303,25*72
$GPGSV,3,3,11,05,13,244,19,03,08,052,24,28,03,192,*4D
$GPRMC,054356.300,A,3523.7922,N,13851.9807,E,24.10,24.82,210720,,,D*65
$GPGGA,054356.400,3523.7928,N,13851.9811,E,2,9,1.05,1088.9,M,39.1,M,0000,0000*68
$GPGSA,A,3,19,06,17,02,09,04,03,12,05,,,,1.63,1.05,1.24*07
$GPGSV,3,1,11,19,79,203,42,06,61,341,36,17,61,166,45,09,55,112,44*72
$GPGSV,3,2,11,50,47,199,32,04,36,061,43,02,30,305,39,12,15,303,26*71
$GPGSV,3,3,11,05,13,244,19,03,08,052,24,28,03,192,*4D
$GPRMC,054356.400,A,3523.7928,N,13851.9811,E,24.76,24.13,210720,,,D*67
$GPGGA,054356.500,3523.7935,N,13851.9815,E,2,9,1.05,1089.1,M,39.1,M,0000,0000*68
$GPGSA,A,3,19,06,17,02,09,04,03,12,05,,,,1.63,1.05,1.24*07
$GPGSV,3,1,11,19,79,203,42,06,61,341,36,17,61,166,45,09,55,112,45*73
$GPGSV,3,2,11,50,47,199,32,04,36,061,43,02,30,305,39,12,15,303,26*71
$GPGSV,3,3,11,05,13,244,20,03,08,052,24,28,03,192,*47
$GPRMC,054356.500,A,3523.7935,N,13851.9815,E,24.37,23.25,210720,,,D*69
$GPGGA,054356.600,3523.7941,N,13851.9819,E,2,9,1.05,1089.1,M,39.1,M,0000,0000*64
$GPGSA,A,3,19,06,17,02,09,04,03,12,05,,,,1.63,1.05,1.24*07
$GPGSV,3,1,11,19,79,203,42,06,61,341,36,17,61,166,45,09,55,112,46*70
$GPGSV,3,2,11,50,47,199,32,04,36,061,42,02,30,305,38,12,15,303,26*71
$GPGSV,3,3,11,05,13,244,21,03,08,052,24,28,03,192,*46
$GPRMC,054356.600,A,3523.7941,N,13851.9819,E,24.85,23.32,210720,,,D*6A
$GPGGA,054356.700,3523.7947,N,13851.9822,E,2,9,1.05,1089.2,M,39.1,M,0000,0000*68
$GPGSA,A,3,19,06,17,02,09,04,03,12,05,,,,1.63,1.05,1.25*06
$GPGSV,3,1,11,19,79,203,42,06,61,341,36,17,61,166,45,09,55,112,47*71
$GPGSV,3,2,11,50,47,199,32,04,36,061,42,02,30,305,38,12,15,303,26*71
$GPGSV,3,3,11,05,13,244,22,03,08,052,24,28,03,192,*45
$GPRMC,054356.700,A,3523.7947,N,13851.9822,E,24.78,23.10,210720,,,D*67
$GPGGA,054356.800,3523.7953,N,13851.9826,E,2,9,1.05,1089.2,M,39.1,M,0000,0000*66
$GPGSA,A,3,19,06,17,02,09,04,03,12,05,,,,1.63,1.05,1.24*07
$GPGSV,3,1,11,19,79,203,42,06,61,341,37,17,61,166,45,09,55,112,47*70
$GPGSV,3,2,11,50,47,199,33,04,36,061,42,02,30,305,38,12,15,303,26*70
$GPGSV,3,3,11,05,13,244,22,03,08,052,24,28,03,192,*45
$GPRMC,054356.800,A,3523.7953,N,13851.9826,E,24.00,22.51,210720,,,D*62
$GPGGA,054356.900,3523.7960,N,13851.9829,E,2,8,1.13,1089.2,M,39.1,M,0000,0000*6E
$GPGSA,A,3,19,06,17,02,09,04,03,05,,,,,1.70,1.13,1.27*02
$GPGSV,3,1,11,19,79,203,42,06,61,341,37,17,61,166,46,09,55,112,47*73
$GPGSV,3,2,11,50,47,199,33,04,36,061,42,02,30,305,38,12,15,303,26*70
$GPGSV,3,3,11,05,13,244,22,03,08,052,23,28,03,192,*42
$GPRMC,054356.900,A,3523.7960,N,13851.9829,E,24.49,22.03,210720,,,D*66
$GPGGA,054357.000,3523.7966,N,13851.9833,E,2,8,1.13,1089.1,M,39.1,M,0000,0000*68
$GPGSA,A,3,19,06,17,02,09,04,03,05,,,,,1.70,1.13,1.27*02
$GPGSV,3,1,11,19,79,203,42,06,61,341,37,17,61,166,46,09,55,112,47*73
$GPGSV,3,2,11,50,47,199,32,04,36,061,40,02,30,305,37,12,15,303,25*7F
$GPGSV,3,3,11,05,13,244,22,03,08,052,23,28,03,192,*42
$GPRMC,054357.000,A,3523.7966,N,13851.9833,E,24.67,21.85,210720,,,D*62
$GPGGA,054357.100,3523.7972,N,13851.9835,E,2,8,1.13,1089.2,M,39.1,M,0000,0000*69
$GPGSA,A,3,19,06,17,02,09,04,03,05,,,,,1.70,1.13,1.27*02
$GPGSV,3,1,11,19,79,203,42,06,61,341,37,17,61,166,46,09,55,112,47*73
$GPGSV,3,2,11,50,47,199,32,04,36,061,39,02,30,305,37,12,15,303,25*71
$GPGSV,3,3,11,05,13,244,21,03,08,052,23,28,03,192,*41
$GPRMC,054357.100,A,3523.7972,N,13851.9835,E,24.69,21.01,210720,,,D*62
$GPGGA,054357.200,3523.7978,N,13851.9838,E,2,8,1.13,1089.2,M,39.1,M,0000,0000*6D
$GPGSA,A,3,19,06,17,02,09,04,03,05,,,,,1.70,1.13,1.27*02
$GPGSV,3,1,11,19,79,203,43,06,61,341,37,17,61,166,46,09,55,112,46*73
$GPGSV,3,2,11,50,47,199,32,04,36,061,38,02,30,305,37,12,15,303,25*70
$GPGSV,3,3,11,05,13,244,20,03,08,052,23,28,03,192,*40
$GPRMC,054357.200,A,3523.7978,N,13851.9838,E,24.62,20.41,210720,,,D*68
$GPGGA,054357.300,3523.7985,N,13851.9841,E,2,8,1.13,1089.3,M,39.1,M,0000,0000*61
$GPGSA,A,3,19,06,17,02,09,04,03,05,,,,,1.70,1.13,1.27*02
$GPGSV,3,1,11,19,79,203,43,06,61,341,37,17,61,166,46,09,55,112,45*70
$GPGSV,3,2,11,50,47,199,32,04,36,061,38,02,30,305,37,12,15,303,25*70
$GPGSV,3,3,11,05,13,244,20,03,08,052,23,28,03,192,*40
$GPRMC,054357.300,A,3523.7985,N,13851.9841,E,25.16,20.38,210720,,,D*69
$GPGGA,054357.400,3523.7991,N,13851.9845,E,2,8,1.13,1089.4,M,39.1,M,0000,0000*60
$GPGSA,A,3,19,06,17,02,09,04,03,05,,,,,1.70,1.13,1.27*02
$GPGSV,3,1,11,19,79,203,43,06,61,341,37,17,61,166,46,09,55,112,44*71
$GPGSV,3,2,11,50,47,199,32,04,36,061,38,02,30,305,37,12,15,303,25*70
$GPGSV,3,3,11,05,13,244,20,03,08,052,23,28,03,192,*40
$GPRMC,054357.400,A,3523.7991,N,13851.9845,E,26.08,20.99,210720,,,D*68
$GPGGA,054357.500,3523.7998,N,13851.9848,E,2,9,1.05,1089.4,M,39.1,M,0000,0000*63
$GPGSA,A,3,19,06,17,02,09,04,03,12,05,,,,1.63,1.05,1.24*07
$GPGSV,3,1,11,19,79,203,43,06,61,341,37,17,61,166,46,09,55,112,44*71
$GPGSV,3,2,11,50,47,199,33,04,36,061,38,02,30,305,37,12,15,303,27*73
$GPGSV,3,3,11,05,13,244,20,03,08,052,24,28,03,192,*47
$GPRMC,054357.500,A,3523.7998,N,13851.9848,E,25.78,20.92,210720,,,D*62
$GPGGA,054357.600,3523.8005,N,13851.9851,E,2,9,1.05,1089.5,M,39.1,M,0000,0000*6B
$GPGSA,A,3,19,06,17,02,09,04,03,12,05,,,,1.63,1.05,1.24*07
$GPGSV,3,1,11,19,79,203,43,06,61,341,36,17,61,166,46,09,55,112,45*71
$GPGSV,3,2,11,50,47,199,33,04,36,061,38,02,30,305,37,12,15,303,28*7C
$GPGSV,3,3,11,05,13,244,20,03,08,052,25,28,03,192,*46
$GPRMC,054357.600,A,3523.8005,N,13851.9851,E,25.84,19.45,210720,,,D*68
$GPGGA,054357.700,3523.8011,N,13851.9855,E,2,9,1.05,1089.6,M,39.1,M,0000,0000*68
$GPGSA,A,3,19,06,17,02,09,04,03,12,05,,,,1.63,1.05,1.24*07
$GPGSV,3,1,11,19,79,203,43,06,61,341,36,17,61,166,46,09,55,112,46*72
$GPGSV,3,2,11,50,47,199,34,04,36,061,38,02,30,305,38,12,15,303,29*75
$GPGSV,3,3,11,05,13,244,20,03,08,052,26,28,03,192,*45
$GPRMC,054357.700,A,3523.8011,N,13851.9855,E,25.47,20.52,210720,,,D*6B
$GPGGA,054357.800,3523.8018,N,13851.9859,E,2,9,1.05,1089.9,M,39.1,M,0000,0000*6D
$GPGSA,A,3,19,06,17,02,09,04,03,12,05,,,,1.63,1.05,1.24*07
$GPGSV,3,1,11,19,79,203,43,06,61,341,36,17,61,166,46,09,55,112,46*72
$GPGSV,3,2,11,50,47,199,35,04,36,061,38,02,30,305,38,12,15,303,29*74
$GPGSV,3,3,11,05,13,244,20,03,08,052,26,28,03,192,*45
$GPRMC,054357.800,A,3523.8018,N,13851.9859,E,25.31,21.48,210720,,,D*6A
$GPGGA,054357.900,3523.8025,N,13851.9863,E,2,9,1.05,1090.1,M,39.1,M,0000,0000*6B
$GPGSA,A,3,19,06,17,02,09,04,03,12,05,,,,1.63,1.05,1.24*07
$GPGSV,3,1,11,19,79,203,43,06,61,341,36,17,61,166,46,09,55,112,46*72
$GPGSV,3,2,11,50,47,199,36,04,36,061,39,02,30,305,38,12,15,303,29*76
$GPGSV,3,3,11,05,13,244,20,03,08,052,26,28,03,192,*45
$GPRMC,054357.900,A,3523.8025,N,13851.9863,E,25.32,20.20,210720,,,D*60
$GPGGA,054358.000,3523.8032,N,13851.9866,E,2,9,1.05,1090.2,M,39.1,M,0000,0000*6D
$GPGSA,A,3,19,06,17,02,09,04,03,12,05,,,,1.63,1.05,1.24*07
$GPGSV,3,1,11,19,79,203,43,06,61,341,36,17,61,166,46,09,55,112,46*72
$GPGSV,3,2,11,50,47,199,36,04,36,061,39,02,30,305,38,12,15,303,29*76
$GPGSV,3,3,11,05,13,244,20,03,08,052,26,28,03,192,*45
$GPRMC,054358.000,A,3523.8032,N,13851.9866,E,26.42,20.50,210720,,,D*66
$GPGGA,054358.100,3523.8039,N,13851.9870,E,2,9,1.05,1090.1,M,39.1,M,0000,0000*63
$GPGSA,A,3,19,06,17,02,09,04,03,12,05,,,,1.63,1.05,1.24*07
$GPGSV,3,1,11,19,79,203,43,06,61,341,36,17,61,166,46,09,55,112,46*72
$GPGSV,3,2,11,50,47,199,36,04,36,061,40,02,30,305,38,12,15,303,28*79
$GPGSV,3,3,11,05,13,244,20,03,08,052,26,28,03,192,*45
$GPRMC,054358.100,A,3523.8039,N,13851.9870,E,26.26,20.45,210720,,,D*6D
$GPGGA,054358.200,3523.8045,N,13851.9873,E,2,9,1.05,1090.2,M,39.1,M,0000,0000*6B
$GPGSA,A,3,19,06,17,02,09,04,03,12,05,,,,1.63,1.05,1.24*07
$GPGSV,3,1,11,19,79,203,43,06,61,341,36,17,61,166,46,09,55,112,46*72
$GPGSV,3,2,11,50,47,199,36,04,36,061,40,02,30,305,38,12,15,303,28*79
$GPGSV,3,3,11,05,13,244,20,03,08,052,26,28,03,192,*45
$GPRMC,054358.200,A,3523.8045,N,13851.9873,E,25.86,21.22,210720,,,D*6F
$GPGGA,054358.300,3523.8052,N,13851.9877,E,2,9,1.05,1090.1,M,39.1,M,0000,0000*6B
$GPGSA,A,3,19,06,17,02,09,04,03,12,05,,,,1.63,1.05,1.24*07
$GPGSV,3,1,11,19,79,203,42,06,61,341,36,17,61,166,45,09,55,112,47*71
$GPGSV,3,2,11,50,47,199,36,04,36,061,40,02,30,305,38,12,15,303,28*79
$GPGSV,3,3,11,05,13,244,20,03,08,052,26,28,03,192,*45
$GPRMC,054358.300,A,3523.8052,N,13851.9877,E,25.69,21.21,210720,,,D*6E
$GPGGA,054358.400,3523.8059,N,13851.9880,E,2,9,1.05,1090.2,M,39.1,M,0000,0000*6C
$GPGSA,A,3,19,06,17,02,09,04,03,12,05,,,,1.63,1.05,1.25*06
$GPGSV,3,1,11,19,79,203,42,06,61,341,36,17,61,166,45,09,55,112,47*71
$GPGSV,3,2,11,50,47,199,36,04,36,061,40,02,30,305,38,12,15,303,28*79
$GPGSV,3,3,11,05,13,244,20,03,08,052,26,28,03,192,*45
$GPRMC,054358.400,A,3523.8059,N,13851.9880,E,26.09,20.73,210720,,,D*69
$GPGGA,054358.500,3523.8065,N,13851.9884,E,2,9,1.05,1090.3,M,39.1,M,0000,0000*67
$GPGSA,A,3,19,06,17,02,09,04,03,12,05,,,,1.63,1.05,1.24*07
$GPGSV,3,1,11,19,79,203,42,06,61,341,37,17,61,166,45,09,55,112,47*70
$GPGSV,3,2,11,50,47,199,36,04,36,061,40,02,30,305,38,12,15,303,28*79
$GPGSV,3,3,11,05,13,244,20,03,08,052,26,28,03,192,*45
$GPRMC,054358.500,A,3523.8065,N,13851.9884,E,25.62,21.98,210720,,,D*69
$GPGGA,054358.600,3523.8072,N,13851.9887,E,2,9,1.05,1090.4,M,39.1,M,0000,0000*66
$GPGSA,A,3,19,06,17,02,09,04,03,12,05,,,,1.63,1.05,1.24*07
$GPGSV,3,1,11,19,79,203,42,06,61,341,37,17,61,166,45,09,55,112,47*70
$GPGSV,3,2,11,50,47,199,36,04,36,061,40,02,30,305,38,12,15,303,28*79
$GPGSV,3,3,11,05,13,244,20,03,08,052,26,28,03,192,*45
$GPRMC,054358.600,A,3523.8072,N,13851.9887,E,25.63,21.33,210720,,,D*6F
$GPGGA,054358.700,3523.8079,N,13851.9890,E,2,7,1.71,1090.3,M,39.1,M,0000,0000*60
$GPGSA,A,3,19,06,17,02,09,04,03,,,,,,2.82,1.71,2.25*0C
$GPGSV,3,1,11,19,79,203,43,06,61,341,38,17,61,166,45,09,55,112,47*7E
$GPGSV,3,2,11,50,47,199,36,04,36,061,40,02,30,305,27,12,15,303,27*78
$GPGSV,3,3,11,05,13,244,20,03,08,052,26,28,03,192,*45
$GPRMC,054358.700,A,3523.8079,N,13851.9890,E,25.79,21.55,210720,,,D*68
$GPGGA,054358.800,3523.8085,N,13851.9893,E,2,7,1.71,1090.3,M,39.1,M,0000,0000*6F
$GPGSA,A,3,19,06,17,02,09,04,03,,,,,,2.82,1.71,2.25*0C
$GPGSV,3,1,11,19,79,203,43,06,61,341,39,17,61,166,45,09,55,112,47*7F
$GPGSV,3,2,11,50,47,199,36,04,36,061,40,02,30,305,27,12,15,303,26*79
$GPGSV,3,3,11,05,13,244,20,03,08,053,26,28,03,192,*44
$GPRMC,054358.800,A,3523.8085,N,13851.9893,E,25.87,21.22,210720,,,D*66
$GPGGA,054358.900,3523.8092,N,13851.9897,E,2,7,1.71,1090.2,M,39.1,M,0000,0000*6D
$GPGSA,A,3,19,06,17,02,09,04,03,,,,,,2.82,1.71,2.25*0C
$GPGSV,3,1,11,19,79,203,43,06,61,341,40,17,61,166,45,09,55,112,47*71
$GPGSV,3,2,11,50,47,199,36,04,36,061,40,02,30,305,27,12,15,303,25*7A
$GPGSV,3,3,11,05,13,244,20,03,08,053,26,28,03,192,*44
$GPRMC,054358.900,A,3523.8092,N,13851.9897,E,26.17,21.46,210720,,,D*6D
$GPGGA,054359.000,3523.8098,N,13851.9900,E,2,7,1.71,1090.2,M,39.1,M,0000,0000*60
$GPGSA,A,3,19,06,17,02,09,04,03,,,,,,2.82,1.71,2.25*0C
$GPGSV,3,1,11,19,79,203,43,06,61,341,40,17,61,166,45,09,55,112,47*71
$GPGSV,3,2,11,50,47,199,36,04,36,061,40,02,30,305,27,12,15,303,25*7A
$GPGSV,3,3,11,05,13,244,20,03,08,053,26,28,03,192,*44
$GPRMC,054359.000,A,3523.8098,N,13851.9900,E,26.13,21.25,210720,,,D*61
$GPGGA,054359.100,3523.8105,N,13851.9903,E,2,7,1.71,1090.2,M,39.1,M,0000,0000*67
$GPGSA,A,3,19,06,17,02,09,04,03,,,,,,2.83,1.71,2.25*0D
$GPGSV,3,1,11,19,79,203,43,06,61,341,40,17,61,166,45,09,55,112,47*71
$GPGSV,3,2,11,50,47,199,37,04,36,061,40,02,30,305,27,12,15,303,25*7B
$GPGSV,3,3,11,05,13,244,20,03,08,053,26,28,03,192,*44
$GPRMC,054359.100,A,3523.8105,N,13851.9903,E,26.53,22.12,210720,,,D*65
$GPGGA,054359.200,3523.8112,N,13851.9907,E,2,7,1.71,1090.1,M,39.1,M,0000,0000*65
$GPGSA,A,3,19,06,17,02,09,04,03,,,,,,2.82,1.71,2.25*0C
$GPGSV,3,1,11,19,79,203,43,06,61,341,40,17,61,166,45,09,55,112,47*71
$GPGSV,3,2,11,50,47,199,37,04,36,061,40,02,30,305,27,12,15,303,25*7B
$GPGSV,3,3,11,05,13,244,20,03,08,053,26,28,03,192,*44
$GPRMC,054359.200,A,3523.8112,N,13851.9907,E,26.26,22.13,210720,,,D*67
$GPGGA,054359.300,3523.8118,N,13851.9910,E,2,7,1.71,1090.0,M,39.1,M,0000,0000*69
$GPGSA,A,3,19,06,17,02,09,04,03,,,,,,2.83,1.71,2.25*0D
$GPGSV,3,1,11,19,79,203,43,06,61,341,40,17,61,166,45,09,55,112,47*71
$GPGSV,3,2,11,50,47,199,37,04,36,061,40,02,30,305,35,12,15,303,25*78
$GPGSV,3,3,11,05,13,244,20,03,08,053,26,28,03,192,*44
$GPRMC,054359.300,A,3523.8118,N,13851.9910,E,26.21,22.95,210720,,,D*63
$GPGGA,054359.400,3523.8125,N,13851.9914,E,2,7,1.71,1089.9,M,39.1,M,0000,0000*65
$GPGSA,A,3,19,06,17,02,09,04,03,,,,,,2.83,1.71,2.25*0D
$GPGSV,3,1,11,19,79,203,43,06,61,341,40,17,61,166,45,09,55,112,47*71
$GPGSV,3,2,11,50,47,199,37,04,36,061,40,02,30,305,35,12,15,303,25*78
$GPGSV,3,3,11,05,13,244,20,03,08,053,26,28,03,192,*44
$GPRMC,054359.400,A,3523.8125,N,13851.9914,E,25.94,23.16,210720,,,D*69
$GPGGA,054359.500,3523.8132,N,13851.9917,E,2,7,1.71,1089.8,M,39.1,M,0000,0000*60
$GPGSA,A,3,19,06,17,02,09,04,03,,,,,,2.83,1.71,2.25*0D
$GPGSV,3,1,11,19,79,203,43,06,61,341,40,17,61,166,45,09,55,112,47*71
$GPGSV,3,2,11,50,47,199,37,04,36,061,40,02,30,305,35,12,15,303,25*78
$GPGSV,3,3,11,05,13,244,20,03,08,053,26,28,03,192,*44
$GPRMC,054359.500,A,3523.8132,N,13851.9917,E,26.24,23.68,210720,,,D*6C
$GPGGA,054359.600,3523.8138,N,13851.9921,E,2,7,1.71,1089.7,M,39.1,M,0000,0000*63
$GPGSA,A,3,19,06,17,02,09,04,03,,,,,,2.82,1.71,2.25*0C
$GPGSV,3,1,11,19,79,203,43,06,61,341,40,17,61,166,45,09,55,112,47*71
$GPGSV,3,2,11,50,47,199,37,04,36,061,40,02,30,305,35,12,15,303,24*79
$GPGSV,3,3,11,05,13,244,20,03,08,053,26,28,03,192,*44
$GPRMC,054359.600,A,3523.8138,N,13851.9921,E,25.94,24.79,210720,,,D*6F
$GPGGA,054359.700,3523.8145,N,13851.9924,E,2,7,1.71,1089.6,M,39.1,M,0000,0000*6C
$GPGSA,A,3,19,06,17,02,09,04,03,,,,,,2.82,1.71,2.25*0C
$GPGSV,3,1,11,19,79,203,43,06,61,341,40,17,61,166,45,09,55,112,47*71
$GPGSV,3,2,11,50,47,199,37,04,36,061,40,02,30,305,35,12,15,303,23*7E
$GPGSV,3,3,11,05,13,244,19,03,08,053,26,28,03,192,*4E
$GPRMC,054359.700,A,3523.8145,N,13851.9924,E,26.00,24.79,210720,,,D*6F
$GPGGA,054359.800,3523.8152,N,13851.9928,E,2,7,1.71,1089.6,M,39.1,M,0000,0000*69
$GPGSA,A,3,19,06,17,02,09,04,03,,,,,,2.82,1.71,2.25*0C
$GPGSV,3,1,11,19,79,203,43,06,61,341,40,17,61,166,45,09,55,112,47*71
$GPGSV,3,2,11,50,47,199,37,04,36,061,41,02,30,305,35,12,15,303,22*7E
$GPGSV,3,3,11,05,13,244,19,03,08,053,26,28,03,192,*4E
$GPRMC,054359.800,A,3523.8152,N,13851.9928,E,25.99,25.36,210720,,,D*63
$GPGGA,054359.900,3523.8158,N,13851.9932,E,2,7,1.71,1089.5,M,39.1,M,0000,0000*6A
$GPGSA,A,3,19,06,17,02,09,04,03,,,,,,2.82,1.71,2.25*0C
$GPGSV,3,1,11,19,79,203,43,06,61,341,40,17,61,166,45,09,55,112,47*71
$GPGSV,3,2,11,50,47,199,37,04,36,061,41,02,30,305,35,12,15,303,22*7E
$GPGSV,3,3,11,05,13,244,19,03,08,053,26,28,03,192,*4E
$GPRMC,054359.900,A,3523.8158,N,13851.9932,E,25.77,26.46,210720,,,D*67
$GPGGA,054400.000,3523.8165,N,13851.9936,E,2,7,1.71,1089.4,M,39.1,M,0000,0000*63
$GPGSA,A,3,19,06,17,02,09,04,03,,,,,,2.83,1.71,2.25*0D
$GPGSV,3,1,11,19,79,203,43,06,61,341,41,17,61,166,45,09,55,112,47*70
$GPGSV,3,2,11,50,47,199,37,04,36,061,42,02,30,305,35,12,15,303,22*7D
$GPGSV,3,3,11,05,13,244,19,03,08,053,26,28,03,192,*4E
$GPRMC,054400.000,A,3523.8165,N,13851.9936,E,25.80,26.25,210720,,,D*62
$GPGGA,054400.100,3523.8171,N,13851.9940,E,2,7,1.71,1089.3,M,39.1,M,0000,0000*61
$GPGSA,A,3,19,06,17,02,09,04,03,,,,,,2.83,1.71,2.25*0D
$GPGSV,3,1,11,19,79,203,43,06,61,341,41,17,61,166,45,09,55,112,47*70
$GPGSV,3,2,11,50,47,199,37,04,36,061,42,02,30,305,35,12,15,303,22*7D
$GPGSV,3,3,11,05,13,244,19,03,08,053,26,28,03,192,*4E
$GPRMC,054400.100,A,3523.8171,N,13851.9940,E,25.78,27.04,210720,,,D*62
$GPGGA,054400.200,3523.8178,N,13851.9944,E,2,7,1.71,1089.3,M,39.1,M,0000,0000*6F
$GPGSA,A,3,19,06,17,02,09,04,03,,,,,,2.82,1.71,2.25*0C
$GPGSV,3,1,11,19,79,203,43,06,61,341,41,17,61,166,45,09,55,112,47*70
$GPGSV,3,2,11,50,47,199,37,04,36,061,43,02,30,305,35,12,15,303,22*7C
$GPGSV,3,3,11,05,13,244,19,03,08,053,26,28,03,192,*4E
$GPRMC,054400.200,A,3523.8178,N,13851.9944,E,25.76,27.70,210720,,,D*61
$GPGGA,054400.300,3523.8184,N,13851.9948,E,2,7,1.71,1089.2,M,39.1,M,0000,0000*60
$GPGSA,A,3,19,06,17,02,09,04,03,,,,,,2.82,1.71,2.25*0C
$GPGSV,3,1,11,19,79,203,43,06,61,341,41,17,61,166,45,09,55,112,46*71
$GPGSV,3,2,11,50,47,199,36,04,36,061,43,02,30,305,33,12,15,303,22*7B
$GPGSV,3,3,11,05,13,244,18,03,08,053,26,28,03,192,*4F
$GPRMC,054400.300,A,3523.8184,N,13851.9948,E,25.54,29.06,210720,,,D*60
$GPGGA,054400.400,3523.8191,N,13851.9952,E,2,7,1.71,1089.1,M,39.1,M,0000,0000*6B
$GPGSA,A,3,19,06,17,02,09,04,03,,,,,,2.82,1.71,2.25*0C
$GPGSV,3,1,11,19,79,203,44,06,61,341,41,17,61,166,45,09,55,112,46*76
$GPGSV,3,2,11,50,47,199,36,04,36,061,43,02,30,305,32,12,15,303,22*7A
$GPGSV,3,3,11,05,13,244,17,03,08,053,26,28,03,192,*40
$GPRMC,054400.400,A,3523.8191,N,13851.9952,E,25.82,28.33,210720,,,D*64
$GPGGA,054400.500,3523.8197,N,13851.9956,E,2,7,1.71,1089.1,M,39.1,M,0000,0000*68
$GPGSA,A,3,19,06,17,02,09,04,03,,,,,,2.83,1.71,2.25*0D
$GPGSV,3,1,11,19,79,203,44,06,61,341,40,17,61,166,45,09,55,112,46*77
$GPGSV,3,2,11,50,47,199,36,04,36,061,43,02,30,305,31,12,15,303,22*79
$GPGSV,3,3,11,05,13,244,17,03,08,053,26,28,03,192,*40
$GPRMC,054400.500,A,3523.8197,N,13851.9956,E,25.37,29.45,210720,,,D*69
$GPGGA,054400.600,3523.8203,N,13851.9960,E,2,7,1.71,1089.1,M,39.1,M,0000,0000*60
$GPGSA,A,3,19,06,17,02,09,04,03,,,,,,2.82,1.71,2.25*0C
$GPGSV,3,1,11,19,79,203,44,06,61,341,40,17,61,166,45,09,55,112,46*77
$GPGSV,3,2,11,50,47,199,37,04,36,061,43,02,30,305,30,12,15,303,22*79
$GPGSV,3,3,11,05,13,244,17,03,08,053,26,28,03,192,*40
$GPRMC,054400.600,A,3523.8203,N,13851.9960,E,25.19,30.45,210720,,,D*65
$GPGGA,054400.700,3523.8209,N,13851.9965,E,2,7,1.71,1089.0,M,39.1,M,0000,0000*6F
$GPGSA,A,3,19,06,17,02,09,04,03,,,,,,2.82,1.71,2.25*0C
$GPGSV,3,1,11,19,79,203,44,06,61,341,40,17,61,166,45,09,55,112,46*77
$GPGSV,3,2,11,50,47,199,37,04,36,061,43,02,30,305,30,12,15,303,22*79
$GPGSV,3,3,11,05,13,244,17,03,08,053,26,28,03,192,*40
$GPRMC,054400.700,A,3523.8209,N,13851.9965,E,25.21,32.03,210720,,,D*60
$GPGGA,054400.800,3523.8216,N,13851.9969,E,2,7,1.71,1088.9,M,39.1,M,0000,0000*6A
$GPGSA,A,3,19,06,17,02,09,04,03,,,,,,2.83,1.71,2.25*0D
$GPGSV,3,1,11,19,79,203,44,06,61,341,40,17,61,166,45,09,55,112,46*77
$GPGSV,3,2,11,50,47,199,37,04,36,061,43,02,30,305,30,12,15,303,22*79
$GPGSV,3,3,11,05,13,244,17,03,08,053,25,28,03,192,*43
$GPRMC,054400.800,A,3523.8216,N,13851.9969,E,25.27,31.73,210720,,,D*6F
$GPGGA,054400.900,3523.8222,N,13851.9973,E,2,7,1.71,1088.9,M,39.1,M,0000,0000*67
$GPGSA,A,3,19,06,17,02,09,04,03,,,,,,2.82,1.71,2.25*0C
$GPGSV,3,1,11,19,79,203,44,06,61,341,39,17,61,166,45,09,55,112,46*79
$GPGSV,3,2,11,50,47,199,37,04,36,061,43,02,30,305,29,12,15,303,22*71
$GPGSV,3,3,11,05,13,244,17,03,08,053,25,28,03,192,*43
$GPRMC,054400.900,A,3523.8222,N,13851.9973,E,25.48,32.42,210720,,,D*6A
$GPGGA,054401.000,3523.8228,N,13851.9978,E,2,7,1.71,1088.8,M,39.1,M,0000,0000*6F
$GPGSA,A,3,19,06,17,02,09,04,03,,,,,,2.82,1.71,2.25*0C
$GPGSV,3,1,11,19,79,203,44,06,61,341,38,17,61,166,45,09,55,112,45*7B
$GPGSV,3,2,11,50,47,199,37,04,36,061,43,02,30,305,28,12,15,303,22*70
$GPGSV,3,3,11,05,13,244,17,03,08,053,25,28,03,192,*43
$GPRMC,054401.000,A,3523.8228,N,13851.9978,E,25.10,33.04,210720,,,D*6D
$GPGGA,054401.100,3523.8234,N,13851.9983,E,2,7,1.71,1088.7,M,39.1,M,0000,0000*68
$GPGSA,A,3,19,06,17,02,09,04,03,,,,,,2.82,1.71,2.25*0C
$GPGSV,3,1,11,19,79,203,44,06,61,341,38,17,61,166,45,09,55,112,45*7B
$GPGSV,3,2,11,50,47,199,36,04,36,061,43,02,30,305,28,12,15,303,22*71
$GPGSV,3,3,11,05,13,244,17,03,08,053,25,28,03,192,*43
$GPRMC,054401.100,A,3523.8234,N,13851.9983,E,25.15,33.00,210720,,,D*64
$GPGGA,054401.200,3523.8241,N,13851.9988,E,2,7,1.71,1088.7,M,39.1,M,0000,0000*62
$GPGSA,A,3,19,06,17,02,09,04,03,,,,,,2.82,1.71,2.25*0C
$GPGSV,3,1,11,19,79,203,44,06,61,341,38,17,61,166,45,09,55,112,45*7B
$GPGSV,3,2,11,50,47,199,36,04,36,061,43,02,30,305,28,12,15,303,22*71
$GPGSV,3,3,11,05,13,244,17,03,08,053,25,28,03,192,*43
$GPRMC,054401.200,A,3523.8241,N,13851.9988,E,25.17,33.33,210720,,,D*6C
$GPGGA,054401.300,3523.8247,N,13851.9992,E,2,7,1.71,1088.6,M,39.1,M,0000,0000*6F
$GPGSA,A,3,19,06,17,02,09,04,03,,,,,,2.82,1.71,2.25*0C
$GPGSV,3,1,11,19,79,203,44,06,61,341,38,17,61,166,45,09,55,112,45*7B
$GPGSV,3,2,11,50,47,199,36,04,36,061,43,02,30,305,28,12,15,303,22*71
$GPGSV,3,3,11,05,13,244,17,03,08,053,25,28,03,192,*43
$GPRMC,054401.300,A,3523.8247,N,13851.9992,E,25.12,33.60,210720,,,D*63
$GPGGA,054401.400,3523.8252,N,13851.9998,E,2,7,1.71,1088.6,M,39.1,M,0000,0000*66
$GPGSA,A,3,19,06,17,02,09,04,03,,,,,,2.83,1.71,2.25*0D
$GPGSV,3,1,11,19,79,203,44,06,61,341,38,17,61,166,45,09,55,112,44*7A
$GPGSV,3,2,11,50,47,199,36,04,36,061,43,02,30,305,28,12,15,303,22*71
$GPGSV,3,3,11,05,13,244,17,03,08,053,24,28,03,192,*42
$GPRMC,054401.400,A,3523.8252,N,13851.9998,E,24.91,34.15,210720,,,D*65
$GPGGA,054401.500,3523.8258,N,13852.0002,E,2,7,1.71,1088.5,M,39.1,M,0000,0000*6E
$GPGSA,A,3,19,06,17,02,09,04,03,,,,,,2.83,1.71,2.25*0D
$GPGSV,3,1,11,19,79,203,44,06,61,341,39,17,61,166,45,09,55,112,44*7B
$GPGSV,3,2,11,50,47,199,36,04,36,061,43,02,30,305,30,12,15,303,23*79
$GPGSV,3,3,11,05,13,244,17,03,08,053,23,28,03,192,*45
$GPRMC,054401.500,A,3523.8258,N,13852.0002,E,24.95,34.60,210720,,,D*68
$GPGGA,054401.600,3523.8264,N,13852.0008,E,2,7,1.71,1088.5,M,39.1,M,0000,0000*68
$GPGSA,A,3,19,06,17,02,09,04,03,,,,,,2.82,1.71,2.25*0C
$GPGSV,3,1,11,19,79,203,44,06,61,341,40,17,61,166,45,09,55,112,44*75
$GPGSV,3,2,11,50,47,199,36,04,36,061,43,02,30,305,31,12,15,303,23*78
$GPGSV,3,3,11,05,13,244,17,03,08,053,22,28,03,192,*44
$GPRMC,054401.600,A,3523.8264,N,13852.0008,E,24.66,35.35,210720,,,D*63
$GPGGA,054401.700,3523.8270,N,13852.0012,E,2,7,1.71,1088.5,M,39.1,M,0000,0000*67
$GPGSA,A,3,19,06,17,02,09,04,03,,,,,,2.82,1.71,2.25*0C
$GPGSV,3,1,11,19,79,203,44,06,61,341,40,17,61,166,45,09,55,112,45*74
$GPGSV,3,2,11,50,47,199,36,04,36,061,44,02,30,305,32,12,15,303,23*7C
$GPGSV,3,3,11,05,13,244,17,03,08,053,22,28,03,192,*44
$GPRMC,054401.700,A,3523.8270,N,13852.0012,E,24.73,35.86,210720,,,D*60
$GPGGA,054401.800,3523.8275,N,13852.0017,E,2,7,1.71,1088.4,M,39.1,M,0000,0000*69
$GPGSA,A,3,19,06,17,02,09,04,03,,,,,,2.82,1.71,2.25*0C
$GPGSV,3,1,11,19,79,203,44,06,61,341,40,17,61,166,45,09,55,112,45*74
$GPGSV,3,2,11,50,47,199,36,04,36,061,44,02,30,305,32,12,15,303,23*7C
$GPGSV,3,3,11,05,13,244,17,03,08,053,22,28,03,192,*44
$GPRMC,054401.800,A,3523.8275,N,13852.0017,E,24.53,36.65,210720,,,D*63
$GPGGA,054401.900,3523.8281,N,13852.0022,E,2,7,1.71,1088.3,M,39.1,M,0000,0000*62
$GPGSA,A,3,19,06,17,02,09,04,03,,,,,,2.82,1.71,2.25*0C
$GPGSV,3,1,11,19,79,203,44,06,61,341,40,17,61,166,45,09,55,112,45*74
$GPGSV,3,2,11,50,47,199,36,04,36,061,44,02,30,305,32,12,15,303,23*7C
$GPGSV,3,3,11,05,13,244,17,03,08,053,22,28,03,192,*44
$GPRMC,054401.900,A,3523.8281,N,13852.0022,E,24.53,36.95,210720,,,D*60
$GPGGA,054402.000,3523.8287,N,13852.0027,E,2,7,1.71,1088.2,M,39.1,M,0000,0000*6A
$GPGSA,A,3,19,06,17,02,09,04,03,,,,,,2.82,1.71,2.25*0C
$GPGSV,3,1,11,19,79,203,44,06,61,341,39,17,61,166,45,09,55,112,45*7A
$GPGSV,3,2,11,50,47,199,36,04,36,061,45,02,30,305,32,12,15,303,23*7D
$GPGSV,3,3,11,05,13,244,17,03,08,053,22,28,03,192,*44
$GPRMC,054402.000,A,3523.8287,N,13852.0027,E,24.48,37.36,210720,,,D*6B
$GPGGA,054402.100,3523.8292,N,13852.0032,E,2,7,1.71,1088.2,M,39.1,M,0000,0000*6B
$GPGSA,A,3,19,06,17,02,09,04,03,,,,,,2.82,1.71,2.25*0C
$GPGSV,3,1,11,19,79,203,44,06,61,341,38,17,61,166,45,09,55,112,45*7B
$GPGSV,3,2,11,50,47,199,36,04,36,061,45,02,30,305,32,12,15,303,23*7D
$GPGSV,3,3,11,05,13,244,17,03,08,053,22,28,03,192,*44
$GPRMC,054402.100,A,3523.8292,N,13852.0032,E,24.44,37.50,210720,,,D*66
$GPGGA,054402.200,3523.8298,N,13852.0037,E,2,7,1.70,1088.2,M,39.1,M,0000,0000*66
$GPGSA,A,3,19,06,17,02,09,04,03,,,,,,2.82,1.70,2.25*0D
$GPGSV,3,1,11,19,79,203,44,06,61,341,38,17,61,166,45,09,55,112,45*7B
$GPGSV,3,2,11,50,47,199,35,04,36,061,45,02,30,305,32,12,15,303,23*7E
$GPGSV,3,3,11,05,13,244,17,03,08,053,22,28,03,192,*44
$GPRMC,054402.200,A,3523.8298,N,13852.0037,E,24.39,37.61,210720,,,D*62
$GPGGA,054402.300,3523.8303,N,13852.0041,E,2,7,1.71,1088.1,M,39.1,M,0000,0000*67
$GPGSA,A,3,19,06,17,02,09,04,03,,,,,,2.82,1.71,2.25*0C
$GPGSV,3,1,11,19,79,203,44,06,61,341,39,17,61,166,45,09,55,112,45*7A
$GPGSV,3,2,11,50,47,199,35,04,36,061,45,02,30,305,32,12,15,303,23*7E
$GPGSV,3,3,11,05,13,244,17,03,08,053,22,28,03,192,*44
$GPRMC,054402.300,A,3523.8303,N,13852.0041,E,24.10,37.72,210720,,,D*68
$GPGGA,054402.400,3523.8308,N,13852.0046,E,2,7,1.71,1088.0,M,39.1,M,0000,0000*6D
$GPGSA,A,3,19,06,17,02,09,04,03,,,,,,2.82,1.71,2.25*0C
$GPGSV,3,1,11,19,79,203,44,06,61,341,41,17,61,166,45,09,55,112,45*75
$GPGSV,3,2,11,50,47,199,35,04,36,061,45,02,30,305,32,12,15,303,23*7E
$GPGSV,3,3,11,05,13,244,17,03,08,053,22,28,03,192,*44
$GPRMC,054402.400,A,3523.8308,N,13852.0046,E,24.02,38.02,210720,,,D*68
$GPGGA,054402.500,3523.8313,N,13852.0051,E,2,7,1.70,1087.8,M,39.1,M,0000,0000*66
$GPGSA,A,3,19,06,17,02,09,04,03,,,,,,2.82,1.70,2.25*0D
$GPGSV,3,1,11,19,79,203,44,06,61,341,42,17,61,166,45,09,55,112,45*76
$GPGSV,3,2,11,50,47,199,34,04,36,061,45,02,30,305,32,12,15,303,23*7F
$GPGSV,3,3,11,05,13,244,17,03,08,053,22,28,03,192,*44
$GPRMC,054402.500,A,3523.8313,N,13852.0051,E,23.84,38.28,210720,,,D*64
$GPGGA,054402.600,3523.8318,N,13852.0056,E,2,7,1.71,1087.7,M,39.1,M,0000,0000*67
$GPGSA,A,3,19,06,17,02,09,04,03,,,,,,2.82,1.71,2.25*0C
$GPGSV,3,1,11,19,79,203,44,06,61,341,43,17,61,166,44,09,55,112,45*76
$GPGSV,3,2,11,50,47,199,34,04,36,061,45,02,30,305,32,12,15,303,23*7F
$GPGSV,3,3,11,05,13,244,17,03,08,053,22,28,03,192,*44
$GPRMC,054402.600,A,3523.8318,N,13852.0056,E,23.78,38.52,210720,,,D*65
$GPGGA,054402.700,3523.8323,N,13852.0060,E,2,7,1.70,1087.6,M,39.1,M,0000,0000*6B
$GPGSA,A,3,19,06,17,02,09,04,03,,,,,,2.82,1.70,2.25*0D
$GPGSV,3,1,11,19,79,203,44,06,61,341,43,17,61,166,44,09,55,112,45*76
$GPGSV,3,2,11,50,47,199,33,04,36,061,45,02,30,305,33,12,15,303,23*79
$GPGSV,3,3,11,05,13,244,17,03,08,053,22,28,03,192,*44
$GPRMC,054402.700,A,3523.8323,N,13852.0060,E,23.72,38.73,210720,,,D*60
$GPGGA,054402.800,3523.8328,N,13852.0065,E,2,8,1.54,1087.5,M,39.1,M,0000,0000*60
$GPGSA,A,3,19,06,17,02,09,04,03,12,,,,,2.39,1.54,1.83*07
$GPGSV,3,1,11,19,79,203,44,06,61,341,44,17,61,166,44,09,55,112,45*71
$GPGSV,3,2,11,50,47,199,33,04,36,061,45,02,30,305,33,12,15,303,24*7E
$GPGSV,3,3,11,05,13,244,17,03,08,053,22,28,03,192,*44
$GPRMC,054402.800,A,3523.8328,N,13852.0065,E,23.52,38.82,210720,,,D*6D
$GPGGA,054402.900,3523.8333,N,13852.0070,E,2,8,1.54,1087.4,M,39.1,M,0000,0000*6E
$GPGSA,A,3,19,06,17,02,09,04,03,12,,,,,2.39,1.54,1.83*07
$GPGSV,3,1,11,19,79,203,44,06,61,341,44,17,61,166,44,09,55,112,45*71
$GPGSV,3,2,11,50,47,199,33,04,36,061,45,02,30,305,33,12,15,303,25*7F
$GPGSV,3,3,11,05,13,244,16,03,08,053,22,28,03,192,*45
$GPRMC,054402.900,A,3523.8333,N,13852.0070,E,23.53,38.93,210720,,,D*63
$GPGGA,054403.000,3523.8338,N,13852.0075,E,2,8,1.54,1087.4,M,39.1,M,0000,0000*68
$GPGSA,A,3,19,06,17,02,09,04,03,12,,,,,2.39,1.54,1.83*07
$GPGSV,3,1,11,19,79,203,44,06,61,341,44,17,61,166,44,09,55,112,45*71
$GPGSV,3,2,11,50,47,199,33,04,36,061,45,02,30,305,35,12,15,303,26*7A
$GPGSV,3,3,11,05,13,244,16,03,08,053,22,28,03,192,*45
$GPRMC,054403.000,A,3523.8338,N,13852.0075,E,23.46,38.90,210720,,,D*62
$GPGGA,054403.100,3523.8343,N,13852.0080,E,2,8,1.54,1087.5,M,39.1,M,0000,0000*6E
$GPGSA,A,3,19,06,17,02,09,04,03,12,,,,,2.39,1.54,1.83*07
$GPGSV,3,1,11,19,79,203,44,06,61,341,44,17,61,166,44,09,55,112,45*71
$GPGSV,3,2,11,50,47,199,34,04,36,061,45,02,30,305,36,12,15,303,26*7E
$GPGSV,3,3,11,05,13,244,16,03,08,053,22,28,03,192,*45
$GPRMC,054403.100,A,3523.8343,N,13852.0080,E,23.20,38.97,210720,,,D*62
$GPGGA,054403.200,3523.8348,N,13852.0085,E,2,8,1.54,1087.6,M,39.1,M,0000,0000*60
$GPGSA,A,3,19,06,17,02,09,04,03,12,,,,,2.39,1.54,1.83*07
$GPGSV,3,1,11,19,79,203,44,06,61,341,44,17,61,166,44,09,55,112,45*71
$GPGSV,3,2,11,50,47,199,34,04,36,061,45,02,30,305,37,12,15,303,26*7F
$GPGSV,3,3,11,05,13,244,16,03,08,053,22,28,03,192,*45
$GPRMC,054403.200,A,3523.8348,N,13852.0085,E,23.15,38.96,210720,,,D*68
$GPGGA,054403.300,3523.8353,N,13852.0090,E,2,8,1.54,1087.6,M,39.1,M,0000,0000*6F
$GPGSA,A,3,19,06,17,02,09,04,03,12,,,,,2.39,1.54,1.83*07
$GPGSV,3,1,11,19,79,203,44,06,61,341,44,17,61,166,44,09,55,112,45*71
$GPGSV,3,2,11,50,47,199,34,04,36,061,45,02,30,305,37,12,15,303,36*7E
$GPGSV,3,3,11,05,13,244,16,03,08,053,22,28,03,192,*45
$GPRMC,054403.300,A,3523.8353,N,13852.0090,E,23.10,39.00,210720,,,D*6C
$GPGGA,054403.400,3523.8358,N,13852.0095,E,2,8,1.54,1087.5,M,39.1,M,0000,0000*65
$GPGSA,A,3,19,06,17,02,09,04,03,12,,,,,2.39,1.54,1.83*07
$GPGSV,3,1,11,19,79,203,44,06,61,341,44,17,61,166,44,09,55,112,45*71
$GPGSV,3,2,11,50,47,199,34,04,36,061,45,02,30,305,37,12,15,303,36*7E
$GPGSV,3,3,11,05,13,244,16,03,08,053,22,28,03,192,*45
$GPRMC,054403.400,A,3523.8358,N,13852.0095,E,22.94,38.86,210720,,,D*67
$GPGGA,054403.500,3523.8362,N,13852.0099,E,2,8,1.54,1087.4,M,39.1,M,0000,0000*60
$GPGSA,A,3,19,06,17,02,09,04,03,12,,,,,2.39,1.54,1.83*07
$GPGSV,3,1,11,19,79,203,44,06,61,341,44,17,61,166,44,09,55,112,45*71
$GPGSV,3,2,11,50,47,199,34,04,36,061,45,02,30,305,38,12,15,303,36*71
$GPGSV,3,3,11,05,13,244,16,03,08,053,22,28,03,192,*45
