$GPGGA,032530.000,3524.7338,N,13854.5496,E,2,8,1.34,1099.3,M,39.2,M,0000,0000*66
$GPGSA,A,3,03,28,17,22,01,19,06,11,,,,,1.59,1.34,0.87*06
$GPGSV,3,1,11,03,63,062,39,28,57,239,43,17,52,324,34,50,46,199,*71
$GPGSV,3,2,11,22,41,049,41,01,32,056,36,19,31,313,32,06,22,270,32*7B
$GPGSV,3,3,11,11,16,089,29,09,06,164,,08,03,124,*44
$GPRMC,032530.000,A,3524.7338,N,13854.5496,E,10.11,191.09,210720,,,D*51
$GPGGA,032530.100,3524.7338,N,13854.5493,E,2,8,1.34,1099.5,M,39.2,M,0000,0000*64
$GPGSA,A,3,03,28,17,22,01,19,06,11,,,,,1.59,1.34,0.87*06
$GPGSV,3,1,11,03,63,062,40,28,57,239,43,17,52,324,34,50,46,199,*7F
$GPGSV,3,2,11,22,41,049,42,01,32,056,38,19,31,313,32,06,22,270,32*76
$GPGSV,3,3,11,11,16,089,29,09,06,164,,08,03,124,*44
$GPRMC,032530.100,A,3524.7338,N,13854.5493,E,10.35,190.16,210720,,,D*5C
$GPGGA,032530.200,3524.7336,N,13854.5492,E,2,8,1.34,1099.7,M,39.2,M,0000,0000*6A
$GPGSA,A,3,03,28,17,22,01,19,06,11,,,,,1.59,1.34,0.87*06
$GPGSV,3,1,11,03,63,062,40,28,57,239,43,17,52,324,34,50,46,199,*7F
$GPGSV,3,2,11,22,41,049,42,01,32,056,38,19,31,313,32,06,22,270,34*70
$GPGSV,3,3,11,11,16,089,29,09,06,164,,08,03,124,*44
$GPRMC,032530.200,A,3524.7336,N,13854.5492,E,10.71,182.69,210720,,,D*5B
$GPGGA,032530.300,3524.7333,N,13854.5492,E,2,8,1.34,1099.6,M,39.2,M,0000,0000*6F
$GPGSA,A,3,03,28,17,22,01,19,06,11,,,,,1.59,1.34,0.87*06
$GPGSV,3,1,11,03,63,062,40,28,57,239,43,17,52,324,35,50,46,199,*7E
$GPGSV,3,2,11,22,41,049,42,01,32,056,38,19,31,313,33,06,22,270,34*71
$GPGSV,3,3,11,11,16,089,26,09,06,164,,08,03,124,*4B
$GPRMC,032530.300,A,3524.7333,N,13854.5492,E,10.95,181.89,210720,,,D*58
$GPGGA,032530.400,3524.7327,N,13854.5494,E,2,8,1.34,1099.7,M,39.2,M,0000,0000*6A
$GPGSA,A,3,03,28,17,22,01,19,06,11,,,,,1.59,1.34,0.87*06
$GPGSV,3,1,11,03,63,062,40,28,57,239,43,17,52,324,35,50,46,199,*7E
$GPGSV,3,2,11,22,41,049,42,01,32,056,38,19,31,313,33,06,22,270,34*71
$GPGSV,3,3,11,11,16,089,26,09,06,164,,08,03,124,*4B
$GPRMC,032530.400,A,3524.7327,N,13854.5494,E,11.19,181.39,210720,,,D*52
$GPGGA,032530.500,3524.7320,N,13854.5498,E,2,8,1.34,1099.6,M,39.2,M,0000,0000*61
$GPGSA,A,3,03,28,17,22,01,19,06,11,,,,,1.59,1.34,0.87*06
$GPGSV,3,1,11,03,63,062,40,28,57,239,43,17,52,324,35,50,46,199,38*75
$GPGSV,3,2,11,22,41,049,42,01,32,056,38,19,31,313,33,06,22,270,34*71
$GPGSV,3,3,11,11,16,089,26,09,06,164,,08,03,124,*4B
$GPRMC,032530.500,A,3524.7320,N,13854.5498,E,11.57,180.27,210720,,,D*5C
$GPGGA,032530.600,3524.7313,N,13854.5502,E,2,8,1.34,1099.6,M,39.2,M,0000,0000*60
$GPGSA,A,3,03,28,17,22,01,19,06,11,,,,,1.59,1.34,0.87*06
$GPGSV,3,1,11,03,63,062,40,28,57,239,43,17,52,324,35,50,46,199,38*75
$GPGSV,3,2,11,22,41,049,42,01,32,056,38,19,31,313,33,06,22,270,34*71
$GPGSV,3,3,11,11,16,089,26,09,06,164,,08,03,124,*4B
$GPRMC,032530.600,A,3524.7313,N,13854.5502,E,11.99,178.93,210720,,,D*57
$GPGGA,032530.700,3524.7307,N,13854.5506,E,2,8,1.34,1099.6,M,39.2,M,0000,0000*60
$GPGSA,A,3,03,28,17,22,01,19,06,11,,,,,1.59,1.34,0.87*06
$GPGSV,3,1,11,03,63,062,40,28,57,239,43,17,52,324,35,50,46,199,38*75
$GPGSV,3,2,11,22,41,049,42,01,32,056,38,19,31,313,33,06,22,270,33*76
$GPGSV,3,3,11,11,16,089,26,09,06,164,,08,03,124,*4B
$GPRMC,032530.700,A,3524.7307,N,13854.5506,E,12.44,177.81,210720,,,D*58
$GPGGA,032530.800,3524.7302,N,13854.5508,E,2,8,1.34,1099.6,M,39.2,M,0000,0000*64
$GPGSA,A,3,03,28,17,22,01,19,06,11,,,,,1.59,1.34,0.87*06
$GPGSV,3,1,11,03,63,062,40,28,57,239,43,17,52,324,34,50,46,199,39*75
$GPGSV,3,2,11,22,41,049,42,01,32,056,38,19,31,313,33,06,22,270,33*76
$GPGSV,3,3,11,11,16,089,26,09,06,164,,08,03,124,*4B
$GPRMC,032530.800,A,3524.7302,N,13854.5508,E,12.75,176.98,210720,,,D*57
$GPGGA,032530.900,3524.7296,N,13854.5510,E,2,8,1.34,1099.6,M,39.2,M,0000,0000*60
$GPGSA,A,3,03,28,17,22,01,19,06,11,,,,,1.59,1.34,0.87*06
$GPGSV,3,1,11,03,63,062,40,28,57,239,42,17,52,324,34,50,46,199,39*74
$GPGSV,3,2,11,22,41,049,42,01,32,056,38,19,31,313,33,06,22,270,33*76
$GPGSV,3,3,11,11,16,089,26,09,06,164,,08,03,124,*4B
$GPRMC,032530.900,A,3524.7296,N,13854.5510,E,13.05,176.10,210720,,,D*55
$GPGGA,032531.000,3524.7291,N,13854.5512,E,2,8,1.34,1099.6,M,39.2,M,0000,0000*6D
$GPGSA,A,3,03,28,17,22,01,19,06,11,,,,,1.59,1.34,0.87*06
$GPGSV,3,1,11,03,63,062,40,28,57,239,42,17,52,324,34,50,46,199,39*74
$GPGSV,3,2,11,22,41,049,42,01,32,056,38,19,31,313,33,06,22,270,33*76
$GPGSV,3,3,11,11,16,089,26,09,06,164,,08,03,124,*4B
$GPRMC,032531.000,A,3524.7291,N,13854.5512,E,13.38,174.89,210720,,,D*54
$GPGGA,032531.100,3524.7287,N,13854.5513,E,2,8,1.34,1099.6,M,39.2,M,0000,0000*6A
$GPGSA,A,3,03,28,17,22,01,19,06,11,,,,,1.59,1.34,0.87*06
$GPGSV,3,1,11,03,63,062,39,28,57,239,43,17,52,324,34,50,46,199,39*7B
$GPGSV,3,2,11,22,41,049,42,01,32,056,38,19,31,313,33,06,22,270,34*71
$GPGSV,3,3,11,11,16,089,26,09,06,164,,08,03,124,*4B
$GPRMC,032531.100,A,3524.7287,N,13854.5513,E,13.71,173.89,210720,,,D*59
$GPGGA,032531.200,3524.7282,N,13854.5514,E,2,8,1.34,1099.6,M,39.2,M,0000,0000*6B
$GPGSA,A,3,03,28,17,22,01,19,06,11,,,,,1.59,1.34,0.87*06
$GPGSV,3,1,11,03,63,062,39,28,57,239,43,17,52,324,35,50,46,199,39*7A
$GPGSV,3,2,11,22,41,049,42,01,32,056,38,19,31,313,34,06,22,270,34*76
$GPGSV,3,3,11,11,16,089,26,09,06,164,,08,03,124,*4B
$GPRMC,032531.200,A,3524.7282,N,13854.5514,E,13.98,173.16,210720,,,D*59
$GPGGA,032531.300,3524.7277,N,13854.5516,E,2,8,1.34,1099.5,M,39.2,M,0000,0000*61
$GPGSA,A,3,03,28,17,22,01,19,06,11,,,,,1.59,1.34,0.87*06
$GPGSV,3,1,11,03,63,062,39,28,57,239,43,17,52,324,35,50,46,199,38*7B
$GPGSV,3,2,11,22,41,049,41,01,32,056,38,19,31,313,34,06,22,270,34*75
$GPGSV,3,3,11,11,16,089,26,09,06,164,,08,03,124,*4B
$GPRMC,032531.300,A,3524.7277,N,13854.5516,E,14.19,172.30,210720,,,D*5B
$GPGGA,032531.400,3524.7273,N,13854.5517,E,2,8,1.34,1099.5,M,39.2,M,0000,0000*63
$GPGSA,A,3,03,28,17,22,01,19,06,11,,,,,1.59,1.34,0.87*06
$GPGSV,3,1,11,03,63,062,39,28,57,239,43,17,52,324,35,50,46,199,39*7A
$GPGSV,3,2,11,22,41,049,41,01,32,056,37,19,31,313,34,06,22,270,34*7A
$GPGSV,3,3,11,11,16,089,26,09,06,164,,08,03,124,*4B
$GPRMC,032531.400,A,3524.7273,N,13854.5517,E,14.57,171.09,210720,,,D*5A
$GPGGA,032531.600,3524.7265,N,13854.5519,E,2,7,1.56,1099.5,M,39.2,M,0000,0000*63
$GPGSA,A,3,03,28,17,22,01,19,06,,,,,,1.81,1.56,0.92*03
$GPGSV,3,1,11,03,63,062,40,28,57,239,43,17,52,324,35,50,46,199,39*74
$GPGSV,3,2,11,22,41,049,42,01,32,056,37,19,31,313,35,06,22,270,34*78
$GPGSV,3,3,11,11,16,089,22,09,06,164,,08,03,124,*4F
$GPRMC,032531.600,A,3524.7265,N,13854.5519,E,16.21,168.49,210720,,,D*5E
$GPGGA,032531.800,3524.7260,N,13854.5520,E,2,7,1.56,1099.5,M,39.2,M,0000,0000*62
$GPGSA,A,3,03,28,17,22,01,19,06,,,,,,1.81,1.56,0.92*03
$GPGSV,3,1,11,03,63,062,40,28,57,239,42,17,52,324,34,50,46,199,39*74
$GPGSV,3,2,11,22,41,049,43,01,32,056,38,19,31,313,35,06,22,270,33*71
$GPGSV,3,3,11,11,16,089,22,09,06,164,,08,03,124,*4F
$GPRMC,032531.800,A,3524.7260,N,13854.5520,E,16.24,168.95,210720,,,D*5B
$GPGGA,032531.900,3524.7258,N,13854.5520,E,2,7,1.56,1099.5,M,39.2,M,0000,0000*68
$GPGSA,A,3,03,28,17,22,01,19,06,,,,,,1.81,1.56,0.92*03
$GPGSV,3,1,11,03,63,062,39,28,57,239,42,17,52,324,34,50,46,199,39*7A
$GPGSV,3,2,11,22,41,049,42,01,32,056,38,19,31,313,35,06,22,270,33*70
$GPGSV,3,3,11,11,16,089,22,09,06,164,,08,03,124,*4F
$GPRMC,032531.900,A,3524.7258,N,13854.5520,E,16.22,168.58,210720,,,D*56
$GPGGA,032532.100,3524.7251,N,13854.5522,E,2,7,1.56,1099.5,M,39.2,M,0000,0000*68
$GPGSA,A,3,03,28,17,22,01,19,06,,,,,,1.81,1.56,0.92*03
$GPGSV,3,1,11,03,63,062,39,28,57,239,43,17,52,324,35,50,46,199,39*7A
$GPGSV,3,2,11,22,41,049,43,01,32,056,38,19,31,313,35,06,22,270,34*76
$GPGSV,3,3,11,11,16,089,20,09,06,164,,08,03,124,*4D
$GPRMC,032532.100,A,3524.7251,N,13854.5522,E,16.39,168.69,210720,,,D*5E
$GPGGA,032532.200,3524.7248,N,13854.5523,E,2,7,1.56,1099.5,M,39.2,M,0000,0000*62
$GPGSA,A,3,03,28,17,22,01,19,06,,,,,,1.81,1.56,0.92*03
$GPGSV,3,1,11,03,63,062,39,28,57,239,43,17,52,324,35,50,46,199,38*7B
$GPGSV,3,2,11,22,41,049,43,01,32,056,38,19,31,313,35,06,22,270,34*76
$GPGSV,3,3,11,11,16,089,20,09,06,164,,08,03,124,*4D
$GPRMC,032532.200,A,3524.7248,N,13854.5523,E,16.46,169.03,210720,,,D*51
$GPGGA,032532.300,3524.7244,N,13854.5524,E,2,7,1.56,1099.5,M,39.2,M,0000,0000*68
$GPGSA,A,3,03,28,17,22,01,19,06,,,,,,1.81,1.56,0.92*03
$GPGSV,3,1,11,03,63,062,39,28,57,239,43,17,52,324,35,50,46,199,36*75
$GPGSV,3,2,11,22,41,049,43,01,32,056,37,19,31,313,35,06,22,270,34*79
$GPGSV,3,3,11,11,16,089,20,09,06,164,,08,03,124,*4D
$GPRMC,032532.300,A,3524.7244,N,13854.5524,E,16.50,168.65,210720,,,D*5D
$GPGGA,032532.600,3524.7231,N,13854.5527,E,2,7,1.56,1099.4,M,39.2,M,0000,0000*6D
$GPGSA,A,3,03,28,17,22,01,19,06,,,,,,1.81,1.56,0.92*03
$GPGSV,3,1,11,03,63,062,39,28,57,239,43,17,52,324,35,50,46,199,40*74
$GPGSV,3,2,11,22,41,049,43,01,32,056,37,19,31,313,36,06,22,270,34*7A
$GPGSV,3,3,11,11,16,089,20,09,06,164,,08,03,124,*4D
$GPRMC,032532.600,A,3524.7231,N,13854.5527,E,16.77,168.62,210720,,,D*5B
$GPGGA,032532.800,3524.7222,N,13854.5529,E,2,7,1.56,1099.4,M,39.2,M,0000,0000*6F
$GPGSA,A,3,03,28,17,22,01,19,06,,,,,,1.81,1.56,0.92*03
$GPGSV,3,1,11,03,63,062,39,28,57,239,43,17,52,324,35,50,46,199,39*7A
$GPGSV,3,2,11,22,41,049,43,01,32,056,36,19,31,313,36,06,22,270,34*7B
$GPGSV,3,3,11,11,16,089,21,09,06,164,,08,03,124,*4C
$GPRMC,032532.800,A,3524.7222,N,13854.5529,E,17.25,168.07,210720,,,D*5C
$GPGGA,032532.900,3524.7218,N,13854.5529,E,2,7,1.56,1099.4,M,39.2,M,0000,0000*67
$GPGSA,A,3,03,28,17,22,01,19,06,,,,,,1.81,1.56,0.92*03
$GPGSV,3,1,11,03,63,062,39,28,57,239,42,17,52,324,35,50,46,199,40*75
$GPGSV,3,2,11,22,41,049,43,01,32,056,36,19,31,313,36,06,22,270,34*7B
$GPGSV,3,3,11,11,16,089,21,09,06,164,,08,03,124,*4C
$GPRMC,032532.900,A,3524.7218,N,13854.5529,E,17.29,167.84,210720,,,D*5C
$GPGGA,032533.100,3524.7209,N,13854.5529,E,2,7,1.56,1099.3,M,39.2,M,0000,0000*69
$GPGSA,A,3,03,28,17,22,01,19,06,,,,,,1.81,1.56,0.92*03
$GPGSV,3,1,11,03,63,062,39,28,57,239,43,17,52,324,35,50,46,199,40*74
$GPGSV,3,2,11,22,41,049,43,01,32,056,36,19,31,313,36,06,22,270,34*7B
$GPGSV,3,3,11,11,16,089,21,09,06,164,,08,03,124,*4C
$GPRMC,032533.100,A,3524.7209,N,13854.5529,E,17.38,168.29,210720,,,D*5D
$GPGGA,032533.300,3524.7198,N,13854.5531,E,2,7,1.56,1099.3,M,39.2,M,0000,0000*69
$GPGSA,A,3,03,28,17,22,01,19,06,,,,,,1.81,1.56,0.92*03
$GPGSV,3,1,11,03,63,062,39,28,57,239,43,17,52,324,35,50,46,199,37*74
$GPGSV,3,2,11,22,41,049,43,01,32,056,36,19,31,313,36,06,22,270,34*7B
$GPGSV,3,3,11,11,16,089,21,09,06,164,,08,03,124,*4C
$GPRMC,032533.300,A,3524.7198,N,13854.5531,E,17.45,167.73,210720,,,D*57
$GPGGA,032533.400,3524.7192,N,13854.5532,E,2,7,1.56,1099.3,M,39.2,M,0000,0000*67
$GPGSA,A,3,03,28,17,22,01,19,06,,,,,,1.81,1.56,0.92*03
$GPGSV,3,1,11,03,63,062,39,28,57,239,43,17,52,324,36,50,46,199,38*78
$GPGSV,3,2,11,22,41,049,43,01,32,056,36,19,31,313,36,06,22,270,34*7B
$GPGSV,3,3,11,11,16,089,19,09,06,164,,08,03,124,*47
$GPRMC,032533.400,A,3524.7192,N,13854.5532,E,17.55,167.69,210720,,,D*53
$GPGGA,032533.600,3524.7183,N,13854.5535,E,2,7,1.56,1099.2,M,39.2,M,0000,0000*63
$GPGSA,A,3,03,28,17,22,01,19,06,,,,,,1.81,1.56,0.92*03
$GPGSV,3,1,11,03,63,062,39,28,57,239,43,17,52,324,36,50,46,199,38*78
$GPGSV,3,2,11,22,41,049,43,01,32,056,37,19,31,313,37,06,22,270,33*7C
$GPGSV,3,3,11,11,16,089,19,09,06,164,,08,03,124,*47
$GPRMC,032533.600,A,3524.7183,N,13854.5535,E,17.60,167.61,210720,,,D*58
$GPGGA,032533.700,3524.7178,N,13854.5536,E,2,7,1.56,1099.2,M,39.2,M,0000,0000*65
$GPGSA,A,3,03,28,17,22,01,19,06,,,,,,1.81,1.56,0.92*03
$GPGSV,3,1,11,03,63,062,39,28,57,239,43,17,52,324,36,50,46,199,39*79
$GPGSV,3,2,11,22,41,049,43,01,32,056,37,19,31,313,37,06,22,270,33*7C
$GPGSV,3,3,11,11,16,089,19,09,06,164,,08,03,124,*47
$GPRMC,032533.700,A,3524.7178,N,13854.5536,E,17.79,168.09,210720,,,D*57
$GPGGA,032533.800,3524.7173,N,13854.5537,E,2,7,1.56,1099.2,M,39.2,M,0000,0000*60
$GPGSA,A,3,03,28,17,22,01,19,06,,,,,,1.81,1.56,0.92*03
$GPGSV,3,1,11,03,63,062,39,28,57,239,43,17,52,324,36,50,46,199,39*79
$GPGSV,3,2,11,22,41,049,43,01,32,056,37,19,31,313,37,06,22,270,33*7C
$GPGSV,3,3,11,11,16,089,19,09,06,164,,08,03,124,*47
$GPRMC,032533.800,A,3524.7173,N,13854.5537,E,17.67,168.10,210720,,,D*55
$GPGGA,032533.900,3524.7167,N,13854.5540,E,2,7,1.56,1099.1,M,39.2,M,0000,0000*67
$GPGSA,A,3,03,28,17,22,01,19,06,,,,,,1.81,1.56,0.92*03
$GPGSV,3,1,11,03,63,062,39,28,57,239,43,17,52,324,36,50,46,199,38*78
$GPGSV,3,2,11,22,41,049,43,01,32,056,37,19,31,313,37,06,22,270,33*7C
$GPGSV,3,3,11,11,16,089,19,09,06,164,,08,03,124,*47
$GPRMC,032533.900,A,3524.7167,N,13854.5540,E,17.84,167.88,210720,,,D*52
$GPGGA,032534.100,3524.7158,N,13854.5543,E,2,7,1.56,1099.1,M,39.2,M,0000,0000*67
$GPGSA,A,3,03,28,17,22,01,19,06,,,,,,1.81,1.56,0.92*03
$GPGSV,3,1,11,03,63,062,39,28,57,239,43,17,52,324,36,50,46,199,38*78
$GPGSV,3,2,11,22,41,049,43,01,32,056,37,19,31,313,37,06,22,270,31*7E
$GPGSV,3,3,11,11,16,089,22,09,06,164,,08,03,124,*4F
$GPRMC,032534.100,A,3524.7158,N,13854.5543,E,17.98,168.46,210720,,,D*52
$GPGGA,032534.200,3524.7154,N,13854.5544,E,2,7,1.56,1099.1,M,39.2,M,0000,0000*6F
$GPGSA,A,3,03,28,17,22,01,19,06,,,,,,1.81,1.56,0.92*03
$GPGSV,3,1,11,03,63,062,39,28,57,239,43,17,52,324,36,50,46,199,38*78
$GPGSV,3,2,11,22,41,049,43,01,32,056,37,19,31,313,36,06,22,270,31*7F
$GPGSV,3,3,11,11,16,089,22,09,06,164,,08,03,124,*4F
$GPRMC,032534.200,A,3524.7154,N,13854.5544,E,17.95,168.56,210720,,,D*56
$GPGGA,032534.300,3524.7149,N,13854.5546,E,2,7,1.56,1099.0,M,39.2,M,0000,0000*61
$GPGSA,A,3,03,28,17,22,01,19,06,,,,,,1.81,1.56,0.92*03
$GPGSV,3,1,11,03,63,062,39,28,57,239,43,17,52,324,36,50,46,199,38*78
$GPGSV,3,2,11,22,41,049,43,01,32,056,37,19,31,313,36,06,22,270,31*7F
$GPGSV,3,3,11,11,16,089,22,09,06,164,,08,03,124,*4F
$GPRMC,032534.300,A,3524.7149,N,13854.5546,E,17.96,167.93,210720,,,D*5C
$GPGGA,032534.600,3524.7134,N,13854.5551,E,2,7,1.56,1098.9,M,39.2,M,0000,0000*60
$GPGSA,A,3,03,28,17,22,01,19,06,,,,,,1.81,1.56,0.92*03
$GPGSV,3,1,11,03,63,062,39,28,57,239,43,17,52,324,36,50,46,199,38*78
$GPGSV,3,2,11,22,41,049,43,01,32,056,37,19,31,313,36,06,22,270,31*7F
$GPGSV,3,3,11,11,16,089,22,09,06,164,,08,03,124,*4F
$GPRMC,032534.600,A,3524.7134,N,13854.5551,E,18.41,168.59,210720,,,D*59
$GPGGA,032534.700,3524.7128,N,13854.5552,E,2,7,1.56,1098.8,M,39.2,M,0000,0000*6E
$GPGSA,A,3,03,28,17,22,01,19,06,,,,,,1.81,1.56,0.92*03
$GPGSV,3,1,11,03,63,062,39,28,57,239,43,17,52,324,36,50,46,199,37*77
$GPGSV,3,2,11,22,41,049,42,01,32,056,37,19,31,313,36,06,22,270,31*7E
$GPGSV,3,3,11,11,16,089,21,09,06,164,,08,03,124,*4C
$GPRMC,032534.700,A,3524.7128,N,13854.5552,E,18.03,168.19,210720,,,D*54
$GPGGA,032534.800,3524.7123,N,13854.5553,E,2,7,1.67,1098.8,M,39.2,M,0000,0000*69
$GPGSA,A,3,03,28,17,22,01,19,06,,,,,,2.94,1.67,2.42*09
$GPGSV,3,1,11,03,63,062,39,28,57,239,43,17,52,324,36,50,46,199,37*77
$GPGSV,3,2,11,22,41,049,41,01,32,056,37,19,31,313,36,06,22,270,31*7D
$GPGSV,3,3,11,11,16,089,21,09,06,164,,08,03,124,*4C
$GPRMC,032534.800,A,3524.7123,N,13854.5553,E,17.96,168.88,210720,,,D*5A
$GPGGA,032534.900,3524.7119,N,13854.5554,E,2,7,1.67,1098.8,M,39.2,M,0000,0000*66
$GPGSA,A,3,03,28,17,22,01,19,06,,,,,,2.94,1.67,2.42*09
$GPGSV,3,1,11,03,63,062,39,28,57,239,43,17,52,324,36,50,46,199,38*78
$GPGSV,3,2,11,22,41,049,41,01,32,056,37,19,31,313,36,06,22,270,31*7D
$GPGSV,3,3,11,11,16,089,21,09,06,164,,08,03,124,*4C
$GPRMC,032534.900,A,3524.7119,N,13854.5554,E,18.08,167.87,210720,,,D*5D
$GPGGA,032535.100,3524.7111,N,13854.5556,E,2,7,1.67,1098.7,M,39.2,M,0000,0000*6A
$GPGSA,A,3,03,28,17,22,01,19,06,,,,,,2.94,1.67,2.42*09
$GPGSV,3,1,11,03,63,062,39,28,57,239,43,17,52,324,36,50,46,199,38*78
$GPGSV,3,2,11,22,41,049,40,01,32,056,36,19,31,313,36,06,22,270,31*7D
$GPGSV,3,3,11,11,16,089,21,09,06,164,,08,03,124,*4C
$GPRMC,032535.100,A,3524.7111,N,13854.5556,E,18.25,167.78,210720,,,D*51
$GPGGA,032535.200,3524.7107,N,13854.5557,E,2,7,1.67,1098.7,M,39.2,M,0000,0000*6F
$GPGSA,A,3,03,28,17,22,01,19,06,,,,,,2.94,1.67,2.42*09
$GPGSV,3,1,11,03,63,062,39,28,57,239,43,17,52,324,36,50,46,199,38*78
$GPGSV,3,2,11,22,41,049,39,01,32,056,35,19,31,313,36,06,22,270,31*70
$GPGSV,3,3,11,11,16,089,21,09,06,164,,08,03,124,*4C
$GPRMC,032535.200,A,3524.7107,N,13854.5557,E,18.15,168.22,210720,,,D*57
$GPGGA,032535.300,3524.7102,N,13854.5558,E,2,7,1.67,1098.6,M,39.2,M,0000,0000*65
$GPGSA,A,3,03,28,17,22,01,19,06,,,,,,2.94,1.67,2.42*09
$GPGSV,3,1,11,03,63,062,39,28,57,239,43,17,52,324,36,50,46,199,37*77
$GPGSV,3,2,11,22,41,049,38,01,32,056,35,19,31,313,36,06,22,270,31*71
$GPGSV,3,3,11,11,16,089,21,09,06,164,,08,03,124,*4C
$GPRMC,032535.300,A,3524.7102,N,13854.5558,E,17.81,167.31,210720,,,D*53
$GPGGA,032535.400,3524.7097,N,13854.5559,E,2,7,1.67,1098.5,M,39.2,M,0000,0000*6D
$GPGSA,A,3,03,28,17,22,01,19,06,,,,,,2.94,1.67,2.42*09
$GPGSV,3,1,11,03,63,062,39,28,57,239,43,17,52,324,36,50,46,199,37*77
$GPGSV,3,2,11,22,41,049,38,01,32,056,35,19,31,313,36,06,22,270,31*71
$GPGSV,3,3,11,11,16,089,21,09,06,164,,08,03,124,*4C
$GPRMC,032535.400,A,3524.7097,N,13854.5559,E,17.49,165.81,210720,,,D*55
$GPGGA,032535.600,3524.7087,N,13854.5562,E,2,7,1.67,1098.3,M,39.2,M,0000,0000*60
$GPGSA,A,3,03,28,17,22,01,19,06,,,,,,2.94,1.67,2.42*09
$GPGSV,3,1,11,03,63,062,39,28,57,239,43,17,52,324,36,50,46,199,37*77
$GPGSV,3,2,11,22,41,049,38,01,32,056,34,19,31,313,36,06,22,270,31*70
$GPGSV,3,3,11,11,16,089,21,09,06,164,,08,03,124,*4C
$GPRMC,032535.600,A,3524.7087,N,13854.5562,E,17.33,166.68,210720,,,D*57
$GPGGA,032535.700,3524.7082,N,13854.5563,E,2,7,1.67,1098.3,M,39.2,M,0000,0000*65
$GPGSA,A,3,03,28,17,22,01,19,06,,,,,,2.94,1.67,2.42*09
$GPGSV,3,1,11,03,63,062,39,28,57,239,43,17,52,324,36,50,46,199,37*77
$GPGSV,3,2,11,22,41,049,38,01,32,056,33,19,31,313,36,06,22,270,32*74
$GPGSV,3,3,11,11,16,089,21,09,06,164,,08,03,124,*4C
$GPRMC,032535.700,A,3524.7082,N,13854.5563,E,17.53,169.40,210720,,,D*51
$GPGGA,032535.800,3524.7077,N,13854.5565,E,2,7,1.67,1098.3,M,39.2,M,0000,0000*66
$GPGSA,A,3,03,28,17,22,01,19,06,,,,,,2.94,1.67,2.42*09
$GPGSV,3,1,11,03,63,062,38,28,57,239,43,17,52,324,36,50,46,199,37*76
$GPGSV,3,2,11,22,41,049,38,01,32,056,33,19,31,313,36,06,22,270,33*75
$GPGSV,3,3,11,11,16,089,21,09,06,164,,08,03,124,*4C
$GPRMC,032535.800,A,3524.7077,N,13854.5565,E,17.38,169.47,210720,,,D*58
$GPGGA,032536.100,3524.7064,N,13854.5569,E,2,7,1.67,1098.3,M,39.2,M,0000,0000*62
$GPGSA,A,3,03,28,17,22,01,19,06,,,,,,2.94,1.67,2.42*09
$GPGSV,3,1,11,03,63,062,37,28,57,239,43,17,52,324,36,50,46,199,37*79
$GPGSV,3,2,11,22,41,049,35,01,32,056,33,19,31,313,36,06,22,270,33*78
$GPGSV,3,3,11,11,16,089,21,09,06,164,,08,03,124,*4C
$GPRMC,032536.100,A,3524.7064,N,13854.5569,E,16.73,168.33,210720,,,D*50
$GPGGA,032536.200,3524.7059,N,13854.5570,E,2,7,1.67,1098.2,M,39.2,M,0000,0000*66
$GPGSA,A,3,03,28,17,22,01,19,06,,,,,,2.94,1.67,2.42*09
$GPGSV,3,1,11,03,63,062,37,28,57,239,43,17,52,324,36,50,46,199,37*79
$GPGSV,3,2,11,22,41,049,34,01,32,056,32,19,31,313,36,06,22,270,34*7F
$GPGSV,3,3,11,11,16,089,21,09,06,164,,08,03,124,*4C
$GPRMC,032536.200,A,3524.7059,N,13854.5570,E,16.86,168.55,210720,,,D*5F
$GPGGA,032536.300,3524.7055,N,13854.5571,E,2,7,1.67,1098.2,M,39.2,M,0000,0000*6A
$GPGSA,A,3,03,28,17,22,01,19,06,,,,,,2.94,1.67,2.42*09
$GPGSV,3,1,11,03,63,062,37,28,57,239,43,17,52,324,36,50,46,199,37*79
$GPGSV,3,2,11,22,41,049,34,01,32,056,32,19,31,313,36,06,22,270,34*7F
$GPGSV,3,3,11,11,16,089,20,09,06,164,,08,03,124,*4D
$GPRMC,032536.300,A,3524.7055,N,13854.5571,E,16.40,168.59,210720,,,D*55
$GPGGA,032536.400,3524.7050,N,13854.5572,E,2,7,1.56,1098.1,M,39.2,M,0000,0000*6A
$GPGSA,A,3,03,28,17,22,01,19,06,,,,,,1.81,1.56,0.92*03
$GPGSV,3,1,11,03,63,062,37,28,57,239,43,17,52,324,36,50,46,199,37*79
$GPGSV,3,2,11,22,41,049,34,01,32,056,32,19,31,313,36,06,22,270,34*7F
$GPGSV,3,3,11,11,16,089,19,09,06,164,,08,03,124,*47
$GPRMC,032536.400,A,3524.7050,N,13854.5572,E,16.28,166.29,210720,,,D*53
$GPGGA,032536.600,3524.7042,N,13854.5574,E,2,7,1.67,1098.0,M,39.2,M,0000,0000*6E
$GPGSA,A,3,03,28,17,22,01,19,06,,,,,,2.94,1.67,2.42*09
$GPGSV,3,1,11,03,63,062,37,28,57,239,43,17,52,324,35,50,46,199,37*7A
$GPGSV,3,2,11,22,41,049,34,01,32,056,32,19,31,313,36,06,22,270,34*7F
$GPGSV,3,3,11,11,16,089,19,09,06,164,,08,03,124,*47
$GPRMC,032536.600,A,3524.7042,N,13854.5574,E,16.18,166.59,210720,,,D*50
$GPGGA,032536.700,3524.7037,N,13854.5575,E,2,7,1.67,1098.0,M,39.2,M,0000,0000*6C
$GPGSA,A,3,03,28,17,22,01,19,06,,,,,,2.94,1.67,2.42*09
$GPGSV,3,1,11,03,63,062,37,28,57,239,43,17,52,324,35,50,46,199,37*7A
$GPGSV,3,2,11,22,41,049,34,01,32,056,32,19,31,313,35,06,22,270,34*7C
$GPGSV,3,3,11,11,16,089,19,09,06,164,,08,03,124,*47
$GPRMC,032536.700,A,3524.7037,N,13854.5575,E,16.32,166.27,210720,,,D*53
$GPGGA,032536.800,3524.7033,N,13854.5577,E,2,7,1.67,1097.9,M,39.2,M,0000,0000*63
$GPGSA,A,3,03,28,17,22,01,19,06,,,,,,2.94,1.67,2.42*09
$GPGSV,3,1,11,03,63,062,37,28,57,239,43,17,52,324,35,50,46,199,37*7A
$GPGSV,3,2,11,22,41,049,34,01,32,056,31,19,31,313,35,06,22,270,34*7F
$GPGSV,3,3,11,11,16,089,19,09,06,164,,08,03,124,*47
$GPRMC,032536.800,A,3524.7033,N,13854.5577,E,16.10,166.12,210720,,,D*5C
$GPGGA,032537.100,3524.7020,N,13854.5581,E,2,7,1.67,1097.7,M,39.2,M,0000,0000*6E
$GPGSA,A,3,03,28,17,22,01,19,06,,,,,,2.94,1.67,2.42*09
$GPGSV,3,1,11,03,63,062,38,28,57,239,43,17,52,324,35,50,46,199,38*7A
$GPGSV,3,2,11,22,41,049,34,01,32,056,30,19,31,313,35,06,22,270,34*7E
$GPGSV,3,3,11,11,16,089,19,09,06,164,,08,03,124,*47
$GPRMC,032537.100,A,3524.7020,N,13854.5581,E,15.73,163.03,210720,,,D*5C
$GPGGA,032537.200,3524.7017,N,13854.5583,E,2,7,1.67,1097.7,M,39.2,M,0000,0000*6B
$GPGSA,A,3,03,28,17,22,01,19,06,,,,,,2.94,1.67,2.42*09
$GPGSV,3,1,11,03,63,062,38,28,57,239,43,17,52,324,36,50,46,199,38*79
$GPGSV,3,2,11,22,41,049,34,01,32,056,30,19,31,313,35,06,22,270,34*7E
$GPGSV,3,3,11,11,16,089,19,09,06,164,,08,03,124,*47
$GPRMC,032537.200,A,3524.7017,N,13854.5583,E,15.51,163.08,210720,,,D*52
$GPGGA,032537.300,3524.7013,N,13854.5584,E,2,7,1.67,1097.6,M,39.2,M,0000,0000*68
$GPGSA,A,3,03,28,17,22,01,19,06,,,,,,2.94,1.67,2.42*09
$GPGSV,3,1,11,03,63,062,39,28,57,239,43,17,52,324,36,50,46,199,37*77
$GPGSV,3,2,11,22,41,049,34,01,32,056,30,19,31,313,35,06,22,270,34*7E
$GPGSV,3,3,11,11,16,089,19,09,06,164,,08,03,124,*47
$GPRMC,032537.300,A,3524.7013,N,13854.5584,E,15.34,161.97,210720,,,D*57
$GPGGA,032537.400,3524.7010,N,13854.5586,E,2,7,1.67,1097.6,M,39.2,M,0000,0000*6E
$GPGSA,A,3,03,28,17,22,01,19,06,,,,,,2.94,1.67,2.42*09
$GPGSV,3,1,11,03,63,062,39,28,57,239,43,17,52,324,36,50,46,199,37*77
$GPGSV,3,2,11,22,41,049,34,01,32,056,29,19,31,313,36,06,22,270,34*75
$GPGSV,3,3,11,11,16,089,19,09,06,164,,08,03,124,*47
$GPRMC,032537.400,A,3524.7010,N,13854.5586,E,15.20,160.48,210720,,,D*57
$GPGGA,032537.500,3524.7006,N,13854.5588,E,2,7,1.67,1097.6,M,39.2,M,0000,0000*66
$GPGSA,A,3,03,28,17,22,01,19,06,,,,,,2.94,1.67,2.42*09
$GPGSV,3,1,11,03,63,062,39,28,57,239,43,17,52,324,37,50,46,199,37*76
$GPGSV,3,2,11,22,41,049,33,01,32,056,28,19,31,313,36,06,22,270,34*73
$GPGSV,3,3,11,11,16,089,19,09,06,164,,08,03,124,*47
$GPRMC,032537.500,A,3524.7006,N,13854.5588,E,15.12,160.49,210720,,,D*5F
$GPGGA,032537.600,3524.7003,N,13854.5589,E,2,7,1.67,1097.6,M,39.2,M,0000,0000*61
$GPGSA,A,3,03,28,17,22,01,19,06,,,,,,2.94,1.67,2.42*09
$GPGSV,3,1,11,03,63,062,39,28,57,239,43,17,52,324,38,50,46,199,36*78
$GPGSV,3,2,11,22,41,049,32,01,32,056,27,19,31,313,36,06,22,270,34*7D
$GPGSV,3,3,11,11,16,089,19,09,06,164,,08,03,124,*47
$GPRMC,032537.600,A,3524.7003,N,13854.5589,E,15.00,157.82,210720,,,D*58
$GPGGA,032537.700,3524.7000,N,13854.5591,E,2,7,1.67,1097.5,M,39.2,M,0000,0000*69
$GPGSA,A,3,03,28,17,22,01,19,06,,,,,,2.94,1.67,2.42*09
$GPGSV,3,1,11,03,63,062,39,28,57,239,42,17,52,324,38,50,46,199,35*7A
$GPGSV,3,2,11,22,41,049,32,01,32,056,27,19,31,313,36,06,22,270,34*7D
$GPGSV,3,3,11,11,16,089,19,09,06,164,,08,03,124,*47
$GPRMC,032537.700,A,3524.7000,N,13854.5591,E,15.01,158.46,210720,,,D*55
$GPGGA,032537.800,3524.6997,N,13854.5594,E,2,7,1.67,1097.5,M,39.2,M,0000,0000*65
$GPGSA,A,3,03,28,17,22,01,19,06,,,,,,2.94,1.67,2.42*09
$GPGSV,3,1,11,03,63,062,39,28,57,239,42,17,52,324,38,50,46,199,35*7A
$GPGSV,3,2,11,22,41,049,32,01,32,056,27,19,31,313,36,06,22,270,34*7D
$GPGSV,3,3,11,11,16,089,19,09,06,164,,08,03,124,*47
$GPRMC,032537.800,A,3524.6997,N,13854.5594,E,14.98,157.22,210720,,,D*55
$GPGGA,032538.100,3524.6986,N,13854.5600,E,2,7,1.67,1097.3,M,39.2,M,0000,0000*6B
$GPGSA,A,3,03,28,17,22,01,19,06,,,,,,2.94,1.67,2.42*09
$GPGSV,3,1,11,03,63,062,39,28,57,239,42,17,52,324,38,50,46,199,34*7B
$GPGSV,3,2,11,22,41,049,30,01,32,056,27,19,31,313,34,06,22,270,33*7A
$GPGSV,3,3,11,11,16,089,19,09,06,164,,08,03,124,*47
$GPRMC,032538.100,A,3524.6986,N,13854.5600,E,14.78,153.91,210720,,,D*5F
$GPGGA,032538.200,3524.6982,N,13854.5603,E,2,7,1.67,1097.2,M,39.2,M,0000,0000*6E
$GPGSA,A,3,03,28,17,22,01,19,06,,,,,,2.94,1.67,2.42*09
$GPGSV,3,1,11,03,63,062,39,28,57,239,42,17,52,324,38,50,46,199,34*7B
$GPGSV,3,2,11,22,41,049,29,01,32,056,27,19,31,313,34,06,22,270,32*73
$GPGSV,3,3,11,11,16,089,19,09,06,164,,08,03,124,*47
$GPRMC,032538.200,A,3524.6982,N,13854.5603,E,14.65,151.88,210720,,,D*5D
$GPGGA,032538.300,3524.6979,N,13854.5605,E,2,7,1.67,1097.1,M,39.2,M,0000,0000*6E
$GPGSA,A,3,03,28,17,22,01,19,06,,,,,,2.94,1.67,2.42*09
$GPGSV,3,1,11,03,63,062,39,28,57,239,42,17,52,324,39,50,46,199,34*7A
$GPGSV,3,2,11,22,41,049,28,01,32,056,27,19,31,313,34,06,22,270,31*71
$GPGSV,3,3,11,11,16,089,19,09,06,164,,08,03,124,*47
$GPRMC,032538.300,A,3524.6979,N,13854.5605,E,14.64,150.13,210720,,,D*5C
$GPGGA,032538.400,3524.6976,N,13854.5608,E,2,7,1.67,1097.0,M,39.2,M,0000,0000*6A
$GPGSA,A,3,03,28,17,22,01,19,06,,,,,,2.94,1.67,2.42*09
$GPGSV,3,1,11,03,63,062,39,28,57,239,42,17,52,324,39,50,46,199,35*7B
$GPGSV,3,2,11,22,41,049,28,01,32,056,27,19,31,313,32,06,22,270,31*77
$GPGSV,3,3,11,11,16,089,19,09,06,164,,08,03,124,*47
$GPRMC,032538.400,A,3524.6976,N,13854.5608,E,14.57,148.93,210720,,,D*58
$GPGGA,032538.600,3524.6969,N,13854.5613,E,2,7,1.67,1096.9,M,39.2,M,0000,0000*64
$GPGSA,A,3,03,28,17,22,01,19,06,,,,,,2.94,1.67,2.42*09
$GPGSV,3,1,11,03,63,062,40,28,57,239,42,17,52,324,39,50,46,199,35*75
$GPGSV,3,2,11,22,41,049,36,01,32,056,30,19,31,313,30,06,22,270,31*7C
$GPGSV,3,3,11,11,16,089,19,09,06,164,,08,03,124,*47
$GPRMC,032538.600,A,3524.6969,N,13854.5613,E,14.41,145.99,210720,,,D*5E
$GPGGA,032538.700,3524.6966,N,13854.5616,E,2,7,1.67,1096.8,M,39.2,M,0000,0000*6E
$GPGSA,A,3,03,28,17,22,01,19,06,,,,,,2.94,1.67,2.42*09
$GPGSV,3,1,11,03,63,062,40,28,57,239,42,17,52,324,39,50,46,199,35*75
$GPGSV,3,2,11,22,41,049,36,01,32,056,31,19,31,313,30,06,22,270,31*7D
$GPGSV,3,3,11,11,16,089,19,09,06,164,,08,03,124,*47
$GPRMC,032538.700,A,3524.6966,N,13854.5616,E,14.68,144.73,210720,,,D*5B
$GPGGA,032538.800,3524.6963,N,13854.5620,E,2,7,1.67,1096.7,M,39.2,M,0000,0000*6E
$GPGSA,A,3,03,28,17,22,01,19,06,,,,,,2.94,1.67,2.42*09
$GPGSV,3,1,11,03,63,062,40,28,57,239,42,17,52,324,39,50,46,199,35*75
$GPGSV,3,2,11,22,41,049,36,01,32,056,31,19,31,313,30,06,22,270,31*7D
$GPGSV,3,3,11,11,16,089,19,09,06,164,,08,03,124,*47
$GPRMC,032538.800,A,3524.6963,N,13854.5620,E,14.66,142.82,210720,,,D*52
$GPGGA,032538.900,3524.6960,N,13854.5622,E,2,7,1.67,1096.7,M,39.2,M,0000,0000*6E
$GPGSA,A,3,03,28,17,22,01,19,06,,,,,,2.94,1.67,2.42*09
$GPGSV,3,1,11,03,63,062,41,28,57,239,42,17,52,324,39,50,46,199,35*74
$GPGSV,3,2,11,22,41,049,36,01,32,056,31,19,31,313,30,06,22,270,31*7D
$GPGSV,3,3,11,11,16,089,18,09,06,164,,08,03,124,*46
$GPRMC,032538.900,A,3524.6960,N,13854.5622,E,14.64,141.90,210720,,,D*50
$GPGGA,032539.100,3524.6955,N,13854.5628,E,2,7,1.67,1096.5,M,39.2,M,0000,0000*69
$GPGSA,A,3,03,28,17,22,01,19,06,,,,,,2.94,1.67,2.42*09
$GPGSV,3,1,11,03,63,062,41,28,57,239,41,17,52,324,39,50,46,199,35*77
$GPGSV,3,2,11,22,41,049,35,01,32,056,29,19,31,313,30,06,22,270,28*7F
$GPGSV,3,3,11,11,16,089,18,09,06,164,,08,03,124,*46
$GPRMC,032539.100,A,3524.6955,N,13854.5628,E,14.77,137.94,210720,,,D*52
$GPGGA,032539.200,3524.6952,N,13854.5632,E,2,7,1.67,1096.4,M,39.2,M,0000,0000*67
$GPGSA,A,3,03,28,17,22,01,19,06,,,,,,2.94,1.67,2.42*09
$GPGSV,3,1,11,03,63,062,41,28,57,239,41,17,52,324,39,50,46,199,34*76
$GPGSV,3,2,11,22,41,049,34,01,32,056,28,19,31,313,30,06,22,270,27*70
$GPGSV,3,3,11,11,16,089,18,09,06,164,,08,03,124,*46
$GPRMC,032539.200,A,3524.6952,N,13854.5632,E,14.68,135.98,210720,,,D*5D
$GPGGA,032539.300,3524.6950,N,13854.5635,E,2,7,1.67,1096.4,M,39.2,M,0000,0000*63
$GPGSA,A,3,03,28,17,22,01,19,06,,,,,,2.94,1.67,2.42*09
$GPGSV,3,1,11,03,63,062,41,28,57,239,41,17,52,324,39,50,46,199,33*71
$GPGSV,3,2,11,22,41,049,33,01,32,056,28,19,31,313,30,06,22,270,27*77
$GPGSV,3,3,11,11,16,089,18,09,06,164,,08,03,124,*46
$GPRMC,032539.300,A,3524.6950,N,13854.5635,E,14.95,134.76,210720,,,D*5A
$GPGGA,032539.400,3524.6947,N,13854.5638,E,2,7,1.67,1096.3,M,39.2,M,0000,0000*68
$GPGSA,A,3,03,28,17,22,01,19,06,,,,,,2.94,1.67,2.42*09
$GPGSV,3,1,11,03,63,062,41,28,57,239,41,17,52,324,39,50,46,199,32*70
$GPGSV,3,2,11,22,41,049,33,01,32,056,28,19,31,313,32,06,22,270,27*75
$GPGSV,3,3,11,11,16,089,18,09,06,164,,08,03,124,*46
$GPRMC,032539.400,A,3524.6947,N,13854.5638,E,15.04,132.35,210720,,,D*5E
$GPGGA,032539.600,3524.6942,N,13854.5646,E,2,7,1.67,1096.1,M,39.2,M,0000,0000*64
$GPGSA,A,3,03,28,17,22,01,19,06,,,,,,2.94,1.67,2.42*09
$GPGSV,3,1,11,03,63,062,41,28,57,239,41,17,52,324,40,50,46,199,31*7D
$GPGSV,3,2,11,22,41,049,33,01,32,056,29,19,31,313,34,06,22,270,26*73
$GPGSV,3,3,11,11,16,089,18,09,06,164,,08,03,124,*46
$GPRMC,032539.600,A,3524.6942,N,13854.5646,E,15.03,129.96,210720,,,D*54
$GPGGA,032539.700,3524.6940,N,13854.5649,E,2,7,1.67,1096.1,M,39.2,M,0000,0000*68
$GPGSA,A,3,03,28,17,22,01,19,06,,,,,,2.94,1.67,2.42*09
$GPGSV,3,1,11,03,63,062,41,28,57,239,41,17,52,324,40,50,46,199,31*7D
$GPGSV,3,2,11,22,41,049,34,01,32,056,30,19,31,313,34,06,22,270,26*7C
$GPGSV,3,3,11,11,16,089,18,09,06,164,,08,03,124,*46
$GPRMC,032539.700,A,3524.6940,N,13854.5649,E,15.34,128.35,210720,,,D*54
$GPGGA,032539.800,3524.6938,N,13854.5653,E,2,7,1.67,1096.1,M,39.2,M,0000,0000*63
$GPGSA,A,3,03,28,17,22,01,19,06,,,,,,2.94,1.67,2.42*09
$GPGSV,3,1,11,03,63,062,41,28,57,239,41,17,52,324,40,50,46,199,31*7D
$GPGSV,3,2,11,22,41,049,34,01,32,056,30,19,31,313,34,06,22,270,26*7C
$GPGSV,3,3,11,11,16,089,18,09,06,164,,08,03,124,*46
$GPRMC,032539.800,A,3524.6938,N,13854.5653,E,15.01,127.10,210720,,,D*51
$GPGGA,032539.900,3524.6936,N,13854.5656,E,2,7,1.67,1096.0,M,39.2,M,0000,0000*68
$GPGSA,A,3,03,28,17,22,01,19,06,,,,,,2.94,1.67,2.42*09
$GPGSV,3,1,11,03,63,062,41,28,57,239,41,17,52,324,40,50,46,199,31*7D
$GPGSV,3,2,11,22,41,049,34,01,32,056,30,19,31,313,34,06,22,270,26*7C
$GPGSV,3,3,11,11,16,090,18,09,06,164,,08,03,124,*4E
$GPRMC,032539.900,A,3524.6936,N,13854.5656,E,14.88,126.44,210720,,,D*5B
$GPGGA,032540.100,3524.6931,N,13854.5664,E,2,7,1.67,1096.0,M,39.2,M,0000,0000*68
$GPGSA,A,3,03,28,17,22,01,19,06,,,,,,2.94,1.67,2.42*09
$GPGSV,3,1,11,03,63,062,41,28,57,239,41,17,52,324,40,50,46,199,31*7D
$GPGSV,3,2,11,22,41,049,34,01,32,056,29,19,31,313,34,06,22,270,23*71
$GPGSV,3,3,11,11,16,090,18,09,06,164,,08,03,124,*4E
$GPRMC,032540.100,A,3524.6931,N,13854.5664,E,15.22,122.85,210720,,,D*53
$GPGGA,032540.300,3524.6928,N,13854.5672,E,2,7,1.67,1095.9,M,39.2,M,0000,0000*6F
$GPGSA,A,3,03,28,17,22,01,19,06,,,,,,2.94,1.67,2.42*09
$GPGSV,3,1,11,03,63,062,39,28,57,239,41,17,52,324,40,50,46,199,31*72
$GPGSV,3,2,11,22,41,049,34,01,32,056,29,19,31,313,34,06,22,270,22*70
$GPGSV,3,3,11,11,16,090,16,09,06,164,,08,03,124,*40
$GPRMC,032540.300,A,3524.6928,N,13854.5672,E,15.25,118.77,210720,,,D*5D
$GPGGA,032540.400,3524.6926,N,13854.5676,E,2,7,1.67,1095.8,M,39.2,M,0000,0000*63
$GPGSA,A,3,03,28,17,22,01,19,06,,,,,,2.94,1.67,2.42*09
$GPGSV,3,1,11,03,63,062,39,28,57,239,41,17,52,324,40,50,46,199,31*72
$GPGSV,3,2,11,22,41,049,34,01,32,056,29,19,31,313,33,06,22,270,22*77
$GPGSV,3,3,11,11,16,090,16,09,06,164,,08,03,124,*40
$GPRMC,032540.400,A,3524.6926,N,13854.5676,E,15.63,118.62,210720,,,D*56
$GPGGA,032540.600,3524.6922,N,13854.5685,E,2,7,1.67,1095.7,M,39.2,M,0000,0000*66
$GPGSA,A,3,03,28,17,22,01,19,06,,,,,,2.94,1.67,2.42*09
$GPGSV,3,1,11,03,63,062,39,28,57,239,41,17,52,324,40,50,46,199,32*71
$GPGSV,3,2,11,22,41,049,34,01,32,056,29,19,31,313,33,06,22,270,23*76
$GPGSV,3,3,11,11,16,090,16,09,06,164,,08,03,124,*40
$GPRMC,032540.600,A,3524.6922,N,13854.5685,E,15.58,116.07,210720,,,D*59
$GPGGA,032540.700,3524.6920,N,13854.5689,E,2,7,1.67,1095.6,M,39.2,M,0000,0000*68
$GPGSA,A,3,03,28,17,22,01,19,06,,,,,,2.94,1.67,2.42*09
$GPGSV,3,1,11,03,63,062,39,28,57,239,41,17,52,324,39,50,46,199,32*7F
$GPGSV,3,2,11,22,41,049,34,01,32,056,29,19,31,313,33,06,22,270,24*71
$GPGSV,3,3,11,11,16,090,16,09,06,164,,08,03,124,*40
$GPRMC,032540.700,A,3524.6920,N,13854.5689,E,15.18,114.49,210720,,,D*5A
$GPGGA,032540.800,3524.6918,N,13854.5694,E,2,7,1.67,1095.5,M,39.2,M,0000,0000*63
$GPGSA,A,3,03,28,17,22,01,19,06,,,,,,2.94,1.67,2.42*09
$GPGSV,3,1,11,03,63,062,39,28,57,239,41,17,52,324,38,50,46,199,33*7F
$GPGSV,3,2,11,22,41,049,34,01,32,056,29,19,31,313,33,06,22,270,24*71
$GPGSV,3,3,11,11,16,090,16,09,06,164,,08,03,124,*40
$GPRMC,032540.800,A,3524.6918,N,13854.5694,E,15.58,113.60,210720,,,D*5A
$GPGGA,032540.900,3524.6917,N,13854.5698,E,2,7,1.67,1095.5,M,39.2,M,0000,0000*61
$GPGSA,A,3,03,28,17,22,01,19,06,,,,,,2.94,1.67,2.42*09
$GPGSV,3,1,11,03,63,062,39,28,57,239,41,17,52,324,37,50,46,199,33*70
$GPGSV,3,2,11,22,41,049,34,01,32,056,29,19,31,313,33,06,22,270,24*71
$GPGSV,3,3,11,11,16,090,,09,06,164,,08,03,124,*47
$GPRMC,032540.900,A,3524.6917,N,13854.5698,E,15.26,112.55,210720,,,D*56
$GPGGA,032541.100,3524.6913,N,13854.5708,E,2,7,1.67,1095.4,M,39.2,M,0000,0000*65
$GPGSA,A,3,03,28,17,22,01,19,06,,,,,,2.94,1.67,2.42*09
$GPGSV,3,1,11,03,63,062,38,28,57,239,41,17,52,324,37,50,46,199,33*71
$GPGSV,3,2,11,22,41,049,34,01,32,056,29,19,31,313,33,06,22,270,24*71
$GPGSV,3,3,11,11,16,090,,09,06,164,,08,03,124,*47
$GPRMC,032541.100,A,3524.6913,N,13854.5708,E,15.82,111.02,210720,,,D*5C
$GPGGA,032541.200,3524.6911,N,13854.5713,E,2,7,1.67,1095.4,M,39.2,M,0000,0000*6E
$GPGSA,A,3,03,28,17,22,01,19,06,,,,,,2.94,1.67,2.42*09
$GPGSV,3,1,11,03,63,062,37,28,57,239,41,17,52,324,37,50,46,199,34*79
$GPGSV,3,2,11,22,41,049,34,01,32,056,29,19,31,313,33,06,22,270,25*70
$GPGSV,3,3,11,11,16,090,,09,06,164,,08,03,124,*47
$GPRMC,032541.200,A,3524.6911,N,13854.5713,E,15.60,111.29,210720,,,D*52
$GPGGA,032541.300,3524.6909,N,13854.5718,E,2,7,1.67,1095.3,M,39.2,M,0000,0000*6A
$GPGSA,A,3,03,28,17,22,01,19,06,,,,,,2.94,1.67,2.42*09
$GPGSV,3,1,11,03,63,062,37,28,57,239,41,17,52,324,38,50,46,199,34*76
$GPGSV,3,2,11,22,41,049,34,01,32,056,27,19,31,313,33,06,22,270,26*7D
$GPGSV,3,3,11,11,16,090,16,09,06,164,,08,03,124,*40
$GPRMC,032541.300,A,3524.6909,N,13854.5718,E,15.60,110.39,210720,,,D*51
$GPGGA,032541.400,3524.6907,N,13854.5724,E,2,7,1.67,1095.2,M,39.2,M,0000,0000*6D
$GPGSA,A,3,03,28,17,22,01,19,06,,,,,,2.94,1.67,2.42*09
$GPGSV,3,1,11,03,63,062,37,28,57,239,41,17,52,324,38,50,46,199,34*76
$GPGSV,3,2,11,22,41,049,33,01,32,056,26,19,31,313,33,06,22,270,26*7B
$GPGSV,3,3,11,11,16,090,,09,06,164,,08,03,124,*47
$GPRMC,032541.400,A,3524.6907,N,13854.5724,E,15.61,109.91,210720,,,D*5C
$GPGGA,032541.600,3524.6904,N,13854.5734,E,2,7,1.67,1095.1,M,39.2,M,0000,0000*6E
$GPGSA,A,3,03,28,17,22,01,19,06,,,,,,2.94,1.67,2.42*09
$GPGSV,3,1,11,03,63,062,36,28,57,239,41,17,52,324,38,50,46,199,34*77
$GPGSV,3,2,11,22,41,049,33,01,32,056,25,19,31,313,31,06,22,270,26*7A
$GPGSV,3,3,11,11,16,090,,09,06,164,,08,03,124,*47
$GPRMC,032541.600,A,3524.6904,N,13854.5734,E,15.45,109.62,210720,,,D*56
$GPGGA,032541.700,3524.6903,N,13854.5739,E,2,7,1.67,1095.1,M,39.2,M,0000,0000*65
$GPGSA,A,3,03,28,17,22,01,19,06,,,,,,2.94,1.67,2.42*09
$GPGSV,3,1,11,03,63,062,36,28,57,239,41,17,52,324,38,50,46,199,35*76
$GPGSV,3,2,11,22,41,049,33,01,32,056,25,19,31,313,30,06,22,270,26*7B
$GPGSV,3,3,11,11,16,090,,09,06,164,,08,03,124,*47
$GPRMC,032541.700,A,3524.6903,N,13854.5739,E,16.07,107.45,210720,,,D*53
$GPGGA,032541.800,3524.6901,N,13854.5744,E,2,7,1.67,1095.0,M,39.2,M,0000,0000*63
$GPGSA,A,3,03,28,17,22,01,19,06,,,,,,2.94,1.67,2.42*09
$GPGSV,3,1,11,03,63,062,36,28,57,239,41,17,52,324,38,50,46,199,36*75
$GPGSV,3,2,11,22,41,049,33,01,32,056,25,19,31,313,29,06,22,270,26*73
$GPGSV,3,3,11,11,16,090,,09,06,164,,08,03,124,*47
$GPRMC,032541.800,A,3524.6901,N,13854.5744,E,15.79,109.00,210720,,,D*51
$GPGGA,032541.900,3524.6900,N,13854.5749,E,2,7,1.67,1094.9,M,39.2,M,0000,0000*66
$GPGSA,A,3,03,28,17,22,01,19,06,,,,,,2.94,1.67,2.42*09
$GPGSV,3,1,11,03,63,062,36,28,57,239,41,17,52,324,38,50,46,199,36*75
$GPGSV,3,2,11,22,41,049,33,01,32,056,24,19,31,313,29,06,22,270,26*72
$GPGSV,3,3,11,11,16,090,16,09,06,164,,08,03,124,*40
$GPRMC,032541.900,A,3524.6900,N,13854.5749,E,15.72,109.32,210720,,,D*56
$GPGGA,032542.100,3524.6897,N,13854.5760,E,2,7,1.67,1094.8,M,39.2,M,0000,0000*68
$GPGSA,A,3,03,28,17,22,01,19,06,,,,,,2.94,1.67,2.42*09
$GPGSV,3,1,11,03,63,062,35,28,57,239,41,17,52,324,38,50,46,199,36*76
$GPGSV,3,2,11,22,41,049,31,01,32,056,23,19,31,313,29,06,22,270,26*77
$GPGSV,3,3,11,11,16,090,,09,06,164,,08,03,124,*47
$GPRMC,032542.100,A,3524.6897,N,13854.5760,E,15.48,108.82,210720,,,D*5A
$GPGGA,032542.200,3524.6895,N,13854.5766,E,2,7,1.67,1094.7,M,39.2,M,0000,0000*60
$GPGSA,A,3,03,28,17,22,01,19,06,,,,,,2.94,1.67,2.42*09
$GPGSV,3,1,11,03,63,062,34,28,57,239,41,17,52,324,38,50,46,199,35*74
$GPGSV,3,2,11,22,41,049,31,01,32,056,23,19,31,313,30,06,22,270,26*7F
$GPGSV,3,3,11,11,16,090,,09,06,164,,08,03,124,*47
$GPRMC,032542.200,A,3524.6895,N,13854.5766,E,16.26,110.16,210720,,,D*52
$GPGGA,032542.300,3524.6893,N,13854.5771,E,2,7,1.67,1094.5,M,39.2,M,0000,0000*63
$GPGSA,A,3,03,28,17,22,01,19,06,,,,,,2.94,1.67,2.42*09
$GPGSV,3,1,11,03,63,062,33,28,57,239,41,17,52,324,38,50,46,199,34*72
$GPGSV,3,2,11,22,41,049,31,01,32,056,23,19,31,313,31,06,22,270,26*7E
$GPGSV,3,3,11,11,16,090,,09,06,164,,08,03,124,*47
$GPRMC,032542.300,A,3524.6893,N,13854.5771,E,16.27,110.32,210720,,,D*54
$GPGGA,032542.400,3524.6892,N,13854.5777,E,2,7,1.67,1094.4,M,39.2,M,0000,0000*62
$GPGSA,A,3,03,28,17,22,01,19,06,,,,,,2.94,1.67,2.42*09
$GPGSV,3,1,11,03,63,062,33,28,57,239,41,17,52,324,38,50,46,199,33*75
$GPGSV,3,2,11,22,41,049,31,01,32,056,23,19,31,313,31,06,22,270,26*7E
$GPGSV,3,3,11,11,16,090,,09,06,164,,08,03,124,*47
$GPRMC,032542.400,A,3524.6892,N,13854.5777,E,16.07,110.13,210720,,,D*55
$GPGGA,032542.600,3524.6890,N,13854.5787,E,2,7,1.67,1094.3,M,39.2,M,0000,0000*6A
$GPGSA,A,3,03,28,17,22,01,19,06,,,,,,2.94,1.67,2.42*09
$GPGSV,3,1,11,03,63,062,34,28,57,239,41,17,52,324,38,50,46,199,33*72
$GPGSV,3,2,11,22,41,049,31,01,32,056,23,19,31,313,31,06,22,270,24*7C
$GPGSV,3,3,11,11,16,090,,09,06,164,,08,03,124,*47
$GPRMC,032542.600,A,3524.6890,N,13854.5787,E,16.05,110.39,210720,,,D*50
$GPGGA,032542.700,3524.6888,N,13854.5792,E,2,7,1.67,1094.2,M,39.2,M,0000,0000*67
$GPGSA,A,3,03,28,17,22,01,19,06,,,,,,2.94,1.67,2.42*09
$GPGSV,3,1,11,03,63,062,34,28,57,239,41,17,52,324,38,50,46,199,34*75
$GPGSV,3,2,11,22,41,049,31,01,32,056,23,19,31,313,31,06,22,270,23*7B
$GPGSV,3,3,11,11,16,090,,09,06,164,,08,03,124,*47
$GPRMC,032542.700,A,3524.6888,N,13854.5792,E,16.04,111.19,210720,,,D*5E
$GPGGA,032542.800,3524.6886,N,13854.5797,E,2,7,1.67,1094.1,M,39.2,M,0000,0000*60
$GPGSA,A,3,03,28,17,22,01,19,06,,,,,,2.94,1.67,2.42*09
$GPGSV,3,1,11,03,63,062,34,28,57,239,41,17,52,324,38,50,46,199,35*74
$GPGSV,3,2,11,22,41,049,31,01,32,056,23,19,31,313,31,06,22,270,23*7B
$GPGSV,3,3,11,11,16,090,,09,06,164,,08,03,124,*47
$GPRMC,032542.800,A,3524.6886,N,13854.5797,E,16.18,112.94,210720,,,D*51
$GPGGA,032542.900,3524.6885,N,13854.5802,E,2,7,1.67,1094.0,M,39.2,M,0000,0000*60
$GPGSA,A,3,03,28,17,22,01,19,06,,,,,,2.94,1.67,2.42*09
$GPGSV,3,1,11,03,63,062,34,28,57,239,41,17,52,324,37,50,46,199,36*78
$GPGSV,3,2,11,22,41,049,31,01,32,056,23,19,31,313,31,06,22,270,23*7B
$GPGSV,3,3,11,11,16,090,,09,06,164,,08,03,124,*47
$GPRMC,032542.900,A,3524.6885,N,13854.5802,E,16.13,113.04,210720,,,D*53
$GPGGA,032543.000,3524.6883,N,13854.5808,E,2,7,1.67,1093.9,M,39.2,M,0000,0000*6A
$GPGSA,A,3,03,28,17,22,01,19,06,,,,,,2.94,1.67,2.42*09
$GPGSV,3,1,11,03,63,062,34,28,57,239,41,17,52,324,36,50,46,199,36*79
$GPGSV,3,2,11,22,41,049,33,01,32,056,23,19,31,313,31,06,22,270,23*79
$GPGSV,3,3,11,11,16,090,,09,06,164,,08,03,124,*47
$GPRMC,032543.000,A,3524.6883,N,13854.5808,E,15.47,113.72,210720,,,D*54
$GPGGA,032543.100,3524.6881,N,13854.5813,E,2,7,1.67,1093.8,M,39.2,M,0000,0000*62
$GPGSA,A,3,03,28,17,22,01,19,06,,,,,,2.94,1.67,2.42*09
$GPGSV,3,1,11,03,63,062,34,28,57,239,41,17,52,324,36,50,46,199,36*79
$GPGSV,3,2,11,22,41,049,34,01,32,056,23,19,31,313,31,06,22,270,23*7E
$GPGSV,3,3,11,11,16,090,,09,06,164,,08,03,124,*47
$GPRMC,032543.100,A,3524.6881,N,13854.5813,E,15.76,115.26,210720,,,D*58
$GPGGA,032543.200,3524.6880,N,13854.5818,E,2,7,1.67,1093.8,M,39.2,M,0000,0000*6B
$GPGSA,A,3,03,28,17,22,01,19,06,,,,,,2.94,1.67,2.42*09
$GPGSV,3,1,11,03,63,062,34,28,57,239,41,17,52,324,36,50,46,199,36*79
$GPGSV,3,2,11,22,41,049,35,01,32,056,23,19,31,313,31,06,22,270,23*7F
$GPGSV,3,3,11,11,16,090,,09,06,164,,08,03,124,*47
$GPRMC,032543.200,A,3524.6880,N,13854.5818,E,15.36,117.57,210720,,,D*51
$GPGGA,032543.300,3524.6878,N,13854.5822,E,2,7,1.67,1093.8,M,39.2,M,0000,0000*64
$GPGSA,A,3,03,28,17,22,01,19,06,,,,,,2.94,1.67,2.42*09
$GPGSV,3,1,11,03,63,062,34,28,57,239,41,17,52,324,36,50,46,199,36*79
$GPGSV,3,2,11,22,41,049,35,01,32,056,23,19,31,313,31,06,22,270,23*7F
$GPGSV,3,3,11,11,16,090,,09,06,164,,08,03,124,*47
$GPRMC,032543.300,A,3524.6878,N,13854.5822,E,14.94,118.73,210720,,,D*5E
$GPGGA,032543.400,3524.6876,N,13854.5827,E,2,7,1.67,1093.7,M,39.2,M,0000,0000*67
$GPGSA,A,3,03,28,17,22,01,19,06,,,,,,2.94,1.67,2.42*09
$GPGSV,3,1,11,03,63,062,35,28,57,239,41,17,52,324,36,50,46,199,36*78
$GPGSV,3,2,11,22,41,049,35,01,32,056,23,19,31,313,30,06,22,270,23*7E
$GPGSV,3,3,11,11,16,090,,09,06,164,,08,03,124,*47
$GPRMC,032543.400,A,3524.6876,N,13854.5827,E,14.94,118.49,210720,,,D*5B
$GPGGA,032543.500,3524.6874,N,13854.5832,E,2,7,1.67,1093.6,M,39.2,M,0000,0000*61
$GPGSA,A,3,03,28,17,22,01,19,06,,,,,,2.94,1.67,2.42*09
$GPGSV,3,1,11,03,63,062,35,28,57,239,41,17,52,324,36,50,46,199,36*78
$GPGSV,3,2,11,22,41,049,35,01,32,056,23,19,31,313,30,06,22,270,23*7E
$GPGSV,3,3,11,11,16,090,,09,06,164,,08,03,124,*47
$GPRMC,032543.500,A,3524.6874,N,13854.5832,E,15.04,117.77,210720,,,D*56
$GPGGA,032543.600,3524.6872,N,13854.5837,E,2,7,1.67,1093.4,M,39.2,M,0000,0000*63
$GPGSA,A,3,03,28,17,22,01,19,06,,,,,,2.94,1.67,2.42*09
$GPGSV,3,1,11,03,63,062,35,28,57,239,41,17,52,324,36,50,46,199,36*78
$GPGSV,3,2,11,22,41,049,33,01,32,056,23,19,31,313,30,06,22,270,23*78
$GPGSV,3,3,11,11,16,090,,09,06,164,,08,03,124,*47
$GPRMC,032543.600,A,3524.6872,N,13854.5837,E,15.40,120.58,210720,,,D*5F
$GPGGA,032543.700,3524.6870,N,13854.5842,E,2,7,1.67,1093.4,M,39.2,M,0000,0000*62
$GPGSA,A,3,03,28,17,22,01,19,06,,,,,,2.94,1.67,2.42*09
$GPGSV,3,1,11,03,63,062,36,28,57,239,41,17,52,324,36,50,46,199,36*7B
$GPGSV,3,2,11,22,41,049,32,01,32,056,23,19,31,313,30,06,22,270,23*79
$GPGSV,3,3,11,11,16,090,,09,06,164,,08,03,124,*47
$GPRMC,032543.700,A,3524.6870,N,13854.5842,E,15.63,121.05,210720,,,D*56
$GPGGA,032543.800,3524.6868,N,13854.5847,E,2,7,1.67,1093.3,M,39.2,M,0000,0000*66
$GPGSA,A,3,03,28,17,22,01,19,06,,,,,,2.94,1.67,2.42*09
$GPGSV,3,1,11,03,63,062,36,28,57,239,41,17,52,324,36,50,46,199,35*78
$GPGSV,3,2,11,22,41,049,31,01,32,056,23,19,31,313,30,06,22,270,23*7A
$GPGSV,3,3,11,11,16,090,,09,06,164,,08,03,124,*47
$GPRMC,032543.800,A,3524.6868,N,13854.5847,E,15.71,122.03,210720,,,D*53
$GPGGA,032543.900,3524.6866,N,13854.5851,E,2,7,1.67,1093.2,M,39.2,M,0000,0000*6F
$GPGSA,A,3,03,28,17,22,01,19,06,,,,,,2.94,1.67,2.42*09
$GPGSV,3,1,11,03,63,062,36,28,57,239,41,17,52,324,36,50,46,199,34*79
$GPGSV,3,2,11,22,41,049,30,01,32,056,23,19,31,313,30,06,22,270,23*7B
$GPGSV,3,3,11,11,16,090,,09,06,164,,08,03,124,*47
$GPRMC,032543.900,A,3524.6866,N,13854.5851,E,15.86,122.53,210720,,,D*56
$GPGGA,032544.000,3524.6863,N,13854.5856,E,2,7,1.67,1093.1,M,39.2,M,0000,0000*60
$GPGSA,A,3,03,28,17,22,01,19,06,,,,,,2.94,1.67,2.42*09
$GPGSV,3,1,11,03,63,062,37,28,57,239,41,17,52,324,37,50,46,199,34*79
$GPGSV,3,2,11,22,41,049,30,01,32,056,23,19,31,313,30,06,22,270,23*7B
$GPGSV,3,3,11,11,16,090,,09,06,164,,08,03,124,*47
$GPRMC,032544.000,A,3524.6863,N,13854.5856,E,15.96,123.89,210720,,,D*5D
$GPGGA,032544.100,3524.6861,N,13854.5860,E,2,7,1.67,1093.0,M,39.2,M,0000,0000*67
$GPGSA,A,3,03,28,17,22,01,19,06,,,,,,2.94,1.67,2.42*09
$GPGSV,3,1,11,03,63,062,38,28,57,239,41,17,52,324,37,50,46,199,34*76
$GPGSV,3,2,11,22,41,049,29,01,32,056,23,19,31,313,30,06,22,270,23*73
$GPGSV,3,3,11,11,16,090,,09,06,164,,08,03,124,*47
$GPRMC,032544.100,A,3524.6861,N,13854.5860,E,16.15,125.58,210720,,,D*59
$GPGGA,032544.200,3524.6858,N,13854.5864,E,2,7,1.67,1092.9,M,39.2,M,0000,0000*62
$GPGSA,A,3,03,28,17,22,01,19,06,,,,,,2.94,1.67,2.42*09
$GPGSV,3,1,11,03,63,062,39,28,57,239,40,17,52,324,37,50,46,199,33*71
$GPGSV,3,2,11,22,40,049,29,01,32,056,23,19,31,313,30,06,22,270,23*72
$GPGSV,3,3,11,11,16,090,,09,06,164,,08,03,124,*47
$GPRMC,032544.200,A,3524.6858,N,13854.5864,E,15.85,126.22,210720,,,D*50
$GPGGA,032544.300,3524.6856,N,13854.5868,E,2,7,1.67,1092.9,M,39.2,M,0000,0000*61
$GPGSA,A,3,03,28,17,22,01,19,06,,,,,,2.94,1.67,2.42*09
$GPGSV,3,1,11,03,63,062,39,28,57,239,40,17,52,324,38,50,46,199,33*7E
$GPGSV,3,2,11,22,40,049,29,01,32,056,23,19,31,313,30,06,22,270,25*74
$GPGSV,3,3,11,11,16,090,,09,06,164,,08,03,124,*47
$GPRMC,032544.300,A,3524.6856,N,13854.5868,E,16.02,127.39,210720,,,D*54
$GPGGA,032544.400,3524.6853,N,13854.5872,E,2,7,1.67,1092.8,M,39.2,M,0000,0000*69
$GPGSA,A,3,03,28,17,22,01,19,06,,,,,,2.94,1.67,2.42*09
$GPGSV,3,1,11,03,63,062,39,28,57,239,40,17,52,324,39,50,46,199,33*7F
$GPGSV,3,2,11,22,40,049,29,01,32,056,23,19,31,313,30,06,22,270,26*77
$GPGSV,3,3,11,11,16,090,,09,06,164,,08,03,124,*47
$GPRMC,032544.400,A,3524.6853,N,13854.5872,E,16.35,129.18,210720,,,D*54
$GPGGA,032544.500,3524.6851,N,13854.5876,E,2,7,1.67,1092.8,M,39.2,M,0000,0000*6E
$GPGSA,A,3,03,28,17,22,01,19,06,,,,,,2.94,1.67,2.42*09
$GPGSV,3,1,11,03,63,062,39,28,57,239,40,17,52,324,39,50,46,199,33*7F
$GPGSV,3,2,11,22,40,049,29,01,32,056,22,19,31,313,30,06,22,270,27*77
$GPGSV,3,3,11,11,16,090,,09,06,164,,08,03,124,*47
$GPRMC,032544.500,A,3524.6851,N,13854.5876,E,16.05,130.17,210720,,,D*57
$GPGGA,032544.600,3524.6848,N,13854.5880,E,2,7,1.67,1092.7,M,39.2,M,0000,0000*63
$GPGSA,A,3,03,28,17,22,01,19,06,,,,,,2.94,1.67,2.42*09
$GPGSV,3,1,11,03,63,062,39,28,57,239,40,17,52,324,39,50,46,199,32*7E
$GPGSV,3,2,11,22,40,049,29,01,32,056,22,19,31,313,30,06,22,270,28*78
$GPGSV,3,3,11,11,16,090,,09,06,164,,08,03,124,*47
$GPRMC,032544.600,A,3524.6848,N,13854.5880,E,15.92,130.43,210720,,,D*59
$GPGGA,032544.700,3524.6845,N,13854.5884,E,2,7,1.67,1092.7,M,39.2,M,0000,0000*6B
$GPGSA,A,3,03,28,17,22,01,19,06,,,,,,2.94,1.67,2.42*09
$GPGSV,3,1,11,03,63,062,39,28,57,239,41,17,52,324,39,50,46,199,31*7C
$GPGSV,3,2,11,22,40,049,29,01,32,056,22,19,31,313,30,06,22,270,28*78
$GPGSV,3,3,11,11,16,090,,09,06,164,,08,03,124,*47
$GPRMC,032544.700,A,3524.6845,N,13854.5884,E,16.11,132.49,210720,,,D*51
$GPGGA,032544.800,3524.6842,N,13854.5888,E,2,7,1.67,1092.6,M,39.2,M,0000,0000*6E
$GPGSA,A,3,03,28,17,22,01,19,06,,,,,,2.94,1.67,2.42*09
$GPGSV,3,1,11,03,63,062,39,28,57,239,41,17,52,324,39,50,46,199,30*7D
$GPGSV,3,2,11,22,40,049,29,01,32,056,22,19,31,313,30,06,22,270,28*78
$GPGSV,3,3,11,11,16,090,,09,06,164,,08,03,124,*47
$GPRMC,032544.800,A,3524.6842,N,13854.5888,E,15.88,132.82,210720,,,D*51
$GPGGA,032544.900,3524.6839,N,13854.5891,E,2,7,1.67,1092.5,M,39.2,M,0000,0000*68
$GPGSA,A,3,03,28,17,22,01,19,06,,,,,,2.94,1.67,2.42*09
$GPGSV,3,1,11,03,63,062,39,28,57,239,41,17,52,324,39,50,46,199,30*7D
$GPGSV,3,2,11,22,40,049,29,01,32,056,22,19,31,313,30,06,22,270,28*78
$GPGSV,3,3,11,11,16,090,,09,06,164,,08,03,124,*47
$GPRMC,032544.900,A,3524.6839,N,13854.5891,E,16.17,134.36,210720,,,D*58
$GPGGA,032545.000,3524.6836,N,13854.5895,E,2,7,1.67,1092.4,M,39.2,M,0000,0000*6A
$GPGSA,A,3,03,28,17,22,01,19,06,,,,,,2.94,1.67,2.42*09
$GPGSV,3,1,11,03,63,062,38,28,57,239,41,17,52,324,39,50,46,199,30*7C
$GPGSV,3,2,11,22,40,049,29,01,32,056,22,19,31,313,31,06,22,270,28*79
$GPGSV,3,3,11,11,16,090,,09,06,164,,08,03,124,*47
$GPRMC,032545.000,A,3524.6836,N,13854.5895,E,16.44,135.58,210720,,,D*54
$GPGGA,032545.100,3524.6833,N,13854.5899,E,2,7,1.67,1092.4,M,39.2,M,0000,0000*62
$GPGSA,A,3,03,28,17,22,01,19,06,,,,,,2.94,1.67,2.42*09
$GPGSV,3,1,11,03,63,062,37,28,57,239,41,17,52,324,39,50,46,199,30*73
$GPGSV,3,2,11,22,40,049,29,01,32,056,21,19,31,313,31,06,22,270,28*7A
$GPGSV,3,3,11,11,16,090,,09,06,164,,08,03,124,*47
$GPRMC,032545.100,A,3524.6833,N,13854.5899,E,15.85,134.85,210720,,,D*53
$GPGGA,032545.200,3524.6830,N,13854.5901,E,2,7,1.67,1092.3,M,39.2,M,0000,0000*65
$GPGSA,A,3,03,28,17,22,01,19,06,,,,,,2.94,1.67,2.42*09
$GPGSV,3,1,11,03,63,062,37,28,57,239,41,17,52,324,39,50,46,199,30*73
$GPGSV,3,2,11,22,40,049,29,01,32,056,21,19,31,313,31,06,22,270,28*7A
$GPGSV,3,3,11,11,16,090,16,09,06,164,,08,03,124,*40
$GPRMC,032545.200,A,3524.6830,N,13854.5901,E,16.03,136.73,210720,,,D*55
$GPGGA,032545.300,3524.6827,N,13854.5904,E,2,7,1.67,1092.2,M,39.2,M,0000,0000*66
$GPGSA,A,3,03,28,17,22,01,19,06,,,,,,2.94,1.67,2.42*09
$GPGSV,3,1,11,03,63,062,37,28,57,239,41,17,52,324,39,50,46,199,30*73
$GPGSV,3,2,11,22,40,049,30,01,32,056,21,19,31,313,31,06,22,270,27*7D
$GPGSV,3,3,11,11,16,090,16,09,06,164,,08,03,124,*40
$GPRMC,032545.300,A,3524.6827,N,13854.5904,E,15.97,139.24,210720,,,D*54
$GPGGA,032545.400,3524.6825,N,13854.5907,E,2,7,1.67,1092.1,M,39.2,M,0000,0000*63
$GPGSA,A,3,03,28,17,22,01,19,06,,,,,,2.94,1.67,2.42*09
$GPGSV,3,1,11,03,63,062,37,28,57,239,40,17,52,324,39,50,46,199,30*72
$GPGSV,3,2,11,22,40,049,30,01,32,056,21,19,31,313,31,06,22,270,26*7C
$GPGSV,3,3,11,11,16,090,16,09,06,164,,08,03,124,*40
$GPRMC,032545.400,A,3524.6825,N,13854.5907,E,15.92,140.19,210720,,,D*57
$GPGGA,032545.500,3524.6822,N,13854.5910,E,2,7,1.67,1092.0,M,39.2,M,0000,0000*62
$GPGSA,A,3,03,28,17,22,01,19,06,,,,,,2.94,1.67,2.42*09
$GPGSV,3,1,11,03,63,062,37,28,57,239,40,17,52,324,39,50,46,199,30*72
$GPGSV,3,2,11,22,40,049,30,01,32,056,21,19,31,313,31,06,22,270,25*7F
$GPGSV,3,3,11,11,16,090,16,09,06,164,,08,03,124,*40
$GPRMC,032545.500,A,3524.6822,N,13854.5910,E,15.92,140.19,210720,,,D*57
$GPGGA,032545.600,3524.6818,N,13854.5914,E,2,7,1.67,1091.9,M,39.2,M,0000,0000*66
$GPGSA,A,3,03,28,17,22,01,19,06,,,,,,2.94,1.67,2.42*09
$GPGSV,3,1,11,03,63,062,37,28,57,239,40,17,52,324,40,50,46,199,30*7C
$GPGSV,3,2,11,22,40,049,30,01,32,056,21,19,31,313,30,06,22,270,25*7E
$GPGSV,3,3,11,11,16,090,16,09,06,164,,08,03,124,*40
$GPRMC,032545.600,A,3524.6818,N,13854.5914,E,16.17,140.03,210720,,,D*5C
$GPGGA,032545.700,3524.6814,N,13854.5918,E,2,7,1.67,1091.8,M,39.2,M,0000,0000*66
$GPGSA,A,3,03,28,17,22,01,19,06,,,,,,2.94,1.67,2.42*09
$GPGSV,3,1,11,03,63,062,37,28,57,239,40,17,52,324,40,50,46,199,29*74
$GPGSV,3,2,11,22,40,049,30,01,32,056,21,19,31,313,29,06,22,270,25*76
$GPGSV,3,3,11,11,16,090,16,09,06,164,,08,03,124,*40
$GPRMC,032545.700,A,3524.6814,N,13854.5918,E,16.48,140.42,210720,,,D*52
$GPGGA,032545.800,3524.6811,N,13854.5921,E,2,7,1.67,1091.7,M,39.2,M,0000,0000*69
$GPGSA,A,3,03,28,17,22,01,19,06,,,,,,2.94,1.67,2.42*09
$GPGSV,3,1,11,03,63,062,37,28,57,239,40,17,52,324,40,50,46,199,28*75
$GPGSV,3,2,11,22,40,049,30,01,32,056,21,19,31,313,29,06,22,270,25*76
$GPGSV,3,3,11,11,16,090,16,09,06,164,,08,03,124,*40
$GPRMC,032545.800,A,3524.6811,N,13854.5921,E,16.24,141.23,210720,,,D*5E
$GPGGA,032545.900,3524.6808,N,13854.5924,E,2,7,1.67,1091.6,M,39.2,M,0000,0000*64
$GPGSA,A,3,03,28,17,22,01,19,06,,,,,,2.94,1.67,2.42*09
$GPGSV,3,1,11,03,63,062,37,28,57,239,40,17,52,324,40,50,46,199,28*75
$GPGSV,3,2,11,22,40,049,29,01,32,056,21,19,31,313,29,06,22,270,25*7E
$GPGSV,3,3,11,11,16,090,16,09,06,164,,08,03,124,*40
$GPRMC,032545.900,A,3524.6808,N,13854.5924,E,16.26,140.92,210720,,,D*5B
$GPGGA,032546.000,3524.6804,N,13854.5927,E,2,7,1.67,1091.5,M,39.2,M,0000,0000*62
$GPGSA,A,3,03,28,17,22,01,19,06,,,,,,2.94,1.67,2.42*09
$GPGSV,3,1,11,03,63,062,37,28,57,239,40,17,52,324,40,50,46,199,28*75
$GPGSV,3,2,11,22,40,049,28,01,32,056,21,19,31,313,29,06,22,270,23*79
$GPGSV,3,3,11,11,16,090,16,09,06,164,,08,03,124,*40
$GPRMC,032546.000,A,3524.6804,N,13854.5927,E,16.07,142.87,210720,,,D*5B
$GPGGA,032546.100,3524.6801,N,13854.5930,E,2,7,1.67,1091.5,M,39.2,M,0000,0000*60
$GPGSA,A,3,03,28,17,22,01,19,06,,,,,,2.94,1.67,2.42*09
$GPGSV,3,1,11,03,63,062,37,28,57,239,39,17,52,324,40,50,46,199,28*7B
$GPGSV,3,2,11,22,40,049,28,01,32,056,21,19,31,313,30,06,22,270,22*70
$GPGSV,3,3,11,11,16,090,16,09,06,164,,08,03,124,*40
$GPRMC,032546.100,A,3524.6801,N,13854.5930,E,16.30,144.57,210720,,,D*56
$GPGGA,032546.200,3524.6797,N,13854.5933,E,2,7,1.67,1091.3,M,39.2,M,0000,0000*66
$GPGSA,A,3,03,28,17,22,01,19,06,,,,,,2.94,1.67,2.42*09
$GPGSV,3,1,11,03,63,062,37,28,57,239,38,17,52,324,40,50,46,199,29*7B
$GPGSV,3,2,11,22,40,049,28,01,32,056,21,19,31,313,31,06,22,270,21*72
$GPGSV,3,3,11,11,16,090,16,09,06,164,,08,03,124,*40
$GPRMC,032546.200,A,3524.6797,N,13854.5933,E,16.55,143.84,210720,,,D*5C
$GPGGA,032546.300,3524.6793,N,13854.5936,E,2,7,1.67,1091.3,M,39.2,M,0000,0000*66
$GPGSA,A,3,03,28,17,22,01,19,06,,,,,,2.94,1.67,2.42*09
$GPGSV,3,1,11,03,63,062,37,28,57,239,38,17,52,324,40,50,46,199,30*73
$GPGSV,3,2,11,22,40,049,28,01,32,056,21,19,31,313,31,06,22,270,21*72
$GPGSV,3,3,11,11,16,090,16,09,06,164,,08,03,124,*40
$GPRMC,032546.300,A,3524.6793,N,13854.5936,E,16.45,145.05,210720,,,D*52
$GPGGA,032546.400,3524.6789,N,13854.5938,E,2,7,1.67,1091.2,M,39.2,M,0000,0000*65
$GPGSA,A,3,03,28,17,22,01,19,06,,,,,,2.94,1.67,2.42*09
$GPGSV,3,1,11,03,63,062,36,28,57,239,38,17,52,324,40,50,46,199,31*73
$GPGSV,3,2,11,22,40,049,28,01,32,056,20,19,31,313,31,06,22,270,21*73
$GPGSV,3,3,11,11,16,090,16,09,06,164,,08,03,124,*40
$GPRMC,032546.400,A,3524.6789,N,13854.5938,E,16.81,146.80,210720,,,D*56
$GPGGA,032546.500,3524.6785,N,13854.5941,E,2,7,1.67,1091.1,M,39.2,M,0000,0000*65
$GPGSA,A,3,03,28,17,22,01,19,06,,,,,,2.94,1.67,2.42*09
$GPGSV,3,1,11,03,63,062,35,28,57,239,38,17,52,324,40,50,46,199,30*71
$GPGSV,3,2,11,22,40,049,30,01,32,056,20,19,31,313,31,06,22,270,21*7A
$GPGSV,3,3,11,11,16,090,16,09,06,164,,08,03,124,*40
$GPRMC,032546.500,A,3524.6785,N,13854.5941,E,16.81,146.89,210720,,,D*5C
$GPGGA,032546.600,3524.6781,N,13854.5944,E,2,7,1.67,1091.0,M,39.2,M,0000,0000*66
$GPGSA,A,3,03,28,17,22,01,19,06,,,,,,2.94,1.67,2.42*09
$GPGSV,3,1,11,03,63,062,34,28,57,239,38,17,52,324,40,50,46,199,30*70
$GPGSV,3,2,11,22,40,049,31,01,32,056,20,19,31,313,30,06,22,270,21*7A
$GPGSV,3,3,11,11,16,090,16,09,06,164,,08,03,124,*40
$GPRMC,032546.600,A,3524.6781,N,13854.5944,E,16.88,147.80,210720,,,D*5F
$GPGGA,032546.700,3524.6777,N,13854.5947,E,2,7,1.67,1090.9,M,39.2,M,0000,0000*65
$GPGSA,A,3,03,28,17,22,01,19,06,,,,,,2.94,1.67,2.42*09
$GPGSV,3,1,11,03,63,062,34,28,57,239,38,17,52,324,40,50,46,199,31*71
$GPGSV,3,2,11,22,40,049,32,01,32,056,20,19,31,313,30,06,22,270,21*79
$GPGSV,3,3,11,11,16,090,16,09,06,164,,08,03,124,*40
$GPRMC,032546.700,A,3524.6777,N,13854.5947,E,16.71,148.55,210720,,,D*55
$GPGGA,032546.800,3524.6773,N,13854.5949,E,2,7,1.67,1090.7,M,39.2,M,0000,0000*6E
$GPGSA,A,3,03,28,17,22,01,19,06,,,,,,2.94,1.67,2.42*09
$GPGSV,3,1,11,03,63,062,34,28,57,239,38,17,52,324,40,50,46,199,32*72
$GPGSV,3,2,11,22,40,049,32,01,32,056,20,19,31,313,30,06,22,270,21*79
$GPGSV,3,3,11,11,16,090,16,09,06,164,,08,03,124,*40
$GPRMC,032546.800,A,3524.6773,N,13854.5949,E,16.64,149.77,210720,,,D*55
$GPGGA,032546.900,3524.6770,N,13854.5952,E,2,7,1.67,1090.6,M,39.2,M,0000,0000*67
$GPGSA,A,3,03,28,17,22,01,19,06,,,,,,2.94,1.67,2.42*09
$GPGSV,3,1,11,03,63,062,34,28,57,239,38,17,52,324,40,50,46,199,32*72
$GPGSV,3,2,11,22,40,049,32,01,32,056,20,19,31,313,30,06,22,270,21*79
$GPGSV,3,3,11,11,16,090,16,09,06,164,,08,03,124,*40
$GPRMC,032546.900,A,3524.6770,N,13854.5952,E,16.30,151.50,210720,,,D*50
$GPGGA,032547.000,3524.6765,N,13854.5954,E,2,7,1.67,1090.5,M,39.2,M,0000,0000*6E
$GPGSA,A,3,03,28,17,22,01,19,06,,,,,,2.94,1.67,2.42*09
$GPGSV,3,1,11,03,63,062,34,28,57,239,38,17,52,324,40,50,46,199,32*72
$GPGSV,3,2,11,22,40,049,32,01,32,056,20,19,31,313,30,06,22,270,21*79
$GPGSV,3,3,11,11,16,090,16,09,06,164,,08,03,124,*40
$GPRMC,032547.000,A,3524.6765,N,13854.5954,E,16.68,153.40,210720,,,D*54
$GPGGA,032547.100,3524.6761,N,13854.5956,E,2,7,1.67,1090.4,M,39.2,M,0000,0000*68
$GPGSA,A,3,03,28,17,22,01,19,06,,,,,,2.94,1.67,2.42*09
$GPGSV,3,1,11,03,63,062,34,28,57,239,38,17,52,324,40,50,46,199,32*72
$GPGSV,3,2,11,22,40,049,25,01,32,056,20,19,31,313,30,06,22,270,21*7F
$GPGSV,3,3,11,11,16,090,16,09,06,164,,08,03,124,*40
$GPRMC,032547.100,A,3524.6761,N,13854.5956,E,16.71,153.92,210720,,,D*54
$GPGGA,032547.200,3524.6756,N,13854.5958,E,2,7,1.67,1090.2,M,39.2,M,0000,0000*67
$GPGSA,A,3,03,28,17,22,01,19,06,,,,,,2.94,1.67,2.42*09
$GPGSV,3,1,11,03,63,062,34,28,57,239,38,17,52,324,40,50,46,199,32*72
$GPGSV,3,2,11,22,40,049,25,01,32,056,20,19,31,313,29,06,22,270,21*77
$GPGSV,3,3,11,11,16,090,16,09,06,164,,08,03,124,*40
$GPRMC,032547.200,A,3524.6756,N,13854.5958,E,16.60,155.14,210720,,,D*55
$GPGGA,032547.300,3524.6752,N,13854.5960,E,2,7,1.67,1090.1,M,39.2,M,0000,0000*6A
$GPGSA,A,3,03,28,17,22,01,19,06,,,,,,2.94,1.67,2.42*09
$GPGSV,3,1,11,03,63,062,34,28,57,239,38,17,52,324,40,50,46,199,32*72
$GPGSV,3,2,11,22,40,049,25,01,32,056,20,19,31,313,29,06,22,270,21*77
$GPGSV,3,3,11,11,16,090,16,09,06,164,,08,03,124,*40
$GPRMC,032547.300,A,3524.6752,N,13854.5960,E,16.52,155.87,210720,,,D*50
$GPGGA,032547.400,3524.6747,N,13854.5962,E,2,7,1.67,1090.0,M,39.2,M,0000,0000*6A
$GPGSA,A,3,03,28,17,22,01,19,06,,,,,,2.94,1.67,2.42*09
$GPGSV,3,1,11,03,63,062,34,28,57,239,38,17,52,324,40,50,46,199,32*72
$GPGSV,3,2,11,22,40,049,25,01,32,056,20,19,31,313,29,06,22,270,21*77
$GPGSV,3,3,11,11,16,090,16,09,06,164,,08,03,124,*40
$GPRMC,032547.400,A,3524.6747,N,13854.5962,E,16.10,158.81,210720,,,D*5C
$GPGGA,032547.500,3524.6743,N,13854.5964,E,2,7,1.67,1089.8,M,39.2,M,0000,0000*69
$GPGSA,A,3,03,28,17,22,01,19,06,,,,,,2.94,1.67,2.42*09
$GPGSV,3,1,11,03,63,062,34,28,57,239,39,17,52,324,40,50,46,199,32*73
$GPGSV,3,2,11,22,40,049,25,01,32,056,20,19,31,313,29,06,22,270,21*77
$GPGSV,3,3,11,11,16,090,16,09,06,164,,08,03,124,*40
$GPRMC,032547.500,A,3524.6743,N,13854.5964,E,16.47,159.58,210720,,,D*58
$GPGGA,032547.600,3524.6738,N,13854.5966,E,2,7,1.67,1089.7,M,39.2,M,0000,0000*6B
$GPGSA,A,3,03,28,17,22,01,19,06,,,,,,2.94,1.67,2.42*09
$GPGSV,3,1,11,03,63,062,34,28,57,239,40,17,52,324,40,50,46,199,32*7D
$GPGSV,3,2,11,22,40,049,25,01,32,056,20,19,31,313,29,06,22,270,21*77
$GPGSV,3,3,11,11,16,090,16,09,06,164,,08,03,124,*40
$GPRMC,032547.600,A,3524.6738,N,13854.5966,E,16.25,160.69,210720,,,D*59
$GPGGA,032547.700,3524.6734,N,13854.5967,E,2,7,1.67,1089.6,M,39.2,M,0000,0000*66
$GPGSA,A,3,03,28,17,22,01,19,06,,,,,,2.94,1.67,2.42*09
$GPGSV,3,1,11,03,63,062,34,28,57,239,41,17,52,324,40,50,46,199,32*7C
$GPGSV,3,2,11,22,40,049,25,01,32,056,20,19,31,313,29,06,22,270,28*7E
$GPGSV,3,3,11,11,16,090,16,09,06,164,,08,03,124,*40
$GPRMC,032547.700,A,3524.6734,N,13854.5967,E,15.91,161.80,210720,,,D*5F
$GPGGA,032547.800,3524.6729,N,13854.5968,E,2,7,1.67,1089.5,M,39.2,M,0000,0000*69
$GPGSA,A,3,03,28,17,22,01,19,06,,,,,,2.94,1.67,2.42*09
$GPGSV,3,1,11,03,63,062,34,28,57,239,41,17,52,324,40,50,46,199,34*7A
$GPGSV,3,2,11,22,40,049,25,01,32,056,20,19,31,313,29,06,22,270,28*7E
$GPGSV,3,3,11,11,16,090,15,09,06,164,,08,03,124,*43
$GPRMC,032547.800,A,3524.6729,N,13854.5968,E,16.05,163.33,210720,,,D*57
$GPGGA,032547.900,3524.6724,N,13854.5970,E,2,7,1.67,1089.4,M,39.2,M,0000,0000*6D
$GPGSA,A,3,03,28,17,22,01,19,06,,,,,,2.94,1.67,2.42*09
$GPGSV,3,1,11,03,63,062,34,28,57,239,41,17,52,324,39,50,46,199,35*75
$GPGSV,3,2,11,22,40,049,25,01,32,056,20,19,31,313,29,06,22,270,28*7E
$GPGSV,3,3,11,11,16,090,15,09,06,164,,08,03,124,*43
$GPRMC,032547.900,A,3524.6724,N,13854.5970,E,16.16,164.58,210720,,,D*5A
$GPGGA,032548.000,3524.6720,N,13854.5970,E,2,7,1.67,1089.3,M,39.2,M,0000,0000*68
$GPGSA,A,3,03,28,17,22,01,19,06,,,,,,2.94,1.67,2.42*09
$GPGSV,3,1,11,03,63,062,35,28,57,239,41,17,52,324,38,50,46,199,36*76
$GPGSV,3,2,11,22,40,049,25,01,32,056,20,19,31,313,29,06,22,270,28*7E
$GPGSV,3,3,11,11,16,090,15,09,06,164,,08,03,124,*43
$GPRMC,032548.000,A,3524.6720,N,13854.5970,E,15.49,167.80,210720,,,D*57
$GPGGA,032548.100,3524.6716,N,13854.5971,E,2,7,1.67,1089.2,M,39.2,M,0000,0000*6C
$GPGSA,A,3,03,28,17,22,01,19,06,,,,,,2.94,1.67,2.42*09
$GPGSV,3,1,11,03,63,062,35,28,57,239,41,17,52,324,38,50,46,199,37*77
$GPGSV,3,2,11,22,40,049,26,01,32,056,20,19,31,313,29,06,22,270,28*7D
$GPGSV,3,3,11,11,16,090,15,09,06,164,,08,03,124,*43
