PGSA,A,2,11,03,28,17,,,,,,,,,2.63,2.43,1.00*0F
$GPGSV,2,1,07,03,67,117,21,28,61,283,40,01,48,040,,42,48,169,*76
$GPGSV,2,2,07,17,35,312,35,11,31,073,29,04,04,145,*45
$GPRMC,023959.400,A,3524.0665,N,13852.3009,E,0.93,23.28,210720,,,A*5B
$GPGGA,024012.700,3524.0636,N,13852.2991,E,1,5,1.94,96.5,M,39.1,M,,*6B
$GPGSA,A,2,11,03,28,01,17,,,,,,,,2.17,1.94,0.97*0B
$GPGSV,2,1,07,03,67,117,19,28,61,283,42,01,48,040,31,17,35,312,35*7F
$GPGSV,2,2,07,11,30,073,19,41,18,248,,04,04,145,*43
$GPRMC,024012.700,A,3524.0636,N,13852.2991,E,0.66,348.06,210720,,,A*6E
$GPGGA,024012.800,3524.0636,N,13852.2991,E,1,5,1.94,96.4,M,39.1,M,,*65
$GPGSA,A,2,11,03,28,01,17,,,,,,,,2.17,1.94,0.97*0B
$GPGSV,2,1,07,03,67,117,19,28,61,283,42,01,48,040,31,17,35,312,35*7F
$GPGSV,2,2,07,11,30,073,19,41,18,248,,04,04,145,*43
$GPRMC,024012.800,A,3524.0636,N,13852.2991,E,0.66,348.34,210720,,,A*60
$GPGGA,024012.900,3524.0636,N,13852.2991,E,1,5,1.94,96.4,M,39.1,M,,*64
$GPGSA,A,2,11,03,28,01,17,,,,,,,,2.17,1.94,0.97*0B
$GPGSV,2,1,07,03,67,117,19,28,61,283,42,01,48,040,31,17,35,312,35*7F
$GPGSV,2,2,07,11,30,073,19,41,18,248,,04,04,145,*43
$GPRMC,024012.900,A,3524.0636,N,13852.2991,E,0.66,348.40,210720,,,A*62
$GPGGA,024013.000,3524.0636,N,13852.2990,E,1,5,1.94,96.3,M,39.1,M,,*6A
$GPGSA,A,2,11,03,28,01,17,,,,,,,,2.17,1.94,0.97*0B
$GPGSV,2,1,07,03,67,117,19,28,61,283,42,01,48,040,31,17,35,312,35*7F
$GPGSV,2,2,07,11,30,073,19,41,18,248,,04,04,145,*43
$GPRMC,024013.000,A,3524.0636,N,13852.2990,E,0.66,348.41,210720,,,A*6A
$GPGGA,024013.100,3524.0635,N,13852.2990,E,1,5,1.94,96.2,M,39.1,M,,*69
$GPGSA,A,2,11,03,28,01,17,,,,,,,,2.17,1.94,0.97*0B
$GPGSV,2,1,07,03,67,117,19,28,61,283,42,01,48,040,31,17,35,312,35*7F
$GPGSV,2,2,07,11,30,073,19,41,18,248,,04,04,145,*43
$GPRMC,024013.100,A,3524.0635,N,13852.2990,E,0.65,347.71,210720,,,A*67
$GPGGA,024013.200,3524.0635,N,13852.2990,E,1,5,1.94,96.1,M,39.1,M,,*69
$GPGSA,A,2,11,03,28,01,17,,,,,,,,2.17,1.94,0.97*0B
$GPGSV,2,1,07,03,67,117,19,28,61,283,42,01,48,040,31,17,35,312,35*7F
$GPGSV,2,2,07,11,30,073,19,41,18,248,,04,04,145,*43
$GPRMC,024013.200,A,3524.0635,N,13852.2990,E,0.65,347.02,210720,,,A*60
$GPGGA,024013.300,3524.0635,N,13852.2990,E,1,5,1.94,96.0,M,39.1,M,,*69
$GPGSA,A,2,11,03,28,01,17,,,,,,,,2.17,1.94,0.97*0B
$GPGSV,2,1,07,03,67,117,19,28,61,283,42,01,48,040,30,17,35,312,35*7E
$GPGSV,2,2,07,11,30,073,19,41,18,248,,04,04,145,*43
$GPRMC,024013.300,A,3524.0635,N,13852.2990,E,0.65,346.57,210720,,,A*60
$GPGGA,024013.400,3524.0634,N,13852.2989,E,1,5,1.94,96.0,M,39.1,M,,*67
$GPGSA,A,2,11,03,28,01,17,,,,,,,,2.17,1.94,0.97*0B
$GPGSV,2,1,07,03,67,117,19,28,61,283,42,01,48,040,30,17,35,312,34*7F
$GPGSV,2,2,07,11,30,073,19,41,18,248,,04,04,145,*43
$GPRMC,024013.400,A,3524.0634,N,13852.2989,E,0.65,346.19,210720,,,A*64
$GPGGA,024013.500,3524.0634,N,13852.2989,E,1,5,1.94,95.9,M,39.1,M,,*6C
$GPGSA,A,2,11,03,28,01,17,,,,,,,,2.17,1.94,0.97*0B
$GPGSV,2,1,07,03,67,117,19,28,61,283,42,01,48,040,30,17,35,312,34*7F
$GPGSV,2,2,07,11,30,073,19,41,18,248,,04,04,145,*43
$GPRMC,024013.500,A,3524.0634,N,13852.2989,E,0.65,345.94,210720,,,A*63
$GPGGA,024013.600,3524.0634,N,13852.2989,E,1,5,1.94,95.8,M,39.1,M,,*6E
$GPGSA,A,2,11,03,28,01,17,,,,,,,,2.17,1.94,0.97*0B
$GPGSV,2,1,07,03,67,117,19,28,61,283,42,01,48,040,30,17,35,312,34*7F
$GPGSV,2,2,07,11,30,073,19,41,18,248,,04,04,145,*43
$GPRMC,024013.600,A,3524.0634,N,13852.2989,E,0.65,346.12,210720,,,A*6D
$GPGGA,024013.700,3524.0634,N,13852.2989,E,1,5,1.94,95.7,M,39.1,M,,*60
$GPGSA,A,2,11,03,28,01,17,,,,,,,,2.17,1.94,0.97*0B
$GPGSV,2,1,07,03,67,117,19,28,61,283,42,01,48,040,30,17,35,312,34*7F
$GPGSV,2,2,07,11,30,073,19,41,18,248,,04,04,145,*43
$GPRMC,024013.700,A,3524.0634,N,13852.2989,E,0.66,345.94,210720,,,A*62
$GPGGA,024013.800,3524.0634,N,13852.2989,E,1,5,1.94,95.7,M,39.1,M,,*6F
$GPGSA,A,2,11,03,28,01,17,,,,,,,,2.17,1.94,0.97*0B
$GPGSV,2,1,07,03,67,117,19,28,61,283,42,01,48,040,30,17,35,312,34*7F
$GPGSV,2,2,07,11,30,073,19,41,18,248,,04,04,145,*43
$GPRMC,024013.800,A,3524.0634,N,13852.2989,E,0.66,345.96,210720,,,A*6F
$GPGGA,024013.900,3524.0634,N,13852.2988,E,1,5,1.94,95.6,M,39.1,M,,*6E
$GPGSA,A,2,11,03,28,01,17,,,,,,,,2.17,1.94,0.97*0B
$GPGSV,2,1,07,03,67,117,19,28,61,283,42,01,48,040,30,17,35,312,34*7F
$GPGSV,2,2,07,11,30,073,19,41,18,248,,04,04,145,*43
$GPRMC,024013.900,A,3524.0634,N,13852.2988,E,0.66,345.98,210720,,,A*61
$GPGGA,024014.000,3524.0634,N,13852.2988,E,1,5,1.94,95.5,M,39.1,M,,*63
$GPGSA,A,2,11,03,28,01,17,,,,,,,,2.17,1.94,0.97*0B
$GPGSV,2,1,07,03,67,117,19,28,61,283,42,01,48,040,30,17,35,312,34*7F
$GPGSV,2,2,07,11,30,073,20,41,18,248,,04,04,145,*49
$GPRMC,024014.000,A,3524.0634,N,13852.2988,E,0.66,346.16,210720,,,A*6A
$GPGGA,024014.100,3524.0634,N,13852.2988,E,1,5,1.94,95.4,M,39.1,M,,*63
$GPGSA,A,2,11,03,28,01,17,,,,,,,,2.17,1.94,0.97*0B
$GPGSV,2,1,07,03,67,117,19,28,61,283,42,01,48,040,30,17,35,312,34*7F
$GPGSV,2,2,07,11,30,073,21,41,18,248,,04,04,145,*48
$GPRMC,024014.100,A,3524.0634,N,13852.2988,E,0.66,346.26,210720,,,A*68
$GPGGA,024014.200,3524.0634,N,13852.2988,E,1,5,1.94,95.4,M,39.1,M,,*60
$GPGSA,A,2,11,03,28,01,17,,,,,,,,2.17,1.94,0.97*0B
$GPGSV,2,1,07,03,67,117,19,28,61,283,42,01,48,040,30,17,35,312,34*7F
$GPGSV,2,2,07,11,30,073,21,41,18,248,,04,04,145,*48
$GPRMC,024014.200,A,3524.0634,N,13852.2988,E,0.66,346.63,210720,,,A*6A
$GPGGA,024014.300,3524.0634,N,13852.2988,E,1,5,1.94,95.3,M,39.1,M,,*66
$GPGSA,A,2,11,03,28,01,17,,,,,,,,2.17,1.94,0.97*0B
$GPGSV,2,1,07,03,67,117,19,28,61,283,42,01,48,040,30,17,35,312,34*7F
$GPGSV,2,2,07,11,30,073,21,41,18,248,,04,04,145,*48
$GPRMC,024014.300,A,3524.0634,N,13852.2988,E,0.66,346.84,210720,,,A*62
$GPGGA,024014.400,3524.0633,N,13852.2987,E,1,5,1.94,95.2,M,39.1,M,,*68
$GPGSA,A,2,11,03,28,01,17,,,,,,,,2.17,1.94,0.97*0B
$GPGSV,2,1,07,03,67,117,19,28,61,283,42,01,48,040,30,17,35,312,34*7F
$GPGSV,2,2,07,11,30,073,21,41,18,248,,04,04,145,*48
$GPRMC,024014.400,A,3524.0633,N,13852.2987,E,0.66,347.21,210720,,,A*63
$GPGGA,024014.500,3524.0634,N,13852.2987,E,1,5,1.94,95.2,M,39.1,M,,*6E
$GPGSA,A,2,11,03,28,01,17,,,,,,,,2.17,1.94,0.97*0B
$GPGSV,2,1,07,03,67,117,19,28,61,283,42,01,48,040,30,17,35,312,34*7F
$GPGSV,2,2,07,11,30,073,21,41,18,248,,04,04,145,*48
$GPRMC,024014.500,A,3524.0634,N,13852.2987,E,0.72,347.36,210720,,,A*66
$GPGGA,024014.600,3524.0633,N,13852.2987,E,1,5,2.64,95.1,M,39.1,M,,*65
$GPGSA,A,3,11,03,28,01,17,,,,,,,,4.88,2.64,4.10*0D
$GPGSV,2,1,07,03,67,117,21,28,61,283,42,01,48,040,30,17,35,312,34*74
$GPGSV,2,2,07,11,30,073,21,41,18,248,,04,04,145,*48
$GPRMC,024014.600,A,3524.0633,N,13852.2987,E,0.66,347.23,210720,,,A*63
$GPGGA,024014.700,3524.0633,N,13852.2987,E,1,5,1.94,95.1,M,39.1,M,,*68
$GPGSA,A,2,11,03,28,01,17,,,,,,,,2.17,1.94,0.97*0B
$GPGSV,2,1,07,03,67,117,22,28,61,283,42,01,48,040,30,17,35,312,34*77
$GPGSV,2,2,07,11,30,073,21,41,18,248,,04,04,145,*48
$GPRMC,024014.700,A,3524.0633,N,13852.2987,E,0.71,347.49,210720,,,A*68
$GPGGA,024014.800,3524.0633,N,13852.2986,E,1,5,1.94,95.0,M,39.1,M,,*67
$GPGSA,A,2,11,03,28,01,17,,,,,,,,2.17,1.94,0.97*0B
$GPGSV,2,1,07,03,67,117,23,28,61,283,42,01,48,040,30,17,35,312,34*76
$GPGSV,2,2,07,11,30,073,21,41,18,248,,04,04,145,*48
$GPRMC,024014.800,A,3524.0633,N,13852.2986,E,0.73,348.44,210720,,,A*66
$GPGGA,024014.900,3524.0633,N,13852.2986,E,1,5,1.94,95.0,M,39.1,M,,*66
$GPGSA,A,2,11,03,28,01,17,,,,,,,,2.17,1.94,0.97*0B
$GPGSV,2,1,07,03,67,117,23,28,61,283,42,01,48,040,30,17,35,312,34*76
$GPGSV,2,2,07,11,30,073,21,41,18,248,,04,04,145,*48
$GPRMC,024014.900,A,3524.0633,N,13852.2986,E,0.72,349.06,210720,,,A*61
$GPGGA,024015.000,3524.0632,N,13852.2986,E,1,5,1.94,94.9,M,39.1,M,,*67
$GPGSA,A,2,11,03,28,01,17,,,,,,,,2.17,1.94,0.97*0B
$GPGSV,2,1,07,03,67,117,23,28,61,283,43,01,48,040,30,17,35,312,34*77
$GPGSV,2,2,07,11,30,073,21,41,18,248,,04,04,145,*48
$GPRMC,024015.000,A,3524.0632,N,13852.2986,E,0.69,347.35,210720,,,A*6C
$GPGGA,024015.100,3524.0632,N,13852.2986,E,1,5,1.94,94.8,M,39.1,M,,*67
$GPGSA,A,2,11,03,28,01,17,,,,,,,,2.17,1.94,0.97*0B
$GPGSV,2,1,08,03,67,117,23,28,61,283,43,01,48,040,30,17,35,312,34*78
$GPGSV,2,2,08,11,30,073,21,41,18,248,,06,09,254,,04,04,145,*7B
$GPRMC,024015.100,A,3524.0632,N,13852.2986,E,0.70,349.42,210720,,,A*6B
$GPGGA,024015.200,3524.0632,N,13852.2986,E,1,5,2.64,94.8,M,39.1,M,,*68
$GPGSA,A,3,11,03,28,01,17,,,,,,,,4.88,2.64,4.10*0D
$GPGSV,2,1,08,03,67,117,23,28,61,283,43,01,48,040,30,17,35,312,34*78
$GPGSV,2,2,08,11,30,073,22,41,18,248,,06,09,254,,04,04,145,*78
$GPRMC,024015.200,A,3524.0632,N,13852.2986,E,0.70,351.05,210720,,,A*62
$GPGGA,024015.300,3524.0632,N,13852.2986,E,1,5,1.94,94.7,M,39.1,M,,*6A
$GPGSA,A,2,11,03,28,01,17,,,,,,,,2.17,1.94,0.97*0B
$GPGSV,2,1,08,03,67,117,23,28,61,283,41,01,48,040,30,17,35,312,34*7A
$GPGSV,2,2,08,11,30,073,23,41,18,248,,06,09,254,,04,04,145,*79
$GPRMC,024015.300,A,3524.0632,N,13852.2986,E,0.69,350.67,210720,,,A*6E
$GPGGA,024015.400,3524.0631,N,13852.2986,E,1,5,1.94,94.7,M,39.1,M,,*6E
$GPGSA,A,2,11,03,28,01,17,,,,,,,,2.17,1.94,0.97*0B
$GPGSV,2,1,08,03,67,117,23,28,61,283,40,01,48,040,30,17,35,312,34*7B
$GPGSV,2,2,08,11,30,073,23,41,18,248,,06,09,254,,04,04,145,*79
$GPRMC,024015.400,A,3524.0631,N,13852.2986,E,0.69,352.63,210720,,,A*6C
$GPGGA,024015.500,3524.0631,N,13852.2986,E,1,5,1.94,94.6,M,39.1,M,,*6E
$GPGSA,A,2,11,03,28,01,17,,,,,,,,2.17,1.94,0.97*0B
$GPGSV,2,1,08,03,67,117,23,28,61,283,41,01,48,040,30,17,35,312,34*7A
$GPGSV,2,2,08,11,30,073,23,41,18,248,,06,09,254,,04,04,145,*79
$GPRMC,024015.500,A,3524.0631,N,13852.2986,E,0.68,351.27,210720,,,A*6F
$GPGGA,024015.600,3524.0631,N,13852.2986,E,1,5,1.94,94.5,M,39.1,M,,*6E
$GPGSA,A,2,11,03,28,01,17,,,,,,,,2.17,1.94,0.97*0B
$GPGSV,2,1,08,03,67,117,23,28,61,283,41,01,48,040,30,17,35,312,35*7B
$GPGSV,2,2,08,11,30,073,23,41,18,248,,06,09,254,,04,04,145,*79
$GPRMC,024015.600,A,3524.0631,N,13852.2986,E,0.69,351.55,210720,,,A*68
$GPGGA,024015.700,3524.0631,N,13852.2986,E,1,5,2.64,94.5,M,39.1,M,,*63
$GPGSA,A,3,11,03,28,01,17,,,,,,,,4.88,2.64,4.10*0D
$GPGSV,2,1,08,03,67,117,23,28,61,283,42,01,48,040,30,17,35,312,35*78
$GPGSV,2,2,08,11,30,073,23,41,18,248,,06,09,254,,04,04,145,*79
$GPRMC,024015.700,A,3524.0631,N,13852.2986,E,0.69,351.96,210720,,,A*66
$GPGGA,024015.800,3524.0631,N,13852.2986,E,1,5,2.64,94.5,M,39.1,M,,*6C
$GPGSA,A,3,11,03,28,01,17,,,,,,,,4.88,2.64,4.10*0D
$GPGSV,2,1,08,03,67,117,23,28,61,283,42,01,48,040,30,17,35,312,35*78
$GPGSV,2,2,08,11,30,073,23,41,18,248,,06,09,254,,04,04,145,*79
$GPRMC,024015.800,A,3524.0631,N,13852.2986,E,0.70,352.72,210720,,,A*68
$GPGGA,024015.900,3524.0631,N,13852.2986,E,1,5,1.94,94.5,M,39.1,M,,*61
$GPGSA,A,2,11,03,28,01,17,,,,,,,,2.17,1.94,0.97*0B
$GPGSV,2,1,08,03,67,117,23,28,61,283,42,01,48,040,30,17,35,312,35*78
$GPGSV,2,2,08,11,30,073,23,41,18,248,,06,09,254,,04,04,145,*79
$GPRMC,024015.900,A,3524.0631,N,13852.2986,E,0.69,352.60,210720,,,A*62
$GPGGA,024016.000,3524.0631,N,13852.2986,E,1,5,2.64,94.4,M,39.1,M,,*66
$GPGSA,A,3,11,03,28,01,17,,,,,,,,4.88,2.64,4.10*0D
$GPGSV,2,1,08,03,67,117,23,28,61,283,42,01,48,040,30,17,35,312,36*7B
$GPGSV,2,2,08,11,30,073,22,41,18,248,,06,09,254,,04,04,145,*78
$GPRMC,024016.000,A,3524.0631,N,13852.2986,E,0.70,353.41,210720,,,A*62
$GPGGA,024016.100,3524.0631,N,13852.2986,E,1,5,2.64,94.4,M,39.1,M,,*67
$GPGSA,A,3,11,03,28,01,17,,,,,,,,4.88,2.64,4.10*0D
$GPGSV,2,1,08,03,67,117,23,28,61,283,42,01,48,040,30,17,35,312,36*7B
$GPGSV,2,2,08,11,30,073,21,41,18,248,,06,09,254,,04,04,145,*7B
$GPRMC,024016.100,A,3524.0631,N,13852.2986,E,0.69,353.31,210720,,,A*6C
$GPGGA,024016.200,3524.0632,N,13852.2986,E,1,5,2.64,94.4,M,39.1,M,,*67
$GPGSA,A,3,11,03,28,01,17,,,,,,,,4.89,2.64,4.11*0D
$GPGSV,2,1,08,03,67,117,23,28,61,283,42,01,48,040,30,17,35,312,36*7B
$GPGSV,2,2,08,11,30,073,20,41,18,248,,06,09,254,,04,04,145,*7A
$GPRMC,024016.200,A,3524.0632,N,13852.2986,E,0.69,353.38,210720,,,A*65
$GPGGA,024016.300,3524.0632,N,13852.2986,E,1,5,2.64,94.4,M,39.1,M,,*66
$GPGSA,A,3,11,03,28,01,17,,,,,,,,4.88,2.64,4.10*0D
$GPGSV,2,1,08,03,67,117,23,28,61,283,42,01,48,040,30,17,35,312,36*7B
$GPGSV,2,2,08,11,30,073,20,41,18,248,,06,09,254,,04,04,145,*7A
$GPRMC,024016.300,A,3524.0632,N,13852.2986,E,0.69,352.97,210720,,,A*60
$GPGGA,024016.400,3524.0632,N,13852.2986,E,1,5,2.64,94.4,M,39.1,M,,*61
$GPGSA,A,3,11,03,28,01,17,,,,,,,,4.88,2.64,4.10*0D
$GPGSV,2,1,08,03,67,117,24,28,61,283,42,01,48,040,30,17,35,312,36*7C
$GPGSV,2,2,08,11,30,073,20,41,18,248,,06,09,254,,04,04,145,*7A
$GPRMC,024016.400,A,3524.0632,N,13852.2986,E,0.70,352.69,210720,,,A*6E
$GPGGA,024016.500,3524.0632,N,13852.2985,E,1,5,2.64,94.4,M,39.1,M,,*63
$GPGSA,A,3,11,03,28,01,17,,,,,,,,4.88,2.64,4.10*0D
$GPGSV,2,1,08,03,67,117,25,28,61,283,42,01,48,040,30,17,35,312,36*7D
$GPGSV,2,2,08,11,30,073,20,41,18,248,,06,09,254,,04,04,145,*7A
$GPRMC,024016.500,A,3524.0632,N,13852.2985,E,0.70,352.99,210720,,,A*63
$GPGGA,024016.600,3524.0633,N,13852.2985,E,1,5,2.64,94.4,M,39.1,M,,*61
$GPGSA,A,3,11,03,28,01,17,,,,,,,,4.88,2.64,4.10*0D
$GPGSV,2,1,08,03,67,117,26,28,61,283,42,01,48,040,30,17,35,312,36*7E
$GPGSV,2,2,08,11,30,073,20,41,18,248,,06,09,254,,04,04,145,*7A
$GPRMC,024016.600,A,3524.0633,N,13852.2985,E,0.70,353.42,210720,,,A*66
$GPGGA,024016.700,3524.0633,N,13852.2985,E,1,5,2.64,94.4,M,39.1,M,,*60
$GPGSA,A,3,11,03,28,01,17,,,,,,,,4.88,2.64,4.10*0D
$GPGSV,2,1,08,03,67,117,26,28,61,283,42,01,48,040,30,17,35,312,36*7E
$GPGSV,2,2,08,11,30,073,20,41,18,248,,06,09,254,,04,04,145,*7A
$GPRMC,024016.700,A,3524.0633,N,13852.2985,E,0.71,353.59,210720,,,A*6C
$GPGGA,024016.800,3524.0633,N,13852.2985,E,1,5,2.64,94.4,M,39.1,M,,*6F
$GPGSA,A,3,11,03,28,01,17,,,,,,,,4.88,2.64,4.11*0C
$GPGSV,2,1,08,03,67,117,26,28,61,283,42,01,48,040,30,17,35,312,36*7E
$GPGSV,2,2,08,11,30,073,20,41,18,248,,06,09,254,,04,04,145,*7A
$GPRMC,024016.800,A,3524.0633,N,13852.2985,E,0.70,353.17,210720,,,A*68
$GPGGA,024016.900,3524.0633,N,13852.2985,E,1,5,2.64,94.5,M,39.1,M,,*6F
$GPGSA,A,3,11,03,28,01,17,,,,,,,,4.88,2.64,4.10*0D
$GPGSV,2,1,08,03,67,117,28,28,61,283,42,01,48,040,30,17,35,312,36*70
$GPGSV,2,2,08,11,30,073,20,41,18,248,,06,09,254,,04,04,145,*7A
$GPRMC,024016.900,A,3524.0633,N,13852.2985,E,0.70,353.25,210720,,,A*68
$GPGGA,024017.000,3524.0633,N,13852.2985,E,1,5,2.64,94.5,M,39.1,M,,*67
$GPGSA,A,3,11,03,28,01,17,,,,,,,,4.88,2.64,4.10*0D
$GPGSV,2,1,08,03,67,117,29,28,61,283,42,01,48,040,30,17,35,312,36*71
$GPGSV,2,2,08,11,30,073,20,41,18,248,,06,09,254,,04,04,145,*7A
$GPRMC,024017.000,A,3524.0633,N,13852.2985,E,0.63,354.72,210720,,,A*67
$GPGGA,024017.100,3524.0634,N,13852.2985,E,1,5,2.64,94.5,M,39.1,M,,*61
$GPGSA,A,3,11,03,28,01,17,,,,,,,,4.88,2.64,4.10*0D
$GPGSV,2,1,08,03,67,117,30,28,61,283,42,01,48,040,30,17,35,312,36*79
$GPGSV,2,2,08,11,30,073,20,41,18,248,,06,09,254,,04,04,145,*7A
$GPRMC,024017.100,A,3524.0634,N,13852.2985,E,0.70,353.47,210720,,,A*62
$GPGGA,024017.200,3524.0634,N,13852.2985,E,1,5,2.64,94.5,M,39.1,M,,*62
$GPGSA,A,3,11,03,28,01,17,,,,,,,,4.88,2.64,4.10*0D
$GPGSV,2,1,08,03,67,117,30,28,61,283,42,01,48,040,30,17,35,312,36*79
$GPGSV,2,2,08,11,30,073,20,41,18,248,,06,09,254,,04,04,145,*7A
$GPRMC,024017.200,A,3524.0634,N,13852.2985,E,0.69,353.26,210720,,,A*6E
$GPGGA,024017.300,3524.0634,N,13852.2985,E,1,5,2.64,94.5,M,39.1,M,,*63
$GPGSA,A,3,11,03,28,01,17,,,,,,,,4.88,2.64,4.11*0C
$GPGSV,2,1,08,03,67,117,30,28,61,283,42,01,48,040,30,17,35,312,36*79
$GPGSV,2,2,08,11,30,073,21,41,18,248,,06,09,254,,04,04,145,*7B
$GPRMC,024017.300,A,3524.0634,N,13852.2985,E,0.68,353.09,210720,,,A*63
$GPGGA,024017.400,3524.0634,N,13852.2984,E,1,5,2.64,94.5,M,39.1,M,,*65
$GPGSA,A,3,11,03,28,01,17,,,,,,,,4.88,2.64,4.10*0D
$GPGSV,2,1,08,03,67,117,30,28,61,283,42,01,48,040,30,17,35,312,36*79
$GPGSV,2,2,08,11,30,073,22,41,18,248,,06,09,254,,04,04,145,*78
$GPRMC,024017.400,A,3524.0634,N,13852.2984,E,0.69,352.84,210720,,,A*60
$GPGGA,024017.500,3524.0634,N,13852.2984,E,1,5,2.64,94.5,M,39.1,M,,*64
$GPGSA,A,3,11,03,28,01,17,,,,,,,,4.88,2.64,4.10*0D
$GPGSV,2,1,08,03,67,117,30,28,61,283,42,01,48,040,30,17,35,312,36*79
$GPGSV,2,2,08,11,30,073,22,41,18,248,,06,09,254,,04,04,145,*78
$GPRMC,024017.500,A,3524.0634,N,13852.2984,E,0.72,353.21,210720,,,A*65
$GPGGA,024017.600,3524.0634,N,13852.2985,E,1,5,2.64,94.5,M,39.1,M,,*66
$GPGSA,A,3,11,03,28,01,17,,,,,,,,4.89,2.64,4.11*0D
$GPGSV,2,1,08,03,67,117,30,28,61,283,42,01,48,040,30,17,35,312,36*79
$GPGSV,2,2,08,11,30,073,22,41,18,248,,06,09,254,,04,04,145,*78
$GPRMC,024017.600,A,3524.0634,N,13852.2985,E,0.66,354.54,210720,,,A*67
$GPGGA,024017.700,3524.0634,N,13852.2985,E,1,5,2.64,94.5,M,39.1,M,,*67
$GPGSA,A,3,11,03,28,01,17,,,,,,,,4.88,2.64,4.10*0D
$GPGSV,2,1,08,03,67,117,30,28,61,283,42,01,48,040,30,17,35,312,37*78
$GPGSV,2,2,08,11,30,073,22,41,18,248,,06,09,254,,04,04,145,*78
$GPRMC,024017.700,A,3524.0634,N,13852.2985,E,0.65,355.38,210720,,,A*6E
$GPGGA,024017.800,3524.0634,N,13852.2985,E,1,5,2.64,94.5,M,39.1,M,,*68
$GPGSA,A,3,11,03,28,01,17,,,,,,,,4.88,2.64,4.10*0D
$GPGSV,2,1,08,03,67,117,30,28,61,283,42,01,48,040,30,17,35,312,37*78
$GPGSV,2,2,08,11,30,073,23,41,18,248,,06,09,254,,04,04,145,*79
$GPRMC,024017.800,A,3524.0634,N,13852.2985,E,0.66,355.25,210720,,,A*6E
$GPGGA,024017.900,3524.0635,N,13852.2985,E,1,5,2.64,94.5,M,39.1,M,,*68
$GPGSA,A,3,11,03,28,01,17,,,,,,,,4.88,2.64,4.10*0D
$GPGSV,2,1,08,03,67,117,30,28,61,283,42,01,48,040,30,17,35,312,37*78
$GPGSV,2,2,08,11,30,073,23,41,18,248,,06,09,254,,04,04,145,*79
$GPRMC,024017.900,A,3524.0635,N,13852.2985,E,0.65,356.92,210720,,,A*62
$GPGGA,024018.000,3524.0635,N,13852.2985,E,1,5,2.64,94.4,M,39.1,M,,*6F
$GPGSA,A,3,11,03,28,01,17,,,,,,,,4.88,2.64,4.10*0D
$GPGSV,2,1,08,03,67,117,29,28,61,283,42,01,48,040,30,17,35,312,37*70
$GPGSV,2,2,08,11,30,073,23,41,18,248,,06,09,254,,04,04,145,*79
$GPRMC,024018.000,A,3524.0635,N,13852.2985,E,0.66,357.48,210720,,,A*61
$GPGGA,024018.100,3524.0636,N,13852.2985,E,1,5,2.64,94.4,M,39.1,M,,*6D
$GPGSA,A,3,11,03,28,01,17,,,,,,,,4.88,2.64,4.10*0D
$GPGSV,2,1,08,03,67,117,28,28,61,283,42,01,48,040,30,17,35,312,37*71
$GPGSV,2,2,08,11,30,073,23,41,18,248,,06,09,254,,04,04,145,*79
$GPRMC,024018.100,A,3524.0636,N,13852.2985,E,0.65,358.64,210720,,,A*61
$GPGGA,024018.200,3524.0636,N,13852.2985,E,1,5,2.64,94.4,M,39.1,M,,*6E
$GPGSA,A,3,11,03,28,01,17,,,,,,,,4.88,2.64,4.10*0D
$GPGSV,2,1,08,03,67,117,28,28,61,283,42,01,48,040,30,17,35,312,37*71
$GPGSV,2,2,08,11,30,073,23,41,18,248,,06,09,254,,04,04,145,*79
$GPRMC,024018.200,A,3524.0636,N,13852.2985,E,0.68,358.99,210720,,,A*6D
$GPGGA,024018.300,3524.0636,N,13852.2985,E,1,5,2.64,94.4,M,39.1,M,,*6F
$GPGSA,A,3,11,03,28,01,17,,,,,,,,4.88,2.64,4.10*0D
$GPGSV,2,1,08,03,67,117,28,28,61,283,42,01,48,040,30,17,35,312,38*7E
$GPGSV,2,2,08,11,30,073,23,41,18,248,,06,09,254,,04,04,145,*79
$GPRMC,024018.300,A,3524.0636,N,13852.2985,E,0.66,359.75,210720,,,A*61
$GPGGA,024018.400,3524.0637,N,13852.2985,E,1,5,2.64,94.4,M,39.1,M,,*69
$GPGSA,A,3,11,03,28,01,17,,,,,,,,4.88,2.64,4.10*0D
$GPGSV,2,1,08,03,67,117,28,28,61,283,42,01,48,040,30,17,35,312,38*7E
$GPGSV,2,2,08,11,30,073,23,41,18,248,,06,09,254,,04,04,145,*79
$GPRMC,024018.400,A,3524.0637,N,13852.2985,E,0.69,358.35,210720,,,A*6D
$GPGGA,024018.500,3524.0637,N,13852.2985,E,1,5,2.64,94.4,M,39.1,M,,*68
$GPGSA,A,3,11,03,28,01,17,,,,,,,,4.88,2.64,4.10*0D
$GPGSV,2,1,08,03,67,117,21,28,61,283,43,01,48,040,30,17,35,312,38*76
$GPGSV,2,2,08,11,30,073,23,41,18,248,,06,09,254,,04,04,145,*79
$GPRMC,024018.500,A,3524.0637,N,13852.2985,E,0.70,358.58,210720,,,A*6F
$GPGGA,024018.600,3524.0638,N,13852.2985,E,1,5,2.65,94.4,M,39.1,M,,*65
$GPGSA,A,3,11,03,28,01,17,,,,,,,,4.89,2.65,4.11*0C
$GPGSV,2,1,08,03,67,117,21,28,61,283,43,01,48,040,30,17,35,312,38*76
$GPGSV,2,2,08,11,30,073,23,41,18,248,,06,09,254,,04,04,145,*79
$GPRMC,024018.600,A,3524.0638,N,13852.2985,E,0.72,358.49,210720,,,A*61
$GPGGA,024018.700,3524.0639,N,13852.2985,E,1,5,2.64,94.4,M,39.1,M,,*64
$GPGSA,A,3,11,03,28,01,17,,,,,,,,4.88,2.64,4.10*0D
$GPGSV,2,1,08,03,67,117,21,28,61,283,43,01,48,040,30,17,35,312,38*76
$GPGSV,2,2,08,11,30,073,23,41,18,248,,06,09,254,,04,04,145,*79
$GPRMC,024018.700,A,3524.0639,N,13852.2985,E,0.74,358.17,210720,,,A*6C
$GPGGA,024018.800,3524.0639,N,13852.2985,E,1,5,2.64,94.4,M,39.1,M,,*6B
$GPGSA,A,3,11,03,28,01,17,,,,,,,,4.88,2.64,4.10*0D
$GPGSV,2,1,08,03,67,117,21,28,61,283,43,01,48,040,31,17,35,312,38*77
$GPGSV,2,2,08,11,30,073,23,41,18,248,,06,09,254,,04,04,145,*79
$GPRMC,024018.800,A,3524.0639,N,13852.2985,E,0.70,359.73,210720,,,A*64
$GPGGA,024018.900,3524.0639,N,13852.2985,E,1,5,2.64,94.4,M,39.1,M,,*6A
$GPGSA,A,3,11,03,28,01,17,,,,,,,,4.89,2.64,4.11*0D
$GPGSV,2,1,08,03,67,117,21,28,61,283,43,01,48,040,31,17,35,312,38*77
$GPGSV,2,2,08,11,30,073,23,41,18,248,28,06,09,254,,04,04,145,*73
$GPRMC,024018.900,A,3524.0639,N,13852.2985,E,0.72,359.73,210720,,,A*67
$GPGGA,024019.000,3524.0640,N,13852.2986,E,1,5,1.94,94.4,M,39.1,M,,*63
$GPGSA,A,2,11,03,28,01,17,,,,,,,,2.17,1.94,0.97*0B
$GPGSV,2,1,08,03,67,117,21,28,61,283,43,01,48,040,31,17,35,312,37*78
$GPGSV,2,2,08,11,30,073,23,41,18,248,28,06,09,254,,04,04,145,*73
$GPRMC,024019.000,A,3524.0640,N,13852.2986,E,0.71,2.21,210720,,,A*6B
$GPGGA,024019.100,3524.0640,N,13852.2986,E,1,5,1.94,94.3,M,39.1,M,,*65
$GPGSA,A,2,11,03,28,01,17,,,,,,,,2.17,1.94,0.97*0B
$GPGSV,2,1,08,03,67,117,21,28,61,283,43,01,48,040,31,17,35,312,37*78
$GPGSV,2,2,08,11,30,073,23,41,18,248,28,06,09,254,,04,04,145,*73
$GPRMC,024019.100,A,3524.0640,N,13852.2986,E,0.72,2.67,210720,,,A*6B
$GPGGA,024019.200,3524.0640,N,13852.2986,E,1,5,2.64,94.3,M,39.1,M,,*6A
$GPGSA,A,3,11,03,28,01,17,,,,,,,,4.88,2.64,4.10*0D
$GPGSV,2,1,08,03,67,117,19,28,61,282,43,01,48,040,31,17,35,312,37*72
$GPGSV,2,2,08,11,30,073,23,41,18,248,28,06,09,254,,04,04,145,*73
$GPRMC,024019.200,A,3524.0640,N,13852.2986,E,0.69,4.41,210720,,,A*60
$GPGGA,024019.300,3524.0641,N,13852.2986,E,1,5,2.64,94.3,M,39.1,M,,*6A
$GPGSA,A,3,11,03,28,01,17,,,,,,,,4.88,2.64,4.10*0D
$GPGSV,2,1,08,03,67,117,18,28,61,282,43,01,48,040,32,17,35,312,37*70
$GPGSV,2,2,08,11,30,073,21,41,18,248,28,06,09,254,,04,04,145,*71
$GPRMC,024019.300,A,3524.0641,N,13852.2986,E,0.74,2.91,210720,,,A*67
$GPGGA,024019.400,3524.0641,N,13852.2986,E,1,5,2.64,94.3,M,39.1,M,,*6D
$GPGSA,A,3,11,03,28,01,17,,,,,,,,4.88,2.64,4.10*0D
$GPGSV,2,1,08,03,67,117,17,28,61,282,43,01,48,040,32,17,35,312,37*7F
$GPGSV,2,2,08,11,30,073,20,41,18,248,29,06,09,254,,04,04,145,*71
$GPRMC,024019.400,A,3524.0641,N,13852.2986,E,0.72,3.64,210720,,,A*6D
$GPGGA,024019.500,3524.0642,N,13852.2986,E,1,5,2.64,94.3,M,39.1,M,,*6F
$GPGSA,A,3,11,03,28,01,17,,,,,,,,4.89,2.64,4.11*0D
$GPGSV,2,1,08,03,67,117,17,28,61,282,43,01,48,040,32,17,35,312,37*7F
$GPGSV,2,2,08,11,30,073,19,41,18,248,29,06,09,254,,04,04,145,*7B
$GPRMC,024019.500,A,3524.0642,N,13852.2986,E,0.71,4.88,210720,,,A*69
$GPGGA,024019.600,3524.0642,N,13852.2986,E,1,5,2.64,94.3,M,39.1,M,,*6C
$GPGSA,A,3,11,03,28,01,17,,,,,,,,4.88,2.64,4.10*0D
$GPGSV,2,1,08,03,67,117,17,28,61,282,43,01,48,040,32,17,35,312,37*7F
$GPGSV,2,2,08,11,30,073,19,41,18,248,,06,09,254,,04,04,145,*70
$GPRMC,024019.600,A,3524.0642,N,13852.2986,E,0.74,3.98,210720,,,A*69
$GPGGA,024019.700,3524.0643,N,13852.2986,E,1,5,2.64,94.3,M,39.1,M,,*6C
$GPGSA,A,3,11,03,28,01,17,,,,,,,,4.88,2.64,4.10*0D
$GPGSV,2,1,08,03,67,117,17,28,61,282,43,01,48,040,32,17,35,312,37*7F
$GPGSV,2,2,08,11,30,073,19,41,18,248,,06,09,254,,04,04,145,*70
$GPRMC,024019.700,A,3524.0643,N,13852.2986,E,0.76,2.98,210720,,,A*6A
$GPGGA,024019.800,3524.0643,N,13852.2986,E,1,5,2.64,94.3,M,39.1,M,,*63
$GPGSA,A,3,11,03,28,01,17,,,,,,,,4.88,2.64,4.10*0D
$GPGSV,2,1,08,03,67,117,17,28,61,282,43,01,48,040,32,17,35,312,37*7F
$GPGSV,2,2,08,11,30,073,19,41,18,248,,06,09,254,,04,04,145,*70
$GPRMC,024019.800,A,3524.0643,N,13852.2986,E,0.77,2.70,210720,,,A*62
$GPGGA,024019.900,3524.0643,N,13852.2986,E,1,5,2.64,94.2,M,39.1,M,,*63
$GPGSA,A,3,11,03,28,01,17,,,,,,,,4.88,2.64,4.10*0D
$GPGSV,2,1,08,03,67,117,17,28,61,282,43,01,48,040,32,17,35,312,37*7F
$GPGSV,2,2,08,11,30,073,19,41,18,248,,06,09,254,,04,04,145,*70
$GPRMC,024019.900,A,3524.0643,N,13852.2986,E,0.72,4.56,210720,,,A*64
$GPGGA,024020.000,3524.0644,N,13852.2986,E,1,5,1.94,94.2,M,39.1,M,,*6B
$GPGSA,A,2,11,03,28,01,17,,,,,,,,2.17,1.94,0.97*0B
$GPGSV,2,1,08,03,67,117,17,28,61,282,43,01,48,040,32,17,35,312,37*7F
$GPGSV,2,2,08,11,30,073,19,41,18,248,,06,09,254,,04,04,145,*70
$GPRMC,024020.000,A,3524.0644,N,13852.2986,E,0.76,2.51,210720,,,A*65
$GPGGA,024020.100,3524.0644,N,13852.2986,E,1,5,1.94,94.1,M,39.1,M,,*69
$GPGSA,A,2,11,03,28,01,17,,,,,,,,2.17,1.94,0.97*0B
$GPGSV,2,1,08,03,67,117,17,28,61,282,43,01,48,040,32,17,35,312,37*7F
$GPGSV,2,2,08,11,30,073,19,41,18,248,,06,09,254,,04,04,145,*70
$GPRMC,024020.100,A,3524.0644,N,13852.2986,E,0.73,2.25,210720,,,A*62
$GPGGA,024020.200,3524.0644,N,13852.2985,E,1,5,1.94,94.1,M,39.1,M,,*69
$GPGSA,A,2,11,03,28,01,17,,,,,,,,2.17,1.94,0.97*0B
$GPGSV,2,1,08,03,67,117,17,28,61,282,43,01,48,040,32,17,35,312,37*7F
$GPGSV,2,2,08,11,30,073,19,41,18,248,,06,09,254,,04,04,145,*70
$GPRMC,024020.200,A,3524.0644,N,13852.2985,E,0.74,1.70,210720,,,A*66
$GPGGA,024020.300,3524.0644,N,13852.2985,E,1,5,1.94,94.0,M,39.1,M,,*69
$GPGSA,A,2,11,03,28,01,17,,,,,,,,2.17,1.94,0.97*0B
$GPGSV,2,1,08,03,67,117,17,28,61,282,43,01,48,040,33,17,35,312,37*7E
$GPGSV,2,2,08,11,30,073,19,41,18,248,,06,09,254,,04,04,145,*70
$GPRMC,024020.300,A,3524.0644,N,13852.2985,E,0.72,1.54,210720,,,A*67
$GPGGA,024020.400,3524.0644,N,13852.2985,E,1,5,2.64,94.0,M,39.1,M,,*62
$GPGSA,A,3,11,03,28,01,17,,,,,,,,4.88,2.64,4.10*0D
$GPGSV,2,1,08,03,67,117,17,28,61,282,43,01,48,040,33,17,35,312,37*7E
$GPGSV,2,2,08,11,30,073,19,41,18,248,,06,09,254,,04,04,145,*70
$GPRMC,024020.400,A,3524.0644,N,13852.2985,E,0.73,359.77,210720,,,A*6E
$GPGGA,024020.500,3524.0644,N,13852.2985,E,1,5,2.64,94.0,M,39.1,M,,*63
$GPGSA,A,3,11,03,28,01,17,,,,,,,,4.88,2.64,4.10*0D
$GPGSV,2,1,08,03,67,117,17,28,61,282,43,01,48,040,33,17,35,312,37*7E
$GPGSV,2,2,08,11,30,073,19,41,18,248,,06,09,254,,04,04,145,*70
$GPRMC,024020.500,A,3524.0644,N,13852.2985,E,0.69,359.77,210720,,,A*64
$GPGGA,024020.600,3524.0645,N,13852.2985,E,1,5,2.64,94.0,M,39.1,M,,*61
$GPGSA,A,3,11,03,28,01,17,,,,,,,,4.88,2.64,4.10*0D
$GPGSV,2,1,08,03,67,117,17,28,61,282,43,01,48,040,33,17,35,312,37*7E
$GPGSV,2,2,08,11,30,073,18,41,18,248,,06,09,254,,04,04,145,*71
$GPRMC,024020.600,A,3524.0645,N,13852.2985,E,0.71,359.77,210720,,,A*6F
$GPGGA,024020.700,3524.0645,N,13852.2985,E,1,5,1.94,93.9,M,39.1,M,,*62
$GPGSA,A,2,11,03,28,01,17,,,,,,,,2.17,1.94,0.97*0B
$GPGSV,2,1,08,03,67,117,17,28,61,282,42,01,48,040,33,17,35,312,37*7F
$GPGSV,2,2,08,11,30,074,17,41,18,248,,06,09,254,,04,04,145,*79
$GPRMC,024020.700,A,3524.0645,N,13852.2985,E,0.66,359.77,210720,,,A*68
$GPGGA,024020.800,3524.0645,N,13852.2985,E,1,5,1.94,93.9,M,39.1,M,,*6D
$GPGSA,A,2,11,03,28,01,17,,,,,,,,2.17,1.94,0.97*0B
$GPGSV,2,1,08,03,67,117,17,28,61,282,42,01,48,040,32,17,35,312,37*7E
$GPGSV,2,2,08,11,30,074,17,41,18,248,,06,09,254,,04,04,145,*79
$GPRMC,024020.800,A,3524.0645,N,13852.2985,E,0.71,359.71,210720,,,A*67
$GPGGA,024020.900,3524.0645,N,13852.2985,E,1,5,1.94,93.8,M,39.1,M,,*6D
$GPGSA,A,2,11,03,28,01,17,,,,,,,,2.17,1.94,0.97*0B
$GPGSV,2,1,08,03,67,117,17,28,61,282,42,01,48,040,31,17,35,312,37*7D
$GPGSV,2,2,08,11,30,074,17,41,18,248,,06,09,254,,04,04,145,*79
$GPRMC,024020.900,A,3524.0645,N,13852.2985,E,0.70,359.71,210720,,,A*67
$GPGGA,024021.000,3524.0646,N,13852.2985,E,1,5,1.94,93.7,M,39.1,M,,*69
$GPGSA,A,2,11,03,28,01,17,,,,,,,,2.17,1.94,0.97*0B
$GPGSV,2,1,08,03,67,117,17,28,61,282,42,01,48,040,31,17,35,312,37*7D
$GPGSV,2,2,08,11,30,074,17,41,18,248,,06,09,254,,04,04,145,*79
$GPRMC,024021.000,A,3524.0646,N,13852.2985,E,0.76,359.39,210720,,,A*66
$GPGGA,024021.100,3524.0646,N,13852.2985,E,1,5,1.94,93.7,M,39.1,M,,*68
$GPGSA,A,2,11,03,28,01,17,,,,,,,,2.17,1.94,0.97*0B
$GPGSV,2,1,08,03,67,117,17,28,61,282,35,01,48,040,31,17,35,312,37*7D
$GPGSV,2,2,08,11,30,074,17,41,18,248,,06,09,254,,04,04,145,*79
$GPRMC,024021.100,A,3524.0646,N,13852.2985,E,0.79,358.55,210720,,,A*63
$GPGGA,024021.200,3524.0646,N,13852.2985,E,1,5,1.94,93.6,M,39.1,M,,*6A
$GPGSA,A,2,11,03,28,01,17,,,,,,,,2.17,1.94,0.97*0B
$GPGSV,2,1,08,03,67,117,17,28,61,282,35,01,48,040,31,17,35,312,37*7D
$GPGSV,2,2,08,11,30,074,17,41,18,248,,06,09,254,,04,04,145,*79
$GPRMC,024021.200,A,3524.0646,N,13852.2985,E,0.68,358.55,210720,,,A*60
$GPGGA,024021.300,3524.0646,N,13852.2985,E,1,5,1.94,93.6,M,39.1,M,,*6B
$GPGSA,A,2,11,03,28,01,17,,,,,,,,2.17,1.94,0.97*0B
$GPGSV,2,1,08,03,67,117,17,28,61,282,35,01,48,040,31,17,35,312,37*7D
$GPGSV,2,2,08,11,30,074,17,41,18,248,,06,09,254,,04,04,145,*79
$GPRMC,024021.300,A,3524.0646,N,13852.2985,E,0.73,358.98,210720,,,A*6A
$GPGGA,024021.400,3524.0646,N,13852.2985,E,1,5,1.94,93.5,M,39.1,M,,*6F
$GPGSA,A,2,11,03,28,01,17,,,,,,,,2.17,1.94,0.97*0B
$GPGSV,2,1,08,03,67,117,17,28,61,282,35,01,48,040,31,17,35,312,30*7A
$GPGSV,2,2,08,11,30,074,17,41,18,248,,06,09,254,,04,04,145,*79
$GPRMC,024021.400,A,3524.0646,N,13852.2985,E,0.74,358.54,210720,,,A*6A
$GPGGA,024021.500,3524.0646,N,13852.2984,E,1,5,1.94,93.4,M,39.1,M,,*6E
$GPGSA,A,2,11,03,28,01,17,,,,,,,,2.17,1.94,0.97*0B
$GPGSV,2,1,08,03,67,117,17,28,61,282,35,01,48,040,31,17,35,312,30*7A
$GPGSV,2,2,08,11,30,074,17,41,18,248,,06,09,254,,04,04,145,*79
$GPRMC,024021.500,A,3524.0646,N,13852.2984,E,0.74,358.44,210720,,,A*6B
$GPGGA,024021.600,3524.0646,N,13852.2984,E,1,5,1.94,93.4,M,39.1,M,,*6D
$GPGSA,A,2,11,03,28,01,17,,,,,,,,2.17,1.94,0.97*0B
$GPGSV,2,1,08,03,67,117,17,28,61,282,34,01,48,040,31,17,35,312,30*7B
$GPGSV,2,2,08,11,30,074,17,41,18,248,,06,09,254,,04,04,145,*79
$GPRMC,024021.600,A,3524.0646,N,13852.2984,E,0.74,358.31,210720,,,A*6A
$GPGGA,024021.700,3524.0646,N,13852.2984,E,1,5,1.94,93.3,M,39.1,M,,*6B
$GPGSA,A,2,11,03,28,01,17,,,,,,,,2.17,1.94,0.97*0B
$GPGSV,2,1,08,03,67,117,17,28,61,282,33,01,48,040,31,17,35,312,30*7C
$GPGSV,2,2,08,11,30,074,17,41,18,248,,06,09,254,,04,04,145,*79
$GPRMC,024021.700,A,3524.0646,N,13852.2984,E,0.74,357.61,210720,,,A*61
$GPGGA,024021.800,3524.0646,N,13852.2984,E,1,5,1.94,93.3,M,39.1,M,,*64
$GPGSA,A,2,11,03,28,01,17,,,,,,,,2.17,1.94,0.97*0B
$GPGSV,2,1,08,03,67,117,17,28,61,282,33,01,48,040,31,17,35,312,30*7C
$GPGSV,2,2,08,11,30,074,18,41,18,248,,06,09,254,,04,04,145,*76
$GPRMC,024021.800,A,3524.0646,N,13852.2984,E,0.74,357.54,210720,,,A*68
$GPGGA,024021.900,3524.0646,N,13852.2984,E,1,5,1.94,93.2,M,39.1,M,,*64
$GPGSA,A,2,11,03,28,01,17,,,,,,,,2.17,1.94,0.97*0B
$GPGSV,2,1,08,03,67,117,17,28,61,282,33,01,48,040,31,17,35,312,30*7C
$GPGSV,2,2,08,11,30,074,19,41,18,248,30,06,09,254,,04,04,145,*74
$GPRMC,024021.900,A,3524.0646,N,13852.2984,E,0.74,357.77,210720,,,A*68
$GPGGA,024022.000,3524.0646,N,13852.2984,E,1,5,1.94,93.2,M,39.1,M,,*6E
$GPGSA,A,2,11,03,28,01,17,,,,,,,,2.17,1.94,0.97*0B
$GPGSV,2,1,08,03,67,117,17,28,61,282,33,01,48,040,31,17,35,312,30*7C
$GPGSV,2,2,08,11,30,074,19,41,18,248,30,06,09,254,,04,04,145,*74
$GPRMC,024022.000,A,3524.0646,N,13852.2984,E,0.73,357.92,210720,,,A*6E
$GPGGA,024022.100,3524.0646,N,13852.2984,E,1,5,1.94,93.1,M,39.1,M,,*6C
$GPGSA,A,2,11,03,28,01,17,,,,,,,,2.17,1.94,0.97*0B
$GPGSV,2,1,08,03,67,117,17,28,61,282,34,01,48,040,31,17,35,312,30*7B
$GPGSV,2,2,08,11,30,074,19,41,18,248,30,06,09,254,,04,04,145,*74
$GPRMC,024022.100,A,3524.0646,N,13852.2984,E,0.73,358.10,210720,,,A*6A
$GPGGA,024022.200,3524.0646,N,13852.2984,E,1,5,1.94,93.1,M,39.1,M,,*6F
$GPGSA,A,2,11,03,28,01,17,,,,,,,,2.17,1.94,0.97*0B
$GPGSV,2,1,08,03,67,117,17,28,61,282,34,01,48,040,31,17,35,312,30*7B
$GPGSV,2,2,08,11,30,074,19,41,18,248,29,06,09,254,,04,04,145,*7C
$GPRMC,024022.200,A,3524.0646,N,13852.2984,E,0.73,358.01,210720,,,A*69
$GPGGA,024022.300,3524.0646,N,13852.2984,E,1,5,1.94,93.0,M,39.1,M,,*6F
$GPGSA,A,2,11,03,28,01,17,,,,,,,,2.17,1.94,0.97*0B
$GPGSV,2,1,08,03,67,117,17,28,61,282,34,01,48,040,31,17,35,312,30*7B
$GPGSV,2,2,08,11,30,074,19,41,18,248,29,06,09,254,,04,04,145,*7C
$GPRMC,024022.300,A,3524.0646,N,13852.2984,E,0.73,357.92,210720,,,A*6D
$GPGGA,024022.400,3524.0646,N,13852.2984,E,1,5,1.94,92.9,M,39.1,M,,*60
$GPGSA,A,2,11,03,28,01,17,,,,,,,,2.17,1.94,0.97*0B
$GPGSV,2,1,08,03,67,117,17,28,61,282,34,01,48,040,30,17,35,312,30*7A
$GPGSV,2,2,08,11,30,074,19,06,09,254,,04,04,145,,44,04,260,*75
$GPRMC,024022.400,A,3524.0646,N,13852.2984,E,0.73,358.01,210720,,,A*6F
$GPGGA,024022.500,3524.0646,N,13852.2984,E,1,5,1.94,92.9,M,39.1,M,,*61
$GPGSA,A,2,11,03,28,01,17,,,,,,,,2.17,1.94,0.97*0B
$GPGSV,2,1,08,03,67,117,17,28,61,282,35,01,48,040,29,17,35,312,30*73
$GPGSV,2,2,08,11,30,074,20,06,09,254,,04,04,145,,44,04,260,*7F
$GPRMC,024022.500,A,3524.0646,N,13852.2984,E,0.73,358.25,210720,,,A*68
$GPGGA,024022.600,3524.0646,N,13852.2984,E,1,5,1.94,92.8,M,39.1,M,,*63
$GPGSA,A,2,11,03,28,01,17,,,,,,,,2.17,1.94,0.97*0B
$GPGSV,2,1,08,03,67,117,17,28,61,282,35,01,48,040,29,17,35,312,30*73
$GPGSV,2,2,08,11,30,074,21,06,09,254,,04,04,145,,44,04,260,*7E
$GPRMC,024022.600,A,3524.0646,N,13852.2984,E,0.73,357.91,210720,,,A*6B
$GPGGA,024022.700,3524.0646,N,13852.2985,E,1,5,2.64,92.8,M,39.1,M,,*6F
$GPGSA,A,3,11,03,28,01,17,,,,,,,,4.88,2.64,4.11*0C
$GPGSV,2,1,08,03,67,117,17,28,61,282,43,01,48,040,29,17,35,312,39*7B
$GPGSV,2,2,08,11,30,074,22,06,09,254,,04,04,145,,44,04,260,*7D
$GPRMC,024022.700,A,3524.0646,N,13852.2985,E,0.71,359.67,210720,,,A*6E
$GPGGA,024022.800,3524.0646,N,13852.2985,E,1,5,2.64,92.8,M,39.1,M,,*60
$GPGSA,A,3,11,03,28,01,17,,,,,,,,4.88,2.64,4.10*0D
$GPGSV,2,1,08,03,67,117,17,28,61,282,44,01,48,040,29,17,35,312,39*7C
$GPGSV,2,2,08,11,30,074,22,06,09,254,,04,04,145,,44,04,260,*7D
$GPRMC,024022.800,A,3524.0646,N,13852.2985,E,0.70,359.67,210720,,,A*60
$GPGGA,024022.900,3524.0647,N,13852.2985,E,1,5,2.64,92.8,M,39.1,M,,*60
$GPGSA,A,3,11,03,28,01,17,,,,,,,,4.88,2.64,4.10*0D
$GPGSV,2,1,08,03,67,117,17,28,61,282,44,01,48,040,29,17,35,312,39*7C
$GPGSV,2,2,08,11,30,074,22,06,09,254,,04,04,145,,44,04,260,*7D
$GPRMC,024022.900,A,3524.0647,N,13852.2985,E,0.70,1.96,210720,,,A*60
$GPGGA,024023.000,3524.0647,N,13852.2985,E,1,5,2.64,92.8,M,39.1,M,,*68
$GPGSA,A,3,11,03,28,01,17,,,,,,,,4.88,2.64,4.10*0D
$GPGSV,2,1,08,03,67,117,19,28,61,282,43,01,48,040,29,17,35,312,39*75
$GPGSV,2,2,08,11,30,074,24,06,09,254,,04,04,145,,44,04,260,*7B
$GPRMC,024023.000,A,3524.0647,N,13852.2985,E,0.67,3.20,210720,,,A*61
$GPGGA,024023.100,3524.0647,N,13852.2986,E,1,5,1.94,92.8,M,39.1,M,,*66
$GPGSA,A,2,11,03,28,01,17,,,,,,,,2.17,1.94,0.97*0B
$GPGSV,2,1,08,03,67,117,20,28,61,282,42,01,48,040,29,17,35,312,38*7F
$GPGSV,2,2,08,11,30,074,25,06,09,254,,04,04,145,,44,04,260,*7A
$GPRMC,024023.100,A,3524.0647,N,13852.2986,E,0.67,4.47,210720,,,A*65
$GPGGA,024023.200,3524.0648,N,13852.2986,E,1,5,1.94,92.7,M,39.1,M,,*65
$GPGSA,A,2,11,03,28,01,17,,,,,,,,2.17,1.94,0.97*0B
$GPGSV,2,1,08,03,67,117,21,28,61,282,42,01,48,040,29,17,35,312,37*71
$GPGSV,2,2,08,11,30,074,26,06,09,254,,04,04,145,,44,04,260,*79
$GPRMC,024023.200,A,3524.0648,N,13852.2986,E,0.66,6.20,210720,,,A*6B
$GPGGA,024023.300,3524.0648,N,13852.2987,E,1,4,2.43,92.7,M,39.1,M,,*6D
$GPGSA,A,2,11,03,28,17,,,,,,,,,2.63,2.43,1.00*0F
$GPGSV,2,1,08,03,67,117,21,28,61,282,41,01,48,040,,17,35,312,37*79
$GPGSV,2,2,08,11,30,074,26,06,09,254,,04,04,145,,44,04,260,*79
$GPRMC,024023.300,A,3524.0648,N,13852.2987,E,0.66,7.43,210720,,,A*6F
$GPGGA,024023.400,3524.0648,N,13852.2987,E,1,4,2.43,92.7,M,39.1,M,,*6A
$GPGSA,A,2,11,03,28,17,,,,,,,,,2.63,2.43,1.00*0F
$GPGSV,2,1,08,03,67,117,21,28,61,282,40,01,48,040,,17,35,312,37*78
$GPGSV,2,2,08,11,30,074,26,06,09,254,,04,04,145,,44,04,260,*79
$GPRMC,024023.400,A,3524.0648,N,13852.2987,E,0.67,7.91,210720,,,A*66
$GPGGA,024023.500,3524.0649,N,13852.2988,E,1,4,2.43,92.6,M,39.1,M,,*64
$GPGSA,A,2,11,03,28,17,,,,,,,,,2.63,2.43,1.00*0F
$GPGSV,2,1,08,03,67,117,21,28,61,282,40,01,48,040,,17,35,312,37*78
$GPGSV,2,2,08,11,30,074,27,06,09,254,,04,04,145,,44,04,260,*78
$GPRMC,024023.500,A,3524.0649,N,13852.2988,E,0.66,8.48,210720,,,A*63
$GPGGA,024023.600,3524.0649,N,13852.2988,E,1,4,2.43,92.6,M,39.1,M,,*67
$GPGSA,A,2,11,03,28,17,,,,,,,,,2.63,2.43,1.00*0F
$GPGSV,2,1,08,03,67,117,21,28,61,282,40,01,48,040,,17,35,312,36*79
$GPGSV,2,2,08,11,30,074,28,06,09,254,,04,04,145,,44,04,260,*77
$GPRMC,024023.600,A,3524.0649,N,13852.2988,E,0.65,9.76,210720,,,A*6F
$GPGGA,024023.700,3524.0649,N,13852.2989,E,1,4,55.54,92.6,M,39.1,M,,*53
$GPGSA,A,3,11,03,28,17,,,,,,,,,90.76,55.54,71.78*3D
$GPGSV,2,1,08,03,67,117,23,28,61,282,41,01,48,040,,17,35,312,35*79
$GPGSV,2,2,08,11,30,074,28,06,09,254,,04,04,145,,44,04,260,*77
$GPRMC,024023.700,A,3524.0649,N,13852.2989,E,0.62,11.38,210720,,,A*5B
$GPGGA,024023.800,3524.0649,N,13852.2989,E,1,4,55.49,92.6,M,39.1,M,,*50
$GPGSA,A,3,11,03,28,17,,,,,,,,,90.68,55.49,71.72*34
$GPGSV,2,1,08,03,67,117,24,28,61,282,41,01,48,040,,17,35,312,35*7E
$GPGSV,2,2,08,11,30,074,28,06,09,254,,04,04,145,,44,04,260,*77
$GPRMC,024023.800,A,3524.0649,N,13852.2989,E,0.60,13.14,210720,,,A*5A
$GPGGA,024023.900,3524.0650,N,13852.2989,E,1,4,55.44,92.6,M,39.1,M,,*54
$GPGSA,A,3,11,03,28,17,,,,,,,,,90.59,55.44,71.65*3D
$GPGSV,2,1,08,03,67,117,25,28,61,282,41,01,48,040,,17,35,312,35*7F
$GPGSV,2,2,08,11,30,074,28,06,09,254,,04,04,145,,44,04,260,*77
$GPRMC,024023.900,A,3524.0650,N,13852.2989,E,0.58,13.14,210720,,,A*58
$GPGGA,024024.000,3524.0650,N,13852.2989,E,1,4,2.43,92.6,M,39.1,M,,*6F
$GPGSA,A,2,11,03,28,17,,,,,,,,,2.63,2.43,1.00*0F
$GPGSV,2,1,08,03,67,117,26,28,61,282,41,01,48,040,,17,35,312,35*7C
$GPGSV,2,2,08,11,30,074,29,06,09,254,,04,04,145,,44,04,260,*76
$GPRMC,024024.000,A,3524.0650,N,13852.2989,E,0.57,13.14,210720,,,A*59
$GPGGA,024024.100,3524.0650,N,13852.2990,E,1,4,2.43,92.5,M,39.1,M,,*65
$GPGSA,A,2,11,03,28,17,,,,,,,,,2.63,2.43,1.00*0F
$GPGSV,2,1,08,03,67,117,26,28,61,282,41,01,48,040,,17,35,312,35*7C
$GPGSV,2,2,08,11,30,074,30,06,09,254,,04,04,145,,44,04,260,*7E
$GPRMC,024024.100,A,3524.0650,N,13852.2990,E,0.56,13.14,210720,,,A*51
$GPGGA,024024.200,3524.0650,N,13852.2990,E,1,4,2.43,92.5,M,39.1,M,,*66
$GPGSA,A,2,11,03,28,17,,,,,,,,,2.63,2.43,1.00*0F
$GPGSV,2,1,08,03,67,117,25,28,61,282,41,01,48,040,,17,35,312,35*7F
$GPGSV,2,2,08,11,30,074,30,06,09,254,,04,04,145,,44,04,260,*7E
$GPRMC,024024.200,A,3524.0650,N,13852.2990,E,0.55,13.14,210720,,,A*51
$GPGGA,024024.300,3524.0650,N,13852.2990,E,1,4,2.43,92.5,M,39.1,M,,*67
$GPGSA,A,3,11,03,28,17,,,,,,,,,2.63,2.43,1.00*0E
$GPGSV,2,1,08,03,67,117,25,28,61,282,41,01,48,040,,17,35,312,36*7C
$GPGSV,2,2,08,11,30,074,30,06,09,254,,04,04,145,,44,04,260,*7E
$GPRMC,024024.300,A,3524.0650,N,13852.2990,E,0.49,13.14,210720,,,A*5D
$GPGGA,024024.400,3524.0650,N,13852.2990,E,1,4,2.43,92.6,M,39.1,M,,*63
$GPGSA,A,3,11,03,28,17,,,,,,,,,2.63,2.43,1.00*0E
$GPGSV,2,1,08,03,67,117,25,28,61,282,41,01,48,040,,17,35,312,37*7D
$GPGSV,2,2,08,11,30,074,30,06,09,254,,04,04,145,,44,04,260,*7E
$GPRMC,024024.400,A,3524.0650,N,13852.2990,E,0.43,13.14,210720,,,A*50
$GPGGA,024024.500,3524.0650,N,13852.2991,E,1,4,2.43,92.6,M,39.1,M,,*63
$GPGSA,A,3,11,03,28,17,,,,,,,,,2.63,2.43,1.00*0E
$GPGSV,2,1,08,03,67,117,25,28,61,282,41,01,48,040,,17,35,312,38*72
$GPGSV,2,2,08,11,30,074,30,06,09,254,,04,04,145,,44,04,260,*7E
$GPRMC,024024.500,A,3524.0650,N,13852.2991,E,0.39,13.14,210720,,,A*5D
$GPGGA,024024.600,3524.0650,N,13852.2991,E,1,5,1.94,92.6,M,39.1,M,,*68
$GPGSA,A,3,11,03,28,01,17,,,,,,,,2.17,1.94,0.97*0A
$GPGSV,2,1,08,03,67,117,25,28,61,282,41,01,48,040,27,17,35,312,38*77
$GPGSV,2,2,08,11,30,074,30,06,09,254,,04,04,145,,44,04,260,*7E
$GPRMC,024024.600,A,3524.0650,N,13852.2991,E,0.32,13.14,210720,,,A*55
$GPGGA,024024.700,3524.0650,N,13852.2991,E,1,5,1.94,92.6,M,39.1,M,,*69
$GPGSA,A,3,11,03,28,01,17,,,,,,,,2.17,1.94,0.97*0A
$GPGSV,2,1,08,03,67,117,25,28,61,282,41,01,48,040,27,17,35,312,38*77
$GPGSV,2,2,08,11,30,074,30,06,09,254,,04,04,145,,44,04,260,*7E
$GPRMC,024024.700,A,3524.0650,N,13852.2991,E,0.26,13.14,210720,,,A*51
$GPGGA,024024.800,3524.0650,N,13852.2991,E,1,5,2.43,92.6,M,39.1,M,,*6F
$GPGSA,A,3,11,03,28,01,17,,,,,,,,2.63,2.43,1.00*0F
$GPGSV,2,1,08,03,67,117,26,28,61,282,41,01,48,040,27,17,35,312,39*75
$GPGSV,2,2,08,11,30,074,30,06,09,254,,04,04,145,,44,04,260,*7E
$GPRMC,024024.800,A,3524.0650,N,13852.2991,E,0.22,13.14,210720,,,A*5A
$GPGGA,024024.900,3524.0650,N,13852.2991,E,1,5,2.43,92.6,M,39.1,M,,*6E
$GPGSA,A,3,11,03,28,01,17,,,,,,,,2.63,2.43,1.00*0F
$GPGSV,2,1,08,03,67,117,27,28,61,282,41,01,48,040,27,17,35,312,39*74
$GPGSV,2,2,08,11,30,074,30,06,09,254,,04,04,145,,44,04,260,*7E
$GPRMC,024024.900,A,3524.0650,N,13852.2991,E,0.19,13.14,210720,,,A*53
$GPGGA,024025.000,3524.0651,N,13852.2991,E,1,5,2.43,92.7,M,39.1,M,,*66
$GPGSA,A,3,11,03,28,01,17,,,,,,,,2.63,2.43,1.00*0F
$GPGSV,2,1,08,03,67,117,28,28,61,282,41,01,48,040,27,17,35,312,39*7B
$GPGSV,2,2,08,11,30,074,30,06,09,254,,04,04,145,,44,04,260,*7E
$GPRMC,024025.000,A,3524.0651,N,13852.2991,E,0.17,13.14,210720,,,A*54
$GPGGA,024025.100,3524.0650,N,13852.2991,E,1,5,2.43,92.6,M,39.1,M,,*67
$GPGSA,A,2,11,03,28,01,17,,,,,,,,2.63,2.43,1.00*0E
$GPGSV,2,1,08,03,67,117,28,28,61,282,39,01,48,040,27,17,35,312,38*75
$GPGSV,2,2,08,11,30,074,30,06,09,254,,04,04,145,,44,04,260,*7E
$GPRMC,024025.100,A,3524.0650,N,13852.2991,E,0.17,13.14,210720,,,A*54
$GPGGA,024025.200,3524.0650,N,13852.2992,E,1,5,2.44,92.6,M,39.1,M,,*60
$GPGSA,A,2,11,03,28,01,17,,,,,,,,2.63,2.44,1.00*09
$GPGSV,2,1,08,03,67,117,28,28,61,282,38,01,48,040,27,17,35,312,38*74
$GPGSV,2,2,08,11,30,074,30,06,09,254,,04,04,145,,44,04,260,*7E
$GPRMC,024025.200,A,3524.0650,N,13852.2992,E,0.17,13.14,210720,,,A*54
$GPGGA,024025.300,3524.0650,N,13852.2992,E,1,5,2.43,92.6,M,39.1,M,,*66
$GPGSA,A,2,11,03,28,01,17,,,,,,,,2.63,2.43,1.00*0E
$GPGSV,2,1,08,03,67,117,28,28,61,282,37,01,48,040,25,17,35,312,38*79
$GPGSV,2,2,08,11,30,074,30,06,09,254,,04,04,145,,44,04,260,*7E
$GPRMC,024025.300,A,3524.0650,N,13852.2992,E,0.17,13.14,210720,,,A*55
$GPGGA,024025.400,3524.0650,N,13852.2992,E,1,5,2.43,92.5,M,39.1,M,,*62
$GPGSA,A,2,11,03,28,01,17,,,,,,,,2.63,2.43,1.00*0E
$GPGSV,2,1,08,03,67,117,28,28,61,282,37,01,48,040,25,17,35,312,38*79
$GPGSV,2,2,08,11,30,074,30,06,09,254,,04,04,145,,44,04,260,*7E
$GPRMC,024025.400,A,3524.0650,N,13852.2992,E,0.18,13.14,210720,,,A*5D
$GPGGA,024025.500,3524.0650,N,13852.2992,E,1,5,2.43,92.5,M,39.1,M,,*63
$GPGSA,A,2,11,03,28,01,17,,,,,,,,2.63,2.43,1.00*0E
$GPGSV,2,1,08,03,67,117,28,28,61,282,36,01,48,040,25,17,35,312,38*78
$GPGSV,2,2,08,11,30,074,30,06,09,254,,04,04,145,,44,04,260,*7E
$GPRMC,024025.500,A,3524.0650,N,13852.2992,E,0.19,13.14,210720,,,A*5D
$GPGGA,024025.600,3524.0650,N,13852.2992,E,1,5,1.94,92.5,M,39.1,M,,*69
$GPGSA,A,2,11,03,28,01,17,,,,,,,,2.17,1.94,0.97*0B
$GPGSV,2,1,08,03,67,117,28,28,61,282,36,01,48,040,25,17,35,312,38*78
$GPGSV,2,2,08,11,30,074,28,06,09,254,,04,04,145,,44,04,260,*77
$GPRMC,024025.600,A,3524.0650,N,13852.2992,E,0.21,13.14,210720,,,A*55
$GPGGA,024025.700,3524.0650,N,13852.2992,E,1,5,1.94,92.4,M,39.1,M,,*69
$GPGSA,A,2,11,03,28,01,17,,,,,,,,2.17,1.94,0.97*0B
$GPGSV,2,1,08,03,67,117,28,28,61,282,36,01,48,040,25,17,35,312,38*78
$GPGSV,2,2,08,11,30,074,27,06,09,254,,04,04,145,,44,04,260,*78
$GPRMC,024025.700,A,3524.0650,N,13852.2992,E,0.21,13.14,210720,,,A*54
$GPGGA,024025.800,3524.0649,N,13852.2992,E,1,5,1.94,92.4,M,39.1,M,,*6E
$GPGSA,A,2,11,03,28,01,17,,,,,,,,2.17,1.94,0.97*0B
$GPGSV,2,1,08,03,67,117,28,28,61,282,36,01,48,040,29,17,35,312,38*74
$GPGSV,2,2,08,11,30,074,26,06,09,254,,04,04,145,,44,04,260,*79
$GPRMC,024025.800,A,3524.0649,N,13852.2992,E,0.38,13.14,210720,,,A*5B
$GPGGA,024025.900,3524.0649,N,13852.2992,E,1,5,1.94,92.3,M,39.1,M,,*68
$GPGSA,A,2,11,03,28,01,17,,,,,,,,2.17,1.94,0.97*0B
$GPGSV,2,1,08,03,67,117,28,28,61,282,36,01,48,040,29,17,35,312,38*74
$GPGSV,2,2,08,11,30,074,25,06,09,254,,04,04,145,,44,04,260,*7A
$GPRMC,024025.900,A,3524.0649,N,13852.2992,E,0.39,13.14,210720,,,A*5B
$GPGGA,024026.000,3524.0649,N,13852.2992,E,1,5,1.94,92.3,M,39.1,M,,*62
$GPGSA,A,2,11,03,28,01,17,,,,,,,,2.17,1.94,0.97*0B
$GPGSV,2,1,08,03,67,117,28,28,61,282,36,01,48,040,29,17,35,312,39*75
$GPGSV,2,2,08,11,30,074,25,06,09,254,,04,04,145,,44,04,260,*7A
$GPRMC,024026.000,A,3524.0649,N,13852.2992,E,0.38,13.14,210720,,,A*50
$GPGGA,024026.100,3524.0649,N,13852.2992,E,1,5,1.94,92.3,M,39.1,M,,*63
$GPGSA,A,2,11,03,28,01,17,,,,,,,,2.17,1.94,0.97*0B
$GPGSV,2,1,08,03,67,117,28,28,61,282,29,01,48,040,29,17,35,312,39*7B
$GPGSV,2,2,08,11,30,074,25,06,09,254,,04,04,145,,44,04,260,*7A
$GPRMC,024026.100,A,3524.0649,N,13852.2992,E,0.39,13.14,210720,,,A*50
$GPGGA,024026.200,3524.0649,N,13852.2992,E,1,5,1.94,92.2,M,39.1,M,,*61
$GPGSA,A,2,11,03,28,01,17,,,,,,,,2.17,1.94,0.97*0B
$GPGSV,2,1,08,03,67,117,28,28,61,282,29,01,48,040,29,17,35,312,40*75
$GPGSV,2,2,08,11,30,074,25,06,09,254,,04,04,145,,44,04,260,*7A
$GPRMC,024026.200,A,3524.0649,N,13852.2992,E,0.39,13.14,210720,,,A*53
$GPGGA,024026.300,3524.0649,N,13852.2992,E,1,5,1.94,92.2,M,39.1,M,,*60
$GPGSA,A,2,11,03,28,01,17,,,,,,,,2.17,1.94,0.97*0B
$GPGSV,2,1,08,03,67,117,28,28,61,282,29,01,48,040,29,17,35,312,40*75
$GPGSV,2,2,08,11,30,074,24,06,09,254,,04,04,145,,44,04,260,*7B
$GPRMC,024026.300,A,3524.0649,N,13852.2992,E,0.38,13.14,210720,,,A*53
$GPGGA,024026.400,3524.0649,N,13852.2992,E,1,5,1.94,92.2,M,39.1,M,,*67
$GPGSA,A,2,11,03,28,01,17,,,,,,,,2.17,1.94,0.97*0B
$GPGSV,2,1,08,03,67,117,28,28,61,282,29,01,48,040,29,17,35,312,40*75
$GPGSV,2,2,08,11,30,074,23,06,09,254,,04,04,145,,44,04,260,*7C
$GPRMC,024026.400,A,3524.0649,N,13852.2992,E,0.38,13.14,210720,,,A*54
$GPGGA,024026.500,3524.0649,N,13852.2992,E,1,5,1.94,92.1,M,39.1,M,,*65
$GPGSA,A,2,11,03,28,01,17,,,,,,,,2.17,1.94,0.97*0B
$GPGSV,2,1,08,03,67,117,28,28,61,282,29,01,48,040,29,17,35,312,40*75
$GPGSV,2,2,08,11,30,074,22,06,09,254,,04,04,145,,44,04,260,*7D
$GPRMC,024026.500,A,3524.0649,N,13852.2992,E,0.38,13.14,210720,,,A*55
$GPGGA,024026.600,3524.0649,N,13852.2992,E,1,5,1.94,92.1,M,39.1,M,,*66
$GPGSA,A,2,11,03,28,01,17,,,,,,,,2.17,1.94,0.97*0B
$GPGSV,2,1,08,03,67,117,28,28,61,282,29,01,48,040,29,17,35,312,40*75
$GPGSV,2,2,08,11,30,074,22,06,09,254,,04,04,145,,44,04,260,*7D
$GPRMC,024026.600,A,3524.0649,N,13852.2992,E,0.37,13.14,210720,,,A*59
$GPGGA,024026.700,3524.0649,N,13852.2992,E,1,5,1.94,92.1,M,39.1,M,,*67
$GPGSA,A,2,11,03,28,01,17,,,,,,,,2.17,1.94,0.97*0B
$GPGSV,2,1,08,03,67,117,28,28,61,282,29,01,48,040,29,17,35,312,40*75
$GPGSV,2,2,08,11,30,074,22,06,09,254,,04,04,145,,44,04,260,*7D
$GPRMC,024026.700,A,3524.0649,N,13852.2992,E,0.36,13.14,210720,,,A*59
$GPGGA,024026.800,3524.0648,N,13852.2993,E,1,5,1.94,92.0,M,39.1,M,,*69
$GPGSA,A,2,11,03,28,01,17,,,,,,,,2.17,1.94,0.97*0B
$GPGSV,2,1,08,03,67,117,28,28,61,282,29,01,48,040,26,17,35,312,40*7A
$GPGSV,2,2,08,11,30,074,23,06,09,254,,04,04,145,,44,04,260,*7C
$GPRMC,024026.800,A,3524.0648,N,13852.2993,E,0.36,13.14,210720,,,A*56
$GPGGA,024026.900,3524.0648,N,13852.2993,E,1,5,1.94,92.0,M,39.1,M,,*68
$GPGSA,A,2,11,03,28,01,17,,,,,,,,2.17,1.94,0.97*0B
$GPGSV,2,1,08,03,67,117,28,28,61,282,29,01,48,040,26,17,35,312,41*7B
$GPGSV,2,2,08,11,30,074,23,06,09,254,,04,04,145,,44,04,260,*7C
$GPRMC,024026.900,A,3524.0648,N,13852.2993,E,0.36,13.14,210720,,,A*57
$GPGGA,024027.000,3524.0648,N,13852.2993,E,1,5,1.94,92.0,M,39.1,M,,*60
$GPGSA,A,2,11,03,28,01,17,,,,,,,,2.17,1.94,0.97*0B
$GPGSV,2,1,08,03,67,117,28,28,61,282,37,01,48,040,26,17,35,312,42*77
$GPGSV,2,2,08,11,30,074,23,06,09,254,,04,04,145,,44,04,260,*7C
$GPRMC,024027.000,A,3524.0648,N,13852.2993,E,0.36,13.14,210720,,,A*5F
$GPGGA,024027.100,3524.0648,N,13852.2993,E,1,5,1.94,91.9,M,39.1,M,,*6B
$GPGSA,A,2,11,03,28,01,17,,,,,,,,2.17,1.94,0.97*0B
$GPGSV,2,1,08,03,67,117,35,28,61,282,37,01,48,040,26,17,35,312,42*7B
$GPGSV,2,2,08,11,30,074,23,06,09,254,,04,04,145,,44,04,260,*7C
$GPRMC,024027.100,A,3524.0648,N,13852.2993,E,0.36,13.14,210720,,,A*5E
$GPGGA,024027.200,3524.0648,N,13852.2993,E,1,5,1.94,91.9,M,39.1,M,,*68
$GPGSA,A,2,11,03,28,01,17,,,,,,,,2.17,1.94,0.97*0B
$GPGSV,2,1,08,03,67,117,35,28,61,282,37,01,48,040,26,17,35,312,42*7B
$GPGSV,2,2,08,11,30,074,23,06,09,254,,04,04,145,,44,04,260,*7C
$GPRMC,024027.200,A,3524.0648,N,13852.2993,E,0.35,13.14,210720,,,A*5E
$GPGGA,024027.300,3524.0648,N,13852.2994,E,1,5,1.94,91.9,M,39.1,M,,*6E
$GPGSA,A,2,11,03,28,01,17,,,,,,,,2.17,1.94,0.97*0B
$GPGSV,2,1,08,03,67,117,35,28,61,282,37,01,48,040,26,17,35,312,42*7B
$GPGSV,2,2,08,11,30,074,23,06,09,254,,04,04,145,,44,04,260,*7C
$GPRMC,024027.300,A,3524.0648,N,13852.2994,E,0.35,13.14,210720,,,A*58
$GPGGA,024027.400,3524.0648,N,13852.2994,E,1,5,1.94,91.9,M,39.1,M,,*69
$GPGSA,A,2,11,03,28,01,17,,,,,,,,2.17,1.94,0.97*0B
$GPGSV,2,1,08,03,67,117,35,28,61,282,36,01,48,040,30,17,35,312,42*7D
$GPGSV,2,2,08,11,30,074,23,06,09,254,,04,04,145,,44,04,260,*7C
$GPRMC,024027.400,A,3524.0648,N,13852.2994,E,0.34,13.14,210720,,,A*5E
$GPGGA,024027.500,3524.0648,N,13852.2994,E,1,5,1.94,91.9,M,39.1,M,,*68
$GPGSA,A,2,11,03,28,01,17,,,,,,,,2.17,1.94,0.97*0B
$GPGSV,2,1,08,03,67,117,35,28,61,282,35,01,48,040,30,17,35,312,42*7E
$GPGSV,2,2,08,11,30,074,23,06,09,254,,04,04,145,,44,04,260,*7C
$GPRMC,024027.500,A,3524.0648,N,13852.2994,E,0.34,13.14,210720,,,A*5F
$GPGGA,024027.600,3524.0647,N,13852.2995,E,1,5,1.94,91.8,M,39.1,M,,*64
$GPGSA,A,2,11,03,28,01,17,,,,,,,,2.17,1.94,0.97*0B
$GPGSV,2,1,08,03,67,117,35,28,61,282,35,01,48,040,30,17,35,312,42*7E
$GPGSV,2,2,08,11,30,074,23,06,09,254,,04,04,145,,44,04,260,*7C
$GPRMC,024027.600,A,3524.0647,N,13852.2995,E,0.33,13.14,210720,,,A*55
$GPGGA,024027.700,3524.0647,N,13852.2995,E,1,5,1.94,91.8,M,39.1,M,,*65
$GPGSA,A,2,11,03,28,01,17,,,,,,,,2.17,1.94,0.97*0B
$GPGSV,2,1,08,03,67,117,35,28,61,282,35,01,48,040,30,17,35,312,42*7E
$GPGSV,2,2,08,11,30,074,23,06,09,254,,04,04,145,,44,04,260,*7C
$GPRMC,024027.700,A,3524.0647,N,13852.2995,E,0.32,13.14,210720,,,A*55
$GPGGA,024027.800,3524.0647,N,13852.2995,E,1,5,1.94,91.8,M,39.1,M,,*6A
$GPGSA,A,2,11,03,28,01,17,,,,,,,,2.17,1.94,0.97*0B
$GPGSV,2,1,08,03,67,117,35,28,61,282,35,01,48,040,30,17,35,312,43*7F
$GPGSV,2,2,08,11,30,074,23,06,09,254,,04,04,145,,44,04,260,*7C
$GPRMC,024027.800,A,3524.0647,N,13852.2995,E,0.31,13.14,210720,,,A*59
$GPGGA,024027.900,3524.0647,N,13852.2995,E,1,5,1.94,91.8,M,39.1,M,,*6B
$GPGSA,A,2,11,03,28,01,17,,,,,,,,2.17,1.94,0.97*0B
$GPGSV,2,1,08,03,67,117,35,28,61,282,35,01,48,040,28,17,35,312,43*76
$GPGSV,2,2,08,11,30,074,23,06,09,254,,04,04,145,,44,04,260,*7C
$GPRMC,024027.900,A,3524.0647,N,13852.2995,E,0.29,13.14,210720,,,A*51
$GPGGA,024028.000,3524.0647,N,13852.2995,E,1,5,1.94,91.7,M,39.1,M,,*62
$GPGSA,A,2,11,03,28,01,17,,,,,,,,2.17,1.94,0.97*0B
$GPGSV,2,1,08,03,67,117,34,28,61,282,28,01,48,040,28,17,35,312,43*7B
$GPGSV,2,2,08,11,30,074,23,06,09,254,,04,04,145,,44,04,260,*7C
$GPRMC,024028.000,A,3524.0647,N,13852.2995,E,0.28,13.14,210720,,,A*56
$GPGGA,024028.100,3524.0647,N,13852.2995,E,1,5,1.94,91.7,M,39.1,M,,*63
$GPGSA,A,2,11,03,28,01,17,,,,,,,,2.17,1.94,0.97*0B
$GPGSV,2,1,08,03,67,117,34,28,61,282,28,01,48,040,28,17,35,312,43*7B
$GPGSV,2,2,08,11,30,074,23,06,09,254,,04,04,145,,44,04,260,*7C
$GPRMC,024028.100,A,3524.0647,N,13852.2995,E,0.27,13.14,210720,,,A*58
$GPGGA,024028.200,3524.0647,N,13852.2995,E,1,5,1.94,91.7,M,39.1,M,,*60
$GPGSA,A,2,11,03,28,01,17,,,,,,,,2.17,1.94,0.97*0B
$GPGSV,2,1,08,03,67,117,34,28,61,282,28,01,48,040,28,17,35,312,43*7B
$GPGSV,2,2,08,11,30,074,23,06,09,254,,04,04,145,,44,04,260,*7C
$GPRMC,024028.200,A,3524.0647,N,13852.2995,E,0.27,13.14,210720,,,A*5B
$GPGGA,024028.300,3524.0647,N,13852.2995,E,1,5,1.94,91.7,M,39.1,M,,*61
$GPGSA,A,2,11,03,28,01,17,,,,,,,,2.17,1.94,0.97*0B
$GPGSV,2,1,08,03,67,117,34,28,61,282,28,01,48,040,28,17,35,312,43*7B
$GPGSV,2,2,08,11,30,074,23,06,09,254,,04,04,145,,44,04,260,*7C
$GPRMC,024028.300,A,3524.0647,N,13852.2995,E,0.27,13.14,210720,,,A*5A
$GPGGA,024028.400,3524.0647,N,13852.2996,E,1,5,1.94,91.6,M,39.1,M,,*64
$GPGSA,A,2,11,03,28,01,17,,,,,,,,2.17,1.94,0.97*0B
$GPGSV,2,1,08,03,67,117,34,28,61,282,28,01,48,040,27,17,35,312,43*74
$GPGSV,2,2,08,11,30,074,21,06,09,254,,04,04,145,,44,04,260,*7E
$GPRMC,024028.400,A,3524.0647,N,13852.2996,E,0.28,13.14,210720,,,A*51
$GPGGA,024028.500,3524.0647,N,13852.2996,E,1,5,1.94,91.6,M,39.1,M,,*65
$GPGSA,A,2,11,03,28,01,17,,,,,,,,2.17,1.94,0.97*0B
$GPGSV,2,1,08,03,67,117,34,28,61,282,28,01,48,040,27,17,35,312,43*74
$GPGSV,2,2,08,11,30,074,20,06,09,254,,04,04,145,,44,04,260,*7F
$GPRMC,024028.500,A,3524.0647,N,13852.2996,E,0.29,13.14,210720,,,A*51
$GPGGA,024028.600,3524.0647,N,13852.2996,E,1,5,1.94,91.6,M,39.1,M,,*66
$GPGSA,A,2,11,03,28,01,17,,,,,,,,2.17,1.94,0.97*0B
$GPGSV,2,1,08,03,67,117,34,28,61,282,29,01,48,040,27,17,35,312,43*75
$GPGSV,2,2,08,11,30,074,19,06,09,254,,04,04,145,,44,04,260,*75
$GPRMC,024028.600,A,3524.0647,N,13852.2996,E,0.29,13.14,210720,,,A*52
$GPGGA,024028.700,3524.0647,N,13852.2996,E,1,5,1.94,91.5,M,39.1,M,,*64
$GPGSA,A,2,11,03,28,01,17,,,,,,,,2.17,1.94,0.97*0B
$GPGSV,2,1,08,03,67,117,34,28,61,282,29,01,48,040,27,17,35,312,43*75
$GPGSV,2,2,08,11,30,074,19,06,09,254,,04,04,145,,44,04,260,*75
$GPRMC,024028.700,A,3524.0647,N,13852.2996,E,0.29,13.14,210720,,,A*53
$GPGGA,024028.800,3524.0647,N,13852.2996,E,1,5,1.94,91.5,M,39.1,M,,*6B
$GPGSA,A,2,11,03,28,01,17,,,,,,,,2.17,1.94,0.97*0B
$GPGSV,2,1,08,03,67,117,34,28,61,282,29,01,48,040,27,17,35,312,43*75
$GPGSV,2,2,08,11,30,074,19,06,09,254,,04,04,145,,44,04,260,*75
$GPRMC,024028.800,A,3524.0647,N,13852.2996,E,0.28,13.14,210720,,,A*5D
$GPGGA,024028.900,3524.0647,N,13852.2996,E,1,5,1.94,91.5,M,39.1,M,,*6A
$GPGSA,A,2,11,03,28,01,17,,,,,,,,2.17,1.94,0.97*0B
$GPGSV,2,1,08,03,67,117,34,28,61,282,29,01,48,040,27,17,35,312,42*74
$GPGSV,2,2,08,11,30,074,19,06,09,254,,04,04,145,,44,04,260,*75
$GPRMC,024028.900,A,3524.0647,N,13852.2996,E,0.27,13.14,210720,,,A*53
$GPGGA,024029.000,3524.0647,N,13852.2996,E,1,5,1.94,91.5,M,39.1,M,,*62
$GPGSA,A,2,11,03,28,01,17,,,,,,,,2.17,1.94,0.97*0B
$GPGSV,2,1,08,03,67,117,34,28,61,282,29,01,48,040,27,17,35,312,42*74
$GPGSV,2,2,08,11,30,074,18,06,09,254,,04,04,145,,44,04,260,*74
$GPRMC,024029.000,A,3524.0647,N,13852.2996,E,0.26,13.14,210720,,,A*5A
$GPGGA,024029.100,3524.0647,N,13852.2996,E,1,5,1.94,91.5,M,39.1,M,,*63
$GPGSA,A,2,11,03,28,01,17,,,,,,,,2.17,1.94,0.97*0B
$GPGSV,2,1,08,03,67,117,34,28,61,282,29,01,48,040,27,17,35,312,42*74
$GPGSV,2,2,08,11,30,074,17,06,09,254,,04,04,145,,44,04,260,*7B
$GPRMC,024029.100,A,3524.0647,N,13852.2996,E,0.26,13.14,210720,,,A*5B
$GPGGA,024029.200,3524.0647,N,13852.2996,E,1,5,1.94,91.4,M,39.1,M,,*61
$GPGSA,A,2,11,03,28,01,17,,,,,,,,2.17,1.94,0.97*0B
$GPGSV,2,1,08,03,67,117,34,28,61,282,27,01,48,040,25,17,35,312,42*78
$GPGSV,2,2,08,11,30,074,17,06,09,254,,04,04,145,,44,04,260,*7B
$GPRMC,024029.200,A,3524.0647,N,13852.2996,E,0.26,13.14,210720,,,A*58
$GPGGA,024029.300,3524.0647,N,13852.2996,E,1,5,1.94,91.4,M,39.1,M,,*60
$GPGSA,A,2,11,03,28,01,17,,,,,,,,2.17,1.94,0.97*0B
$GPGSV,2,1,08,03,67,117,34,28,61,282,26,01,48,040,25,17,35,312,42*79
$GPGSV,2,2,08,11,30,074,17,06,09,254,,04,04,145,,44,04,260,*7B
$GPRMC,024029.300,A,3524.0647,N,13852.2996,E,0.26,13.14,210720,,,A*59
$GPGGA,024029.400,3524.0647,N,13852.2996,E,1,5,1.94,91.4,M,39.1,M,,*67
$GPGSA,A,2,11,03,28,01,17,,,,,,,,2.17,1.94,0.97*0B
$GPGSV,2,1,08,03,67,117,34,28,61,282,25,01,48,040,25,17,35,312,42*7A
$GPGSV,2,2,08,11,30,074,17,06,09,254,,04,04,145,,44,04,260,*7B
$GPRMC,024029.400,A,3524.0647,N,13852.2996,E,0.26,13.14,210720,,,A*5E
$GPGGA,024029.500,3524.0647,N,13852.2996,E,1,5,1.94,91.4,M,39.1,M,,*66
$GPGSA,A,2,11,03,28,01,17,,,,,,,,2.17,1.94,0.97*0B
$GPGSV,2,1,08,03,67,117,27,28,61,282,25,01,48,040,25,17,35,312,42*78
$GPGSV,2,2,08,11,30,074,17,06,09,254,,04,04,145,,44,04,260,*7B
$GPRMC,024029.500,A,3524.0647,N,13852.2996,E,0.26,13.14,210720,,,A*5F
$GPGGA,024029.600,3524.0647,N,13852.2996,E,1,5,1.94,91.3,M,39.1,M,,*62
$GPGSA,A,2,11,03,28,01,17,,,,,,,,2.17,1.94,0.97*0B
$GPGSV,2,1,08,03,67,117,27,28,61,282,25,01,48,040,25,17,35,312,35*78
$GPGSV,2,2,08,11,30,074,17,06,09,254,,04,04,145,,44,04,260,*7B
$GPRMC,024029.600,A,3524.0647,N,13852.2996,E,0.27,13.14,210720,,,A*5D
$GPGGA,024029.700,3524.0647,N,13852.2996,E,1,5,1.94,91.3,M,39.1,M,,*63
$GPGSA,A,2,11,03,28,01,17,,,,,,,,2.17,1.94,0.97*0B
$GPGSV,2,1,08,03,67,117,27,28,61,282,27,01,48,040,28,17,35,312,35*77
$GPGSV,2,2,08,11,30,074,17,06,09,254,,04,04,145,,44,04,260,*7B
$GPRMC,024029.700,A,3524.0647,N,13852.2996,E,0.28,13.14,210720,,,A*53
$GPGGA,024029.800,3524.0647,N,13852.2996,E,1,5,1.94,91.3,M,39.1,M,,*6C
$GPGSA,A,2,11,03,28,01,17,,,,,,,,2.17,1.94,0.97*0B
$GPGSV,2,1,08,03,67,117,27,28,61,282,28,01,48,040,28,17,35,312,43*79
$GPGSV,2,2,08,11,30,074,17,06,09,254,,04,04,145,,44,04,260,*7B
$GPRMC,024029.800,A,3524.0647,N,13852.2996,E,0.28,13.14,210720,,,A*5C
$GPGGA,024029.900,3524.0647,N,13852.2996,E,1,5,1.94,91.3,M,39.1,M,,*6D
$GPGSA,A,2,11,03,28,01,17,,,,,,,,2.17,1.94,0.97*0B
$GPGSV,2,1,08,03,67,117,27,28,61,282,29,01,48,040,28,17,35,312,43*78
$GPGSV,2,2,08,11,30,074,17,06,09,254,,04,04,145,,44,04,260,*7B
$GPRMC,024029.900,A,3524.0647,N,13852.2996,E,0.28,13.14,210720,,,A*5D
$GPGGA,024030.000,3524.0647,N,13852.2996,E,1,5,1.94,91.2,M,39.1,M,,*6D
$GPGSA,A,2,11,03,28,01,17,,,,,,,,2.17,1.94,0.97*0B
$GPGSV,2,1,08,03,67,117,27,28,61,282,30,01,48,040,28,17,35,312,43*70
$GPGSV,2,2,08,11,30,074,17,06,09,254,,04,04,145,,44,04,260,*7B
$GPRMC,024030.000,A,3524.0647,N,13852.2996,E,0.28,13.14,210720,,,A*5C
$GPGGA,024030.100,3524.0647,N,13852.2996,E,1,5,1.94,91.2,M,39.1,M,,*6C
$GPGSA,A,2,11,03,28,01,17,,,,,,,,2.17,1.94,0.97*0B
$GPGSV,2,1,08,03,67,117,27,28,61,282,30,01,48,040,28,17,35,312,43*70
$GPGSV,2,2,08,11,30,074,17,06,09,254,,04,04,145,,44,04,260,*7B
$GPRMC,024030.100,A,3524.0647,N,13852.2996,E,0.27,13.14,210720,,,A*52
$GPGGA,024030.200,3524.0648,N,13852.2996,E,1,5,1.94,91.2,M,39.1,M,,*60
$GPGSA,A,2,11,03,28,01,17,,,,,,,,2.17,1.94,0.97*0B
$GPGSV,2,1,08,03,67,117,28,28,61,282,30,01,48,040,30,17,35,312,42*77
$GPGSV,2,2,08,11,30,074,17,06,09,254,,04,04,145,,44,04,260,*7B
$GPRMC,024030.200,A,3524.0648,N,13852.2996,E,0.26,13.14,210720,,,A*5F
$GPGGA,024030.300,3524.0647,N,13852.2996,E,1,5,1.94,91.2,M,39.1,M,,*6E
$GPGSA,A,2,11,03,28,01,17,,,,,,,,2.17,1.94,0.97*0B
$GPGSV,2,1,08,03,67,117,29,28,61,282,30,01,48,040,30,17,35,312,42*76
$GPGSV,2,2,08,11,30,074,18,06,09,254,,04,04,145,,44,04,260,*74
$GPRMC,024030.300,A,3524.0647,N,13852.2996,E,0.26,13.14,210720,,,A*51
$GPGGA,024030.400,3524.0647,N,13852.2996,E,1,5,1.94,91.1,M,39.1,M,,*6A
$GPGSA,A,2,11,03,28,01,17,,,,,,,,2.17,1.94,0.97*0B
$GPGSV,2,1,08,03,67,117,29,28,61,282,30,01,48,040,30,17,35,312,43*77
$GPGSV,2,2,08,11,30,074,18,06,09,254,,04,04,145,,44,04,260,*74
$GPRMC,024030.400,A,3524.0647,N,13852.2996,E,0.26,13.14,210720,,,A*56
$GPGGA,024030.500,3524.0647,N,13852.2997,E,1,5,1.94,91.1,M,39.1,M,,*6A
$GPGSA,A,2,11,03,28,01,17,,,,,,,,2.17,1.94,0.97*0B
$GPGSV,2,1,08,03,67,117,29,28,61,282,30,01,48,040,30,17,35,312,44*70
$GPGSV,2,2,08,11,30,074,18,06,09,254,,04,04,145,,44,04,260,*74
$GPRMC,024030.500,A,3524.0647,N,13852.2997,E,0.26,13.14,210720,,,A*56
$GPGGA,024030.600,3524.0647,N,13852.2997,E,1,5,1.94,91.1,M,39.1,M,,*69
$GPGSA,A,2,11,03,28,01,17,,,,,,,,2.17,1.94,0.97*0B
$GPGSV,2,1,08,03,67,117,29,28,61,282,30,01,48,040,30,17,35,312,45*71
$GPGSV,2,2,08,11,30,074,18,06,09,254,,04,04,145,,44,04,260,*74
$GPRMC,024030.600,A,3524.0647,N,13852.2997,E,0.26,13.14,210720,,,A*55
$GPGGA,024030.700,3524.0647,N,13852.2997,E,1,5,1.94,91.1,M,39.1,M,,*68
$GPGSA,A,2,11,03,28,01,17,,,,,,,,2.17,1.94,0.97*0B
$GPGSV,2,1,08,03,67,117,29,28,61,282,30,01,48,040,36,17,35,312,46*74
$GPGSV,2,2,08,11,30,074,18,06,09,254,,04,04,145,,44,04,260,*74
$GPRMC,024030.700,A,3524.0647,N,13852.2997,E,0.27,13.14,210720,,,A*55
$GPGGA,024030.800,3524.0647,N,13852.2997,E,1,5,1.94,91.0,M,39.1,M,,*66
$GPGSA,A,2,11,03,28,01,17,,,,,,,,2.17,1.94,0.97*0B
$GPGSV,2,1,08,03,67,117,29,28,61,282,30,01,48,040,36,17,35,312,46*74
$GPGSV,2,2,08,11,30,074,18,06,09,254,,04,04,145,,44,04,260,*74
$GPRMC,024030.800,A,3524.0647,N,13852.2997,E,0.28,13.14,210720,,,A*55
$GPGGA,024030.900,3524.0648,N,13852.2998,E,1,5,1.94,91.0,M,39.1,M,,*67
$GPGSA,A,2,11,03,28,01,17,,,,,,,,2.17,1.94,0.97*0B
$GPGSV,2,1,08,03,67,117,29,28,61,282,30,01,48,040,36,17,35,312,46*74
$GPGSV,2,2,08,11,30,074,18,06,09,254,,04,04,145,,44,04,260,*74
$GPRMC,024030.900,A,3524.0648,N,13852.2998,E,0.30,13.14,210720,,,A*5D
$GPGGA,024031.000,3524.0648,N,13852.2998,E,1,5,1.94,91.0,M,39.1,M,,*6F
$GPGSA,A,2,11,03,28,01,17,,,,,,,,2.17,1.94,0.97*0B
$GPGSV,2,1,08,03,67,117,29,28,61,282,30,01,48,040,36,17,35,312,46*74
$GPGSV,2,2,08,11,30,074,18,06,09,254,,04,04,145,,44,04,260,*74
$GPRMC,024031.000,A,3524.0648,N,13852.2998,E,0.32,13.14,210720,,,A*57
$GPGGA,024031.100,3524.0648,N,13852.2999,E,1,5,1.94,91.0,M,39.1,M,,*6F
$GPGSA,A,2,11,03,28,01,17,,,,,,,,2.17,1.94,0.97*0B
$GPGSV,2,1,08,03,67,117,29,28,61,282,30,01,48,040,36,17,35,312,46*74
$GPGSV,2,2,08,11,30,074,18,06,09,254,,04,04,145,,44,04,260,*74
$GPRMC,024031.100,A,3524.0648,N,13852.2999,E,0.34,13.14,210720,,,A*51
