$GPGGA,030258.100,3525.7113,N,13851.7478,E,1,5,1.70,999.6,M,39.1,M,,*51
$GPGSA,A,3,28,17,04,08,06,,,,,,,,1.93,1.70,0.91*01
$GPGSV,3,1,11,03,68,086,,28,62,260,19,22,49,056,,17,43,318,14*7A
$GPGSV,3,2,11,01,40,048,,11,23,082,,19,22,308,,06,16,262,23*7F
$GPGSV,3,3,11,04,11,138,18,08,10,117,18,30,01,221,*4A
$GPRMC,030258.100,A,3525.7113,N,13851.7478,E,22.86,90.15,051200,,,A*61
$GPGGA,030258.400,3525.7113,N,13851.7502,E,1,5,1.70,999.4,M,39.1,M,,*5A
$GPGSA,A,3,28,17,04,08,06,,,,,,,,1.93,1.70,0.91*01
$GPGSV,3,1,11,03,68,086,,28,62,260,18,22,49,056,,17,43,318,16*79
$GPGSV,3,2,11,01,40,048,,11,23,082,,19,22,308,,06,16,262,23*7F
$GPGSV,3,3,11,04,11,138,18,08,10,117,18,30,01,221,*4A
$GPRMC,030258.400,A,3525.7113,N,13851.7502,E,23.27,90.00,051200,,,A*66
$GPGGA,030258.500,3525.7114,N,13851.7511,E,1,5,1.70,999.4,M,39.1,M,,*5E
$GPGSA,A,3,28,17,04,08,06,,,,,,,,1.93,1.70,0.91*01
$GPGSV,3,1,11,03,68,086,,28,62,260,18,22,49,056,,17,43,318,16*79
$GPGSV,3,2,11,01,40,048,,11,23,082,,19,22,308,,06,16,262,23*7F
$GPGSV,3,3,11,04,11,138,18,08,10,117,18,30,01,221,*4A
$GPRMC,030258.500,A,3525.7114,N,13851.7511,E,23.56,89.78,051200,,,A*63
$GPGGA,030258.600,3525.7114,N,13851.7520,E,1,5,1.70,999.4,M,39.1,M,,*5F
$GPGSA,A,3,28,17,04,08,06,,,,,,,,1.93,1.70,0.91*01
$GPGSV,3,1,11,03,68,086,,28,62,260,18,22,49,056,,17,43,318,16*79
$GPGSV,3,2,11,01,40,048,,11,23,082,,19,22,308,,06,16,262,23*7F
$GPGSV,3,3,11,04,11,138,18,08,10,117,18,30,01,221,*4A
$GPRMC,030258.600,A,3525.7114,N,13851.7520,E,23.82,89.58,051200,,,A*69
$GPGGA,030258.700,3525.7115,N,13851.7529,E,1,5,1.70,999.3,M,39.1,M,,*51
$GPGSA,A,3,28,17,04,08,06,,,,,,,,1.93,1.70,0.91*01
$GPGSV,3,1,11,03,68,086,,28,62,260,18,22,49,056,,17,43,318,16*79
$GPGSV,3,2,11,01,40,048,,11,23,082,,19,22,308,,06,16,262,23*7F
$GPGSV,3,3,11,04,11,138,18,08,10,117,18,30,01,221,*4A
$GPRMC,030258.700,A,3525.7115,N,13851.7529,E,24.01,89.28,051200,,,A*6B
$GPGGA,030258.900,3525.7116,N,13851.7547,E,1,5,1.70,999.3,M,39.1,M,,*54
$GPGSA,A,3,28,17,04,08,06,,,,,,,,1.93,1.70,0.91*01
$GPGSV,3,1,11,03,68,086,,28,62,260,18,22,49,056,,17,43,318,16*79
$GPGSV,3,2,11,01,40,048,,11,23,082,,19,22,308,,06,16,262,23*7F
$GPGSV,3,3,11,04,11,138,22,08,10,117,18,30,01,221,*43
$GPRMC,030258.900,A,3525.7116,N,13851.7547,E,24.44,88.90,051200,,,A*6D
$GPGGA,030259.100,3525.7115,N,13851.7563,E,1,5,1.70,999.2,M,39.1,M,,*59
$GPGSA,A,3,28,17,04,08,06,,,,,,,,1.93,1.70,0.91*01
$GPGSV,3,1,11,03,68,086,,28,62,260,18,22,49,056,,17,43,318,16*79
$GPGSV,3,2,11,01,40,048,,11,23,082,,19,22,308,,06,16,262,21*7D
$GPGSV,3,3,11,04,11,138,22,08,10,117,18,30,01,221,*43
$GPRMC,030259.100,A,3525.7115,N,13851.7563,E,24.50,89.10,051200,,,A*6D
$GPGGA,030259.200,3525.7114,N,13851.7572,E,1,5,1.70,999.2,M,39.1,M,,*5B
$GPGSA,A,3,28,17,04,08,06,,,,,,,,1.93,1.70,0.91*01
$GPGSV,3,1,11,03,68,086,,28,62,260,18,22,49,056,,17,43,318,16*79
$GPGSV,3,2,11,01,40,048,,11,23,082,,19,22,308,,06,16,262,20*7C
$GPGSV,3,3,11,04,11,138,22,08,10,117,18,30,01,221,*43
$GPRMC,030259.200,A,3525.7114,N,13851.7572,E,24.52,89.36,051200,,,A*69
$GPGGA,030259.400,3525.7113,N,13851.7588,E,1,5,1.70,999.1,M,39.1,M,,*5C
$GPGSA,A,3,28,17,04,08,06,,,,,,,,1.93,1.70,0.91*01
$GPGSV,3,1,11,03,68,086,,28,62,260,18,22,49,056,,17,43,318,16*79
$GPGSV,3,2,11,01,40,048,,11,23,082,,19,22,308,,06,16,262,20*7C
$GPGSV,3,3,11,04,11,138,22,08,10,117,18,30,01,221,*43
$GPRMC,030259.400,A,3525.7113,N,13851.7588,E,24.64,89.85,051200,,,A*60
$GPGGA,030259.500,3525.7112,N,13851.7597,E,1,5,1.70,999.1,M,39.1,M,,*52
$GPGSA,A,3,28,17,04,08,06,,,,,,,,1.93,1.70,0.91*01
$GPGSV,3,1,11,03,68,086,,28,62,260,18,22,49,056,,17,43,318,16*79
$GPGSV,3,2,11,01,40,048,,11,23,082,,19,22,308,,06,16,262,20*7C
$GPGSV,3,3,11,04,11,138,22,08,10,117,18,30,01,221,*43
$GPRMC,030259.500,A,3525.7112,N,13851.7597,E,24.63,90.10,051200,,,A*6D
$GPGGA,030259.600,3525.7111,N,13851.7605,E,1,5,1.70,999.0,M,39.1,M,,*5B
$GPGSA,A,3,28,17,04,08,06,,,,,,,,1.93,1.70,0.91*01
$GPGSV,3,1,11,03,68,086,,28,62,260,18,22,49,056,,17,43,318,16*79
$GPGSV,3,2,11,01,40,048,,11,23,082,,19,22,308,,06,16,262,20*7C
$GPGSV,3,3,11,04,11,138,22,08,10,117,18,30,01,221,*43
$GPRMC,030259.600,A,3525.7111,N,13851.7605,E,24.65,90.51,051200,,,A*66
$GPGGA,030259.700,3525.7109,N,13851.7613,E,1,5,1.70,999.0,M,39.1,M,,*54
$GPGSA,A,3,28,17,04,08,06,,,,,,,,1.93,1.70,0.91*01
$GPGSV,3,1,11,03,68,086,,28,62,260,18,22,49,056,,17,43,318,16*79
$GPGSV,3,2,11,01,40,048,,11,23,082,,19,22,308,,06,16,262,20*7C
$GPGSV,3,3,11,04,11,138,22,08,10,117,18,30,01,221,*43
$GPRMC,030259.700,A,3525.7109,N,13851.7613,E,24.64,91.01,051200,,,A*6C
$GPGGA,030259.800,3525.7108,N,13851.7621,E,1,5,1.70,999.0,M,39.1,M,,*5B
$GPGSA,A,3,28,17,04,08,06,,,,,,,,1.93,1.70,0.91*01
$GPGSV,3,1,11,03,68,086,,28,62,260,18,22,49,056,,17,43,318,16*79
$GPGSV,3,2,11,01,40,048,,11,23,082,,19,22,308,,06,16,262,20*7C
$GPGSV,3,3,11,04,11,138,22,08,10,117,18,30,01,221,*43
$GPRMC,030259.800,A,3525.7108,N,13851.7621,E,24.62,91.38,051200,,,A*6F
$GPGGA,030259.900,3525.7107,N,13851.7629,E,1,5,1.70,999.0,M,39.1,M,,*5D
$GPGSA,A,3,28,17,04,08,06,,,,,,,,1.93,1.70,0.91*01
$GPGSV,3,1,11,03,68,086,,28,62,260,18,22,49,056,,17,43,318,16*79
$GPGSV,3,2,11,01,40,048,,11,23,082,,19,22,308,,06,16,262,20*7C
$GPGSV,3,3,11,04,11,138,22,08,10,117,18,30,01,221,*43
$GPRMC,030259.900,A,3525.7107,N,13851.7629,E,24.57,91.65,051200,,,A*67
$GPGGA,030300.100,3525.7103,N,13851.7643,E,1,5,1.70,998.9,M,39.1,M,,*58
$GPGSA,A,3,28,17,04,08,06,,,,,,,,1.93,1.70,0.91*01
$GPGSV,3,1,11,03,68,086,,28,62,260,18,22,49,056,,17,43,318,16*79
$GPGSV,3,2,11,01,40,048,,11,23,082,,19,22,308,,06,16,262,20*7C
$GPGSV,3,3,11,04,11,138,18,08,10,117,18,30,01,221,*4A
$GPRMC,030300.100,A,3525.7103,N,13851.7643,E,23.93,92.36,051200,,,A*60
$GPGGA,030300.200,3525.7102,N,13851.7650,E,1,5,1.70,998.9,M,39.1,M,,*58
$GPGSA,A,3,28,17,04,08,06,,,,,,,,1.93,1.70,0.91*01
$GPGSV,3,1,11,03,68,086,,28,62,260,18,22,49,056,,17,43,318,16*79
$GPGSV,3,2,11,01,40,048,,11,23,082,,19,22,308,,06,16,262,20*7C
$GPGSV,3,3,11,04,11,138,18,08,10,117,18,30,01,221,*4A
$GPRMC,030300.200,A,3525.7102,N,13851.7650,E,23.56,92.85,051200,,,A*61
$GPGGA,030300.400,3525.7098,N,13851.7664,E,1,5,1.70,998.8,M,39.1,M,,*5A
$GPGSA,A,3,28,17,04,08,06,,,,,,,,1.93,1.70,0.91*01
$GPGSV,3,1,11,03,68,086,,28,62,260,18,22,49,056,,17,43,318,16*79
$GPGSV,3,2,11,01,40,048,,11,23,082,,19,22,308,,06,16,262,19*76
$GPGSV,3,3,11,04,11,138,18,08,10,117,18,30,01,221,*4A
$GPRMC,030300.400,A,3525.7098,N,13851.7664,E,23.18,93.72,051200,,,A*61
$GPGGA,030300.500,3525.7096,N,13851.7671,E,1,5,1.70,998.8,M,39.1,M,,*51
$GPGSA,A,3,28,17,04,08,06,,,,,,,,1.93,1.70,0.91*01
$GPGSV,3,1,11,03,68,086,,28,62,260,18,22,49,056,,17,43,318,16*79
$GPGSV,3,2,11,01,40,048,,11,23,082,,19,22,308,,06,16,262,19*76
$GPGSV,3,3,11,04,11,138,18,08,10,117,18,30,01,221,*4A
$GPRMC,030300.500,A,3525.7096,N,13851.7671,E,23.02,94.13,051200,,,A*61
$GPGGA,030300.600,3525.7095,N,13851.7678,E,1,5,1.70,998.8,M,39.1,M,,*58
$GPGSA,A,3,28,17,04,08,06,,,,,,,,1.93,1.70,0.91*01
$GPGSV,3,1,11,03,68,086,,28,62,260,18,22,49,056,,17,43,318,16*79
$GPGSV,3,2,11,01,40,048,,11,23,082,,19,22,308,,06,16,262,19*76
$GPGSV,3,3,11,04,11,138,18,08,10,117,18,30,01,221,*4A
$GPRMC,030300.600,A,3525.7095,N,13851.7678,E,22.85,94.40,051200,,,A*60
$GPGGA,030300.900,3525.7092,N,13851.7700,E,1,6,1.31,998.7,M,39.1,M,,*57
$GPGSA,A,3,28,17,04,08,06,11,,,,,,,1.59,1.31,0.91*02
$GPGSV,3,1,11,03,68,086,,28,62,260,18,22,49,056,,17,43,318,16*79
$GPGSV,3,2,11,01,40,048,,11,23,082,18,19,22,308,,06,16,262,19*7F
$GPGSV,3,3,11,04,11,138,18,08,10,117,18,30,01,221,*4A
$GPRMC,030300.900,A,3525.7092,N,13851.7700,E,22.63,94.81,051200,,,A*63
$GPGGA,030301.000,3525.7091,N,13851.7707,E,1,6,1.31,998.6,M,39.1,M,,*5A
$GPGSA,A,3,28,17,04,08,06,11,,,,,,,1.59,1.31,0.91*02
$GPGSV,3,1,11,03,68,086,,28,62,260,18,22,49,056,,17,43,318,16*79
$GPGSV,3,2,11,01,40,048,,11,23,082,18,19,22,308,,06,16,262,19*7F
$GPGSV,3,3,11,04,11,138,18,08,10,117,18,30,01,221,*4A
$GPRMC,030301.000,A,3525.7091,N,13851.7707,E,22.63,94.94,051200,,,A*6B
$GPGGA,030301.100,3525.7089,N,13851.7714,E,1,6,1.31,998.6,M,39.1,M,,*50
$GPGSA,A,3,28,17,04,08,06,11,,,,,,,1.59,1.31,0.91*02
$GPGSV,3,1,11,03,68,086,,28,62,260,18,22,49,056,,17,43,318,16*79
$GPGSV,3,2,11,01,40,048,,11,23,082,18,19,22,308,,06,16,262,19*7F
$GPGSV,3,3,11,04,11,138,18,08,10,117,18,30,01,221,*4A
$GPRMC,030301.100,A,3525.7089,N,13851.7714,E,22.64,95.09,051200,,,A*63
$GPGGA,030301.400,3525.7087,N,13851.7736,E,1,6,1.31,998.5,M,39.1,M,,*58
$GPGSA,A,3,28,17,04,08,06,11,,,,,,,1.59,1.31,0.91*02
$GPGSV,3,1,11,03,68,086,,28,62,260,18,22,49,056,,17,43,318,16*79
$GPGSV,3,2,11,01,40,048,,11,23,082,18,19,22,308,,06,16,262,19*7F
$GPGSV,3,3,11,04,11,138,19,08,10,117,18,30,01,221,*4B
$GPRMC,030301.400,A,3525.7087,N,13851.7736,E,22.80,95.00,051200,,,A*6B
$GPGGA,030301.500,3525.7087,N,13851.7744,E,1,6,1.31,998.5,M,39.1,M,,*5C
$GPGSA,A,3,28,17,04,08,06,11,,,,,,,1.59,1.31,0.91*02
$GPGSV,3,1,11,03,68,086,,28,62,260,18,22,49,056,,17,43,318,16*79
$GPGSV,3,2,11,01,40,048,,11,23,082,18,19,22,308,,06,16,262,21*74
$GPGSV,3,3,11,04,11,138,19,08,10,117,18,30,01,221,*4B
$GPRMC,030301.500,A,3525.7087,N,13851.7744,E,23.05,94.51,051200,,,A*66
$GPGGA,030301.600,3525.7087,N,13851.7753,E,1,6,1.31,998.4,M,39.1,M,,*58
$GPGSA,A,3,28,17,04,08,06,11,,,,,,,1.59,1.31,0.91*02
$GPGSV,3,1,11,03,68,086,,28,62,260,18,22,49,056,,17,43,318,16*79
$GPGSV,3,2,11,01,40,048,,11,23,082,18,19,22,308,,06,16,262,22*77
$GPGSV,3,3,11,04,11,138,19,08,10,117,18,30,01,221,*4B
$GPRMC,030301.600,A,3525.7087,N,13851.7753,E,23.42,94.28,051200,,,A*6E
$GPGGA,030301.700,3525.7086,N,13851.7761,E,1,6,1.31,998.4,M,39.1,M,,*59
$GPGSA,A,3,28,17,04,08,06,11,,,,,,,1.59,1.31,0.91*02
$GPGSV,3,1,11,03,68,086,,28,62,260,18,22,49,056,,17,43,318,16*79
$GPGSV,3,2,11,01,40,048,,11,23,082,18,19,23,308,,06,16,262,23*77
$GPGSV,3,3,11,04,11,138,19,08,10,117,18,30,01,221,*4B
$GPRMC,030301.700,A,3525.7086,N,13851.7761,E,23.70,94.09,051200,,,A*6D
$GPGGA,030301.900,3525.7085,N,13851.7778,E,1,6,1.48,998.4,M,39.1,M,,*52
$GPGSA,A,3,28,17,04,08,06,11,,,,,,,2.61,1.48,2.15*0A
$GPGSV,3,1,11,03,68,086,,28,62,260,18,22,49,056,,17,43,318,16*79
$GPGSV,3,2,11,01,40,048,,11,23,082,18,19,23,308,,06,16,262,23*77
$GPGSV,3,3,11,04,11,138,19,08,10,117,19,30,01,221,*4A
$GPRMC,030301.900,A,3525.7085,N,13851.7778,E,23.96,94.05,051200,,,A*6C
$GPGGA,030302.100,3525.7084,N,13851.7793,E,1,6,1.48,998.3,M,39.1,M,,*5A
$GPGSA,A,3,28,17,04,08,06,11,,,,,,,2.61,1.48,2.15*0A
$GPGSV,3,1,11,03,68,086,,28,62,260,18,22,49,056,,17,43,318,16*79
$GPGSV,3,2,11,01,40,048,,11,23,082,18,19,23,308,,06,16,262,23*77
$GPGSV,3,3,11,04,11,138,19,08,10,117,19,30,01,221,*4A
$GPRMC,030302.100,A,3525.7084,N,13851.7793,E,23.91,94.31,051200,,,A*63
$GPGGA,030302.200,3525.7082,N,13851.7800,E,1,6,1.48,998.2,M,39.1,M,,*5B
$GPGSA,A,3,28,17,04,08,06,11,,,,,,,2.61,1.48,2.15*0A
$GPGSV,3,1,11,03,68,086,,28,62,260,18,22,49,056,,17,43,318,16*79
$GPGSV,3,2,11,01,40,048,,11,23,082,19,19,23,308,,06,16,262,23*76
$GPGSV,3,3,11,04,11,138,19,08,10,117,19,30,01,221,*4A
$GPRMC,030302.200,A,3525.7082,N,13851.7800,E,23.78,94.75,051200,,,A*64
$GPGGA,030302.400,3525.7077,N,13851.7815,E,1,6,1.48,998.2,M,39.1,M,,*53
$GPGSA,A,3,28,17,04,08,06,11,,,,,,,2.61,1.48,2.15*0A
$GPGSV,3,1,11,03,68,086,,28,62,260,18,22,49,056,,17,43,318,16*79
$GPGSV,3,2,11,01,40,048,,11,23,082,19,19,23,308,,06,16,262,23*76
$GPGSV,3,3,11,04,11,138,19,08,10,117,19,30,01,221,*4A
$GPRMC,030302.400,A,3525.7077,N,13851.7815,E,23.66,95.89,051200,,,A*61
$GPGGA,030302.500,3525.7075,N,13851.7822,E,1,6,1.48,998.1,M,39.1,M,,*57
$GPGSA,A,3,28,17,04,08,06,11,,,,,,,2.61,1.48,2.15*0A
$GPGSV,3,1,11,03,68,086,,28,62,260,18,22,49,056,,17,43,318,16*79
$GPGSV,3,2,11,01,40,048,,11,23,082,19,19,23,308,,06,16,262,23*76
$GPGSV,3,3,11,04,11,138,19,08,10,117,19,30,01,221,*4A
$GPRMC,030302.500,A,3525.7075,N,13851.7822,E,23.50,96.52,051200,,,A*66
$GPGGA,030302.600,3525.7072,N,13851.7828,E,1,6,1.48,998.1,M,39.1,M,,*59
$GPGSA,A,3,28,17,04,08,06,11,,,,,,,2.61,1.48,2.15*0A
$GPGSV,3,1,11,03,68,086,,28,61,259,18,22,49,056,,17,43,318,16*70
$GPGSV,3,2,11,01,40,048,,11,23,082,19,19,23,308,,06,16,262,24*71
$GPGSV,3,3,11,04,11,138,19,08,10,117,19,30,01,221,*4A
$GPRMC,030302.600,A,3525.7072,N,13851.7828,E,23.30,97.06,051200,,,A*6E
$GPGGA,030302.700,3525.7070,N,13851.7834,E,1,6,1.48,998.0,M,39.1,M,,*56
$GPGSA,A,3,28,17,04,08,06,11,,,,,,,2.61,1.48,2.15*0A
$GPGSV,3,1,11,03,68,086,,28,61,259,18,22,49,056,,17,43,318,16*70
$GPGSV,3,2,11,01,40,048,,11,23,082,19,19,23,308,,06,16,262,24*71
$GPGSV,3,3,11,04,11,138,20,08,10,117,19,30,01,221,*40
$GPRMC,030302.700,A,3525.7070,N,13851.7834,E,23.18,97.47,051200,,,A*6F
$GPGGA,030302.900,3525.7065,N,13851.7847,E,1,6,1.48,997.9,M,39.1,M,,*5E
$GPGSA,A,3,28,17,04,08,06,11,,,,,,,2.61,1.48,2.15*0A
$GPGSV,3,1,11,03,68,086,,28,61,259,18,22,49,056,,17,43,318,16*70
$GPGSV,3,2,11,01,40,048,,11,23,082,17,19,23,308,,06,16,262,24*7F
$GPGSV,3,3,11,04,11,138,20,08,10,117,19,30,01,221,*40
$GPRMC,030302.900,A,3525.7065,N,13851.7847,E,22.88,98.03,051200,,,A*66
$GPGGA,030303.100,3525.7060,N,13851.7860,E,1,6,1.48,997.8,M,39.1,M,,*56
$GPGSA,A,3,28,17,04,08,06,11,,,,,,,2.61,1.48,2.15*0A
$GPGSV,3,1,11,03,68,086,,28,61,259,18,22,49,056,,17,43,318,16*70
$GPGSV,3,2,11,01,40,048,,11,23,082,17,19,23,308,,06,16,262,24*7F
$GPGSV,3,3,11,04,11,138,20,08,10,117,19,30,01,221,*40
$GPRMC,030303.100,A,3525.7060,N,13851.7860,E,22.61,98.31,051200,,,A*69
$GPGGA,030303.200,3525.7058,N,13851.7866,E,1,6,1.48,997.7,M,39.1,M,,*57
$GPGSA,A,3,28,17,04,08,06,11,,,,,,,2.61,1.48,2.15*0A
$GPGSV,3,1,11,03,68,086,,28,61,259,18,22,49,056,,17,43,318,16*70
$GPGSV,3,2,11,01,40,048,,11,23,082,17,19,23,308,,06,16,262,24*7F
$GPGSV,3,3,11,04,11,138,20,08,10,117,19,30,01,221,*40
$GPRMC,030303.200,A,3525.7058,N,13851.7866,E,22.58,98.59,051200,,,A*63
$GPGGA,030303.300,3525.7056,N,13851.7873,E,1,6,1.48,997.7,M,39.1,M,,*5C
$GPGSA,A,3,28,17,04,08,06,11,,,,,,,2.61,1.48,2.15*0A
$GPGSV,3,1,11,03,68,086,,28,61,259,18,22,49,056,,17,43,318,16*70
$GPGSV,3,2,11,01,40,048,,11,23,082,17,19,23,308,,06,16,262,24*7F
$GPGSV,3,3,11,04,11,138,20,08,10,117,19,30,01,221,*40
$GPRMC,030303.300,A,3525.7056,N,13851.7873,E,22.57,98.80,051200,,,A*63
$GPGGA,030303.400,3525.7053,N,13851.7880,E,1,6,1.48,997.6,M,39.1,M,,*53
$GPGSA,A,3,28,17,04,08,06,11,,,,,,,2.61,1.48,2.15*0A
$GPGSV,3,1,11,03,68,086,,28,61,259,18,22,49,056,,17,43,318,16*70
$GPGSV,3,2,11,01,40,048,,11,23,082,17,19,23,308,,06,16,262,24*7F
$GPGSV,3,3,11,04,11,138,20,08,10,117,19,30,01,221,*40
$GPRMC,030303.400,A,3525.7053,N,13851.7880,E,22.44,99.13,051200,,,A*64
$GPGGA,030303.500,3525.7051,N,13851.7887,E,1,6,1.31,997.6,M,39.1,M,,*59
$GPGSA,A,3,28,17,04,08,06,11,,,,,,,1.59,1.31,0.91*02
$GPGSV,3,1,11,03,68,086,,28,61,259,18,22,49,056,,17,43,318,16*70
$GPGSV,3,2,11,01,40,048,,11,23,082,17,19,23,308,,06,16,262,24*7F
$GPGSV,3,3,11,04,11,138,20,08,10,117,19,30,01,221,*40
$GPRMC,030303.500,A,3525.7051,N,13851.7887,E,22.35,99.60,051200,,,A*62
$GPGGA,030303.600,3525.7048,N,13851.7894,E,1,6,1.31,997.6,M,39.1,M,,*50
$GPGSA,A,3,28,17,04,08,06,11,,,,,,,1.59,1.31,0.91*02
$GPGSV,3,1,11,03,68,086,,28,61,259,18,22,49,056,,17,43,318,16*70
$GPGSV,3,2,11,01,40,048,,11,23,082,17,19,23,308,,06,16,262,24*7F
$GPGSV,3,3,11,04,11,138,20,08,10,117,19,30,01,221,*40
$GPRMC,030303.600,A,3525.7048,N,13851.7894,E,22.23,100.07,051200,,,A*5C
$GPGGA,030303.700,3525.7046,N,13851.7901,E,1,6,1.31,997.5,M,39.1,M,,*51
$GPGSA,A,3,28,17,04,08,06,11,,,,,,,1.59,1.31,0.91*02
$GPGSV,3,1,11,03,68,086,,28,61,259,18,22,49,056,,17,43,318,16*70
$GPGSV,3,2,11,01,40,048,,11,23,082,17,19,23,308,,06,16,262,24*7F
$GPGSV,3,3,11,04,11,138,20,08,10,117,19,30,01,221,*40
$GPRMC,030303.700,A,3525.7046,N,13851.7901,E,22.26,100.69,051200,,,A*53
$GPGGA,030303.800,3525.7043,N,13851.7908,E,1,6,1.31,997.5,M,39.1,M,,*52
$GPGSA,A,3,28,17,04,08,06,11,,,,,,,1.59,1.31,0.91*02
$GPGSV,3,1,11,03,68,086,,28,61,259,18,22,49,056,,17,43,318,16*70
$GPGSV,3,2,11,01,40,048,,11,23,082,17,19,23,308,,06,16,262,24*7F
$GPGSV,3,3,11,04,11,138,20,08,10,117,19,30,01,221,*40
$GPRMC,030303.800,A,3525.7043,N,13851.7908,E,22.32,101.11,051200,,,A*5B
$GPGGA,030303.900,3525.7041,N,13851.7915,E,1,6,1.48,997.5,M,39.1,M,,*53
$GPGSA,A,3,28,17,04,08,06,11,,,,,,,2.61,1.48,2.15*0A
$GPGSV,3,1,11,03,68,086,,28,61,259,18,22,49,056,,17,43,318,16*70
$GPGSV,3,2,11,01,40,048,,11,23,082,17,19,23,308,,06,16,262,24*7F
$GPGSV,3,3,11,04,11,138,20,08,10,117,20,30,01,221,*4A
$GPRMC,030303.900,A,3525.7041,N,13851.7915,E,22.42,101.19,051200,,,A*5B
$GPGGA,030304.000,3525.7040,N,13851.7923,E,1,6,1.48,997.4,M,39.1,M,,*58
$GPGSA,A,3,28,17,04,08,06,11,,,,,,,2.61,1.48,2.15*0A
$GPGSV,3,1,11,03,68,086,,28,61,259,18,22,49,056,,17,43,318,16*70
$GPGSV,3,2,11,01,40,048,,11,23,082,17,19,23,308,,06,16,262,24*7F
$GPGSV,3,3,11,04,11,138,21,08,10,117,20,30,01,221,*4B
$GPRMC,030304.000,A,3525.7040,N,13851.7923,E,22.62,101.21,051200,,,A*58
$GPGGA,030304.100,3525.7038,N,13851.7931,E,1,6,1.48,997.4,M,39.1,M,,*55
$GPGSA,A,3,28,17,04,08,06,11,,,,,,,2.61,1.48,2.15*0A
$GPGSV,3,1,11,03,68,086,,28,61,259,18,22,49,056,,17,43,318,16*70
$GPGSV,3,2,11,01,40,048,,11,23,082,17,19,23,308,,06,16,262,24*7F
$GPGSV,3,3,11,04,11,138,21,08,10,117,20,30,01,221,*4B
$GPRMC,030304.100,A,3525.7038,N,13851.7931,E,22.88,101.12,051200,,,A*51
$GPGGA,030304.200,3525.7037,N,13851.7939,E,1,6,1.48,997.3,M,39.1,M,,*56
$GPGSA,A,3,28,17,04,08,06,11,,,,,,,2.61,1.48,2.15*0A
$GPGSV,3,1,11,03,68,086,,28,61,259,18,22,49,056,,17,43,318,16*70
$GPGSV,3,2,11,01,40,048,,11,23,082,17,19,23,308,,06,16,262,24*7F
$GPGSV,3,3,11,04,11,138,21,08,10,117,20,30,01,221,*4B
$GPRMC,030304.200,A,3525.7037,N,13851.7939,E,23.07,100.93,051200,,,A*5B
$GPGGA,030304.300,3525.7036,N,13851.7947,E,1,6,1.48,997.3,M,39.1,M,,*5F
$GPGSA,A,3,28,17,04,08,06,11,,,,,,,2.61,1.48,2.15*0A
$GPGSV,3,1,11,03,68,086,,28,61,259,18,22,49,056,,17,43,318,16*70
$GPGSV,3,2,11,01,40,048,,11,23,082,17,19,23,308,,06,16,262,24*7F
$GPGSV,3,3,11,04,11,138,21,08,10,117,20,30,01,221,*4B
$GPRMC,030304.300,A,3525.7036,N,13851.7947,E,23.18,100.84,051200,,,A*5A
$GPGGA,030304.400,3525.7036,N,13851.7956,E,1,6,1.48,997.3,M,39.1,M,,*58
$GPGSA,A,3,28,17,04,08,06,11,,,,,,,2.61,1.48,2.15*0A
$GPGSV,3,1,12,03,68,086,,28,61,259,18,22,49,056,,50,46,199,*79
$GPGSV,3,2,12,17,43,318,16,01,40,048,,11,23,082,17,19,23,308,*71
$GPGSV,3,3,12,06,16,262,25,04,11,138,21,08,10,117,20,30,01,221,*78
$GPRMC,030304.400,A,3525.7036,N,13851.7956,E,23.27,100.57,051200,,,A*5F
$GPGGA,030304.500,3525.7035,N,13851.7963,E,1,5,1.88,997.2,M,39.1,M,,*52
$GPGSA,A,3,28,17,04,08,06,,,,,,,,2.87,1.88,2.17*0C
$GPGSV,3,1,12,03,68,086,,28,61,259,18,22,49,056,,50,46,199,*79
$GPGSV,3,2,12,17,43,318,16,01,40,048,,11,23,082,,19,23,308,*77
$GPGSV,3,3,12,06,16,262,25,04,11,138,22,08,10,117,20,30,01,221,*7B
$GPRMC,030304.500,A,3525.7035,N,13851.7963,E,23.28,100.44,051200,,,A*56
$GPGGA,030304.600,3525.7034,N,13851.7972,E,1,5,1.88,997.2,M,39.1,M,,*50
$GPGSA,A,3,28,17,04,08,06,,,,,,,,2.87,1.88,2.17*0C
$GPGSV,3,1,12,03,68,086,,28,61,259,18,22,49,056,,50,46,199,*79
$GPGSV,3,2,12,17,43,318,16,01,40,048,,11,23,082,,19,23,308,*77
$GPGSV,3,3,12,06,16,262,25,04,11,138,22,08,10,117,20,30,01,221,*7B
$GPRMC,030304.600,A,3525.7034,N,13851.7972,E,23.45,100.55,051200,,,A*5F
$GPGGA,030304.700,3525.7033,N,13851.7980,E,1,5,1.88,997.2,M,39.1,M,,*5B
$GPGSA,A,3,28,17,04,08,06,,,,,,,,2.87,1.88,2.17*0C
$GPGSV,3,1,12,03,68,086,,28,61,259,18,22,49,056,,50,46,199,*79
$GPGSV,3,2,12,17,43,318,16,01,40,048,,11,23,082,,19,23,308,*77
$GPGSV,3,3,12,06,16,262,25,04,11,138,22,08,10,117,20,30,01,221,*7B
$GPRMC,030304.700,A,3525.7033,N,13851.7980,E,23.70,100.45,051200,,,A*53
$GPGGA,030304.800,3525.7032,N,13851.7989,E,1,5,1.88,997.1,M,39.1,M,,*5F
$GPGSA,A,3,28,17,04,08,06,,,,,,,,2.87,1.88,2.17*0C
$GPGSV,3,1,12,03,68,086,,28,61,259,18,22,49,056,,50,46,199,*79
$GPGSV,3,2,12,17,43,318,16,01,40,048,,11,23,082,,19,23,308,*77
$GPGSV,3,3,12,06,16,262,25,04,11,138,22,08,10,117,20,30,01,221,*7B
$GPRMC,030304.800,A,3525.7032,N,13851.7989,E,23.97,100.30,051200,,,A*5F
$GPGGA,030304.900,3525.7032,N,13851.7997,E,1,5,1.88,997.1,M,39.1,M,,*51
$GPGSA,A,3,28,17,04,08,06,,,,,,,,2.87,1.88,2.17*0C
$GPGSV,3,1,12,03,68,086,,28,61,259,18,22,49,056,,50,46,199,*79
$GPGSV,3,2,12,17,43,318,16,01,40,048,,11,23,082,,19,23,308,*77
$GPGSV,3,3,12,06,16,262,25,04,11,138,22,08,10,117,20,30,01,221,*7B
$GPRMC,030304.900,A,3525.7032,N,13851.7997,E,23.99,100.26,051200,,,A*58
$GPGGA,030305.000,3525.7031,N,13851.8005,E,1,5,1.88,997.0,M,39.1,M,,*56
$GPGSA,A,3,28,17,04,08,06,,,,,,,,2.87,1.88,2.17*0C
$GPGSV,3,1,12,03,68,086,,28,61,259,18,22,49,056,,50,46,199,*79
$GPGSV,3,2,12,17,43,318,16,01,40,048,,11,23,082,,19,23,308,*77
$GPGSV,3,3,12,06,16,262,25,04,11,138,22,08,10,117,20,30,01,221,*7B
$GPRMC,030305.000,A,3525.7031,N,13851.8005,E,23.91,100.14,051200,,,A*57
$GPGGA,030305.100,3525.7030,N,13851.8014,E,1,5,1.88,997.0,M,39.1,M,,*56
$GPGSA,A,3,28,17,04,08,06,,,,,,,,2.87,1.88,2.17*0C
$GPGSV,3,1,12,03,68,086,,28,61,259,18,22,49,056,,50,46,199,*79
$GPGSV,3,2,12,17,43,318,16,01,40,048,,11,23,082,,19,23,308,*77
$GPGSV,3,3,12,06,16,262,23,04,11,138,22,08,10,117,20,30,01,221,*7D
$GPRMC,030305.100,A,3525.7030,N,13851.8014,E,24.01,99.98,051200,,,A*6C
$GPGGA,030305.200,3525.7029,N,13851.8023,E,1,5,1.88,996.9,M,39.1,M,,*51
$GPGSA,A,3,28,17,04,08,06,,,,,,,,2.87,1.88,2.17*0C
$GPGSV,3,1,12,03,68,086,,28,61,259,18,22,49,056,,50,46,199,*79
$GPGSV,3,2,12,17,43,318,16,01,40,048,,11,23,082,,19,23,308,*77
$GPGSV,3,3,12,06,16,262,22,04,11,138,22,08,10,117,20,30,01,221,*7C
$GPRMC,030305.200,A,3525.7029,N,13851.8023,E,24.09,99.92,051200,,,A*61
$GPGGA,030305.300,3525.7029,N,13851.8032,E,1,5,1.88,996.9,M,39.1,M,,*50
$GPGSA,A,3,28,17,04,08,06,,,,,,,,2.87,1.88,2.17*0C
$GPGSV,3,1,12,03,68,086,,28,61,259,18,22,49,056,,50,46,199,*79
$GPGSV,3,2,12,17,43,318,16,01,40,048,,11,23,082,,19,23,308,*77
$GPGSV,3,3,12,06,16,262,21,04,11,138,22,08,10,117,20,30,01,221,*7F
$GPRMC,030305.300,A,3525.7029,N,13851.8032,E,24.19,99.76,051200,,,A*6B
$GPGGA,030305.400,3525.7028,N,13851.8040,E,1,5,1.88,996.9,M,39.1,M,,*53
$GPGSA,A,3,28,17,04,08,06,,,,,,,,2.87,1.88,2.17*0C
$GPGSV,3,1,12,03,68,086,,28,61,259,18,22,49,056,,50,46,199,*79
$GPGSV,3,2,12,17,43,318,16,01,40,048,,11,23,082,,19,23,308,*77
$GPGSV,3,3,12,06,16,262,20,04,11,138,22,08,10,117,20,30,01,221,*7E
$GPRMC,030305.400,A,3525.7028,N,13851.8040,E,24.27,99.69,051200,,,A*6B
$GPGGA,030305.500,3525.7027,N,13851.8049,E,1,5,1.88,996.8,M,39.1,M,,*55
$GPGSA,A,3,28,17,04,08,06,,,,,,,,2.87,1.88,2.17*0C
$GPGSV,3,1,12,03,68,086,,28,61,259,18,22,49,056,,50,46,199,*79
$GPGSV,3,2,12,17,43,318,16,01,40,048,,11,23,082,,19,23,308,*77
$GPGSV,3,3,12,06,16,262,20,04,11,138,22,08,10,117,20,30,01,221,*7E
$GPRMC,030305.500,A,3525.7027,N,13851.8049,E,24.26,99.68,051200,,,A*6C
$GPGGA,030305.600,3525.7026,N,13851.8057,E,1,5,1.88,996.8,M,39.1,M,,*58
$GPGSA,A,3,28,17,04,08,06,,,,,,,,2.87,1.88,2.17*0C
$GPGSV,3,1,12,03,68,086,,28,61,259,18,22,49,056,,50,46,199,*79
$GPGSV,3,2,12,17,43,318,16,01,40,048,,11,23,082,,19,23,308,*77
$GPGSV,3,3,12,06,16,262,20,04,11,138,22,08,10,117,20,30,01,221,*7E
$GPRMC,030305.600,A,3525.7026,N,13851.8057,E,24.26,99.81,051200,,,A*66
$GPGGA,030305.700,3525.7024,N,13851.8066,E,1,5,1.88,996.7,M,39.1,M,,*56
$GPGSA,A,3,28,17,04,08,06,,,,,,,,2.87,1.88,2.17*0C
$GPGSV,3,1,12,03,68,086,,28,61,259,18,22,49,056,,50,46,199,*79
$GPGSV,3,2,12,17,43,318,16,01,40,048,,11,23,082,,19,23,308,*77
$GPGSV,3,3,12,06,16,262,20,04,11,138,23,08,10,117,20,30,01,221,*7F
$GPRMC,030305.700,A,3525.7024,N,13851.8066,E,24.25,99.84,051200,,,A*61
$GPGGA,030305.800,3525.7023,N,13851.8074,E,1,5,1.88,996.7,M,39.1,M,,*5D
$GPGSA,A,3,28,17,04,08,06,,,,,,,,2.87,1.88,2.17*0C
$GPGSV,3,1,12,03,68,086,,28,61,259,18,22,49,056,,50,46,199,*79
$GPGSV,3,2,12,17,43,318,16,01,40,048,,11,23,082,,19,23,308,*77
$GPGSV,3,3,12,06,16,262,20,04,11,138,23,08,10,117,21,30,01,221,*7E
$GPRMC,030305.800,A,3525.7023,N,13851.8074,E,24.09,99.99,051200,,,A*68
$GPGGA,030305.900,3525.7021,N,13851.8083,E,1,5,1.88,996.7,M,39.1,M,,*56
$GPGSA,A,3,28,17,04,08,06,,,,,,,,2.87,1.88,2.17*0C
$GPGSV,3,1,12,03,68,086,,28,61,259,18,22,49,056,,50,46,199,*79
$GPGSV,3,2,12,17,43,318,17,01,40,048,,11,23,082,,19,23,308,*76
$GPGSV,3,3,12,06,16,262,20,04,11,138,23,08,10,117,22,30,01,221,*7D
$GPRMC,030305.900,A,3525.7021,N,13851.8083,E,24.01,100.26,051200,,,A*5E
$GPGGA,030306.000,3525.7019,N,13851.8091,E,1,5,1.88,996.6,M,39.1,M,,*55
$GPGSA,A,3,28,17,04,08,06,,,,,,,,2.87,1.88,2.17*0C
$GPGSV,3,1,12,03,68,086,,28,61,259,18,22,49,056,,50,46,199,*79
$GPGSV,3,2,12,17,43,318,18,01,40,048,,11,23,082,,19,23,308,*79
$GPGSV,3,3,12,06,16,262,20,04,11,138,23,08,10,117,23,30,01,221,*7C
$GPRMC,030306.000,A,3525.7019,N,13851.8091,E,23.98,100.41,051200,,,A*5A
$GPGGA,030306.100,3525.7018,N,13851.8100,E,1,5,1.88,996.6,M,39.1,M,,*5C
$GPGSA,A,3,28,17,04,08,06,,,,,,,,2.87,1.88,2.17*0C
$GPGSV,3,1,12,03,68,086,,28,61,259,18,22,49,056,,50,46,199,*79
$GPGSV,3,2,12,17,43,318,18,01,40,048,,11,23,082,,19,23,308,*79
$GPGSV,3,3,12,06,16,262,20,04,11,138,23,08,10,117,23,30,01,221,*7C
$GPRMC,030306.100,A,3525.7018,N,13851.8100,E,23.94,100.45,051200,,,A*5B
$GPGGA,030306.200,3525.7017,N,13851.8108,E,1,5,1.88,996.6,M,39.1,M,,*58
$GPGSA,A,3,28,17,04,08,06,,,,,,,,2.87,1.88,2.17*0C
$GPGSV,3,1,12,03,68,086,,28,61,259,18,22,49,056,,50,46,199,*79
$GPGSV,3,2,12,17,43,318,18,01,40,048,,11,23,082,,19,23,308,*79
$GPGSV,3,3,12,06,16,262,20,04,11,138,23,08,10,117,23,30,01,221,*7C
$GPRMC,030306.200,A,3525.7017,N,13851.8108,E,23.91,100.62,051200,,,A*5F
$GPGGA,030306.300,3525.7016,N,13851.8116,E,1,5,1.88,996.5,M,39.1,M,,*54
$GPGSA,A,3,28,17,04,08,06,,,,,,,,2.87,1.88,2.17*0C
$GPGSV,3,1,12,03,68,086,,28,61,259,18,22,49,056,,50,46,199,*79
$GPGSV,3,2,12,17,43,318,18,01,40,048,,11,23,082,,19,23,308,*79
$GPGSV,3,3,12,06,16,262,20,04,11,138,23,08,10,117,23,30,01,221,*7C
$GPRMC,030306.300,A,3525.7016,N,13851.8116,E,23.74,100.81,051200,,,A*56
$GPGGA,030306.400,3525.7014,N,13851.8124,E,1,7,1.42,996.5,M,39.1,M,,*54
$GPGSA,A,3,03,11,28,17,04,08,06,,,,,,2.13,1.42,1.59*0D
$GPGSV,3,1,12,03,68,086,23,28,61,259,18,22,49,056,,50,46,199,*78
$GPGSV,3,2,12,17,43,318,18,01,40,048,,11,23,082,20,19,23,308,*7B
$GPGSV,3,3,12,06,16,262,21,04,11,138,23,08,10,117,22,30,01,221,*7C
$GPRMC,030306.400,A,3525.7014,N,13851.8124,E,23.66,101.06,051200,,,A*5F
$GPGGA,030306.500,3525.7013,N,13851.8133,E,1,7,1.42,996.5,M,39.1,M,,*54
$GPGSA,A,3,03,11,28,17,04,08,06,,,,,,2.13,1.42,1.59*0D
$GPGSV,3,1,12,03,68,086,23,28,61,259,18,22,49,056,,50,46,199,*78
$GPGSV,3,2,12,17,43,318,18,01,40,048,,11,23,082,20,19,23,308,*7B
$GPGSV,3,3,12,06,16,262,22,04,11,138,23,08,10,117,22,30,01,221,*7F
$GPRMC,030306.500,A,3525.7013,N,13851.8133,E,23.54,101.22,051200,,,A*58
$GPGGA,030306.600,3525.7012,N,13851.8142,E,1,7,1.42,996.5,M,39.1,M,,*50
$GPGSA,A,3,03,11,28,17,04,08,06,,,,,,2.13,1.42,1.59*0D
$GPGSV,3,1,12,03,68,086,23,28,61,259,18,22,49,056,,50,46,199,*78
$GPGSV,3,2,12,17,43,318,18,01,40,048,,11,23,082,20,19,23,308,*7B
$GPGSV,3,3,12,06,16,262,23,04,11,138,23,08,10,117,22,30,01,221,*7E
$GPRMC,030306.600,A,3525.7012,N,13851.8142,E,23.40,101.34,051200,,,A*5E
$GPGGA,030306.700,3525.7010,N,13851.8151,E,1,8,1.21,996.4,M,39.1,M,,*5A
$GPGSA,A,3,03,11,28,17,04,08,01,06,,,,,1.99,1.21,1.57*06
$GPGSV,3,1,12,03,68,086,23,28,61,259,18,22,49,056,,50,46,199,*78
$GPGSV,3,2,12,17,43,318,18,01,40,048,25,11,23,082,20,19,23,308,*7C
$GPGSV,3,3,12,06,16,262,23,04,11,138,23,08,10,117,22,30,01,221,*7E
$GPRMC,030306.700,A,3525.7010,N,13851.8151,E,23.33,101.41,051200,,,A*59
$GPGGA,030306.800,3525.7009,N,13851.8159,E,1,8,1.21,996.4,M,39.1,M,,*55
$GPGSA,A,3,03,11,28,17,04,08,01,06,,,,,1.99,1.21,1.57*06
$GPGSV,3,1,12,03,68,086,23,28,61,259,18,22,49,056,,50,46,199,*78
$GPGSV,3,2,12,17,43,318,18,01,40,048,25,11,23,082,20,19,23,308,*7C
$GPGSV,3,3,12,06,16,262,23,04,11,138,22,08,10,117,22,30,01,221,*7F
$GPRMC,030306.800,A,3525.7009,N,13851.8159,E,23.22,101.25,051200,,,A*54
$GPGGA,030306.900,3525.7007,N,13851.8168,E,1,8,1.21,996.4,M,39.1,M,,*58
$GPGSA,A,3,03,11,28,17,04,08,01,06,,,,,1.98,1.21,1.57*07
$GPGSV,3,1,12,03,68,086,23,28,61,259,18,22,49,056,,50,46,199,*78
$GPGSV,3,2,12,17,43,318,18,01,40,048,25,11,23,082,20,19,23,308,*7C
$GPGSV,3,3,12,06,16,262,23,04,11,138,21,08,10,117,22,30,01,221,*7C
$GPRMC,030306.900,A,3525.7007,N,13851.8168,E,23.15,101.10,051200,,,A*5B
$GPGGA,030307.000,3525.7005,N,13851.8176,E,1,8,1.21,996.4,M,39.1,M,,*5D
$GPGSA,A,3,03,11,28,17,04,08,01,06,,,,,1.98,1.21,1.57*07
$GPGSV,3,1,12,03,68,086,23,28,61,259,18,22,49,056,,50,46,199,*78
$GPGSV,3,2,12,17,43,318,18,01,40,048,25,11,23,082,20,19,23,308,*7C
$GPGSV,3,3,12,06,16,262,23,04,11,138,21,08,10,117,22,30,01,221,*7C
$GPRMC,030307.000,A,3525.7005,N,13851.8176,E,23.00,100.92,051200,,,A*51
$GPGGA,030307.100,3525.7002,N,13851.8183,E,1,8,1.21,996.4,M,39.1,M,,*51
$GPGSA,A,3,03,11,28,17,04,08,01,06,,,,,1.98,1.21,1.57*07
$GPGSV,3,1,12,03,68,086,20,28,61,259,18,22,49,056,,50,46,199,*7B
$GPGSV,3,2,12,17,43,318,18,01,40,048,25,11,23,082,20,19,23,308,*7C
$GPGSV,3,3,12,06,16,262,23,04,11,138,21,08,10,117,21,30,01,221,*7F
$GPRMC,030307.100,A,3525.7002,N,13851.8183,E,22.92,100.86,051200,,,A*52
$GPGGA,030307.200,3525.6989,N,13851.8189,E,1,8,1.21,996.3,M,39.1,M,,*54
$GPGSA,A,3,03,11,28,17,04,08,01,06,,,,,1.98,1.21,1.57*07
$GPGSV,3,1,12,03,68,086,20,28,61,259,18,22,49,056,,50,46,199,*7B
$GPGSV,3,2,12,17,43,318,30,01,40,048,25,11,23,082,20,19,23,308,*76
$GPGSV,3,3,12,06,16,262,23,04,11,138,21,08,10,117,21,30,01,221,*7F
$GPRMC,030307.200,A,3525.6989,N,13851.8189,E,22.90,102.98,051200,,,A*5F
$GPGGA,030307.300,3525.6983,N,13851.8196,E,1,8,1.21,996.3,M,39.1,M,,*51
$GPGSA,A,3,03,11,28,17,04,08,01,06,,,,,1.99,1.21,1.57*06
$GPGSV,3,1,12,03,68,086,20,28,61,259,18,22,49,056,,50,46,199,*7B
$GPGSV,3,2,12,17,43,318,30,01,40,048,25,11,23,082,20,19,23,308,*76
$GPGSV,3,3,12,06,16,262,23,04,11,138,21,08,10,117,21,30,01,221,*7F
$GPRMC,030307.300,A,3525.6983,N,13851.8196,E,22.83,103.82,051200,,,A*52
$GPGGA,030307.400,3525.6979,N,13851.8204,E,1,8,1.21,996.3,M,39.1,M,,*5B
$GPGSA,A,3,03,11,28,17,04,08,01,06,,,,,1.99,1.21,1.57*06
$GPGSV,3,1,12,03,68,086,20,28,61,259,18,22,49,056,,50,46,199,*7B
$GPGSV,3,2,12,17,43,318,30,01,40,048,25,11,23,082,20,19,23,308,*76
$GPGSV,3,3,12,06,16,262,23,04,11,138,21,08,10,117,21,30,01,221,*7F
$GPRMC,030307.400,A,3525.6979,N,13851.8204,E,22.83,104.34,051200,,,A*52
$GPGGA,030307.500,3525.6973,N,13851.8211,E,1,8,1.21,996.2,M,39.1,M,,*55
$GPGSA,A,3,03,11,28,17,04,08,01,06,,,,,1.99,1.21,1.57*06
$GPGSV,3,1,12,03,68,086,20,28,61,259,18,22,49,056,,50,46,199,*7B
$GPGSV,3,2,12,17,43,318,30,01,40,048,25,11,23,082,20,19,23,308,*76
$GPGSV,3,3,12,06,16,262,23,04,11,138,22,08,10,117,21,30,01,221,*7C
$GPRMC,030307.500,A,3525.6973,N,13851.8211,E,22.81,104.69,051200,,,A*57
$GPGGA,030307.600,3525.6969,N,13851.8218,E,1,8,1.21,996.2,M,39.1,M,,*54
$GPGSA,A,3,03,11,28,17,04,08,01,06,,,,,1.99,1.21,1.57*06
$GPGSV,3,1,12,03,68,086,20,28,61,259,18,22,49,056,,50,46,199,*7B
$GPGSV,3,2,12,17,43,318,30,01,40,048,25,11,23,082,20,19,23,308,*76
$GPGSV,3,3,12,06,16,262,23,04,11,138,23,08,10,117,21,30,01,221,*7D
$GPRMC,030307.600,A,3525.6969,N,13851.8218,E,22.78,104.65,051200,,,A*5C
$GPGGA,030307.700,3525.6965,N,13851.8226,E,1,8,1.21,996.1,M,39.1,M,,*57
$GPGSA,A,3,03,11,28,17,04,08,01,06,,,,,1.98,1.21,1.57*07
$GPGSV,3,1,12,03,68,086,21,28,61,259,18,22,49,056,,50,46,199,*7A
$GPGSV,3,2,12,17,43,318,30,01,40,048,20,11,23,082,20,19,23,308,*73
$GPGSV,3,3,12,06,16,262,23,04,11,138,23,08,10,117,19,30,01,221,*76
$GPRMC,030307.700,A,3525.6965,N,13851.8226,E,22.76,104.80,051200,,,A*59
$GPGGA,030307.800,3525.6963,N,13851.8233,E,1,8,1.21,996.1,M,39.1,M,,*5A
$GPGSA,A,3,03,11,28,17,04,08,01,06,,,,,1.99,1.21,1.57*06
$GPGSV,3,1,12,03,68,086,21,28,61,259,18,22,49,056,,50,46,199,*7A
$GPGSV,3,2,12,17,43,318,28,01,40,048,20,11,23,082,20,19,23,308,*7A
$GPGSV,3,3,12,06,16,262,23,04,11,138,23,08,10,117,18,30,01,221,*77
$GPRMC,030307.800,A,3525.6963,N,13851.8233,E,22.61,104.90,051200,,,A*53
$GPGGA,030307.900,3525.6961,N,13851.8241,E,1,8,1.21,996.1,M,39.1,M,,*5C
$GPGSA,A,3,03,11,28,17,04,08,01,06,,,,,1.98,1.21,1.57*07
$GPGSV,3,1,12,03,68,086,21,28,61,259,18,22,49,056,,50,46,199,*7A
$GPGSV,3,2,12,17,43,318,27,01,40,048,20,11,23,082,20,19,23,308,*75
$GPGSV,3,3,12,06,16,262,23,04,11,138,23,08,10,117,17,30,01,221,*78
$GPRMC,030307.900,A,3525.6961,N,13851.8241,E,22.45,105.11,051200,,,A*5B
$GPGGA,030308.000,3525.6959,N,13851.8248,E,1,8,1.21,996.0,M,39.1,M,,*59
$GPGSA,A,3,03,11,28,17,04,08,01,06,,,,,1.98,1.21,1.57*07
$GPGSV,3,1,12,03,68,086,21,28,61,259,18,22,49,056,,50,46,199,*7A
$GPGSV,3,2,12,17,43,318,26,01,40,048,20,11,23,082,20,19,23,308,*74
$GPGSV,3,3,12,06,16,262,23,04,11,138,23,08,10,117,16,30,01,221,*79
$GPRMC,030308.000,A,3525.6959,N,13851.8248,E,22.42,105.34,051200,,,A*5F
$GPGGA,030308.100,3525.6957,N,13851.8256,E,1,8,1.21,996.0,M,39.1,M,,*59
$GPGSA,A,3,03,11,28,17,04,08,01,06,,,,,1.99,1.21,1.57*06
$GPGSV,3,1,12,03,68,086,21,28,61,259,18,22,49,056,,50,46,199,*7A
$GPGSV,3,2,12,17,43,318,25,01,40,048,20,11,23,082,20,19,23,308,*77
$GPGSV,3,3,12,06,16,262,24,04,11,138,23,08,10,117,16,30,01,221,*7E
$GPRMC,030308.100,A,3525.6957,N,13851.8256,E,22.40,105.57,051200,,,A*58
$GPGGA,030308.200,3525.6955,N,13851.8264,E,1,8,1.21,996.0,M,39.1,M,,*59
$GPGSA,A,3,03,11,28,17,04,08,01,06,,,,,1.99,1.21,1.57*06
$GPGSV,3,1,12,03,68,086,21,28,61,259,18,22,49,056,,50,46,199,*7A
$GPGSV,3,2,12,17,43,318,25,01,40,048,20,11,23,082,20,19,23,308,*77
$GPGSV,3,3,12,06,16,262,25,04,11,138,23,08,10,117,16,30,01,221,*7F
$GPRMC,030308.200,A,3525.6955,N,13851.8264,E,22.47,105.66,051200,,,A*5D
$GPGGA,030308.300,3525.6953,N,13851.8271,E,1,8,1.21,995.9,M,39.1,M,,*50
$GPGSA,A,3,03,11,28,17,04,08,01,06,,,,,1.98,1.21,1.57*07
$GPGSV,3,1,12,03,68,086,21,28,61,259,18,22,49,056,,50,46,199,*7A
$GPGSV,3,2,12,17,43,318,25,01,40,048,20,11,23,082,20,19,23,308,*77
$GPGSV,3,3,12,06,16,262,25,04,11,138,23,08,10,117,16,30,01,221,*7F
$GPRMC,030308.300,A,3525.6953,N,13851.8271,E,22.58,105.57,051200,,,A*52
$GPGGA,030308.400,3525.6949,N,13851.8278,E,1,8,1.21,995.9,M,39.1,M,,*55
$GPGSA,A,3,03,11,28,17,04,08,01,06,,,,,1.99,1.21,1.57*06
$GPGSV,3,1,12,03,68,086,21,28,61,259,18,22,49,056,,50,46,199,*7A
$GPGSV,3,2,12,17,43,318,32,01,40,048,20,11,23,082,22,19,23,308,*73
$GPGSV,3,3,12,06,16,262,25,04,11,138,23,08,10,117,16,30,01,221,*7F
$GPRMC,030308.400,A,3525.6949,N,13851.8278,E,22.67,105.43,051200,,,A*5E
$GPGGA,030308.500,3525.6946,N,13851.8285,E,1,8,1.21,995.8,M,39.1,M,,*58
$GPGSA,A,3,03,11,28,17,04,08,01,06,,,,,1.99,1.21,1.57*06
$GPGSV,3,1,12,03,68,086,21,28,61,259,18,22,49,056,,50,46,199,*7A
$GPGSV,3,2,12,17,43,318,32,01,40,048,20,11,23,082,22,19,23,308,*73
$GPGSV,3,3,12,06,16,262,25,04,11,138,23,08,10,117,16,30,01,221,*7F
$GPRMC,030308.500,A,3525.6946,N,13851.8285,E,22.71,105.06,051200,,,A*54
$GPGGA,030308.600,3525.6943,N,13851.8292,E,1,8,1.21,995.8,M,39.1,M,,*58
$GPGSA,A,3,03,11,28,17,04,08,01,06,,,,,1.99,1.21,1.57*06
$GPGSV,3,1,12,03,68,086,21,28,61,259,18,22,49,056,,50,46,199,*7A
$GPGSV,3,2,12,17,43,318,32,01,40,048,20,11,23,082,22,19,23,308,*73
$GPGSV,3,3,12,06,16,262,25,04,11,138,23,08,10,117,16,30,01,221,*7F
$GPRMC,030308.600,A,3525.6943,N,13851.8292,E,22.77,104.64,051200,,,A*57
$GPGGA,030308.700,3525.6940,N,13851.8299,E,1,8,1.21,995.8,M,39.1,M,,*51
$GPGSA,A,3,03,11,28,17,04,08,01,06,,,,,1.99,1.21,1.57*06
$GPGSV,3,1,12,03,68,086,21,28,61,259,18,22,49,056,,50,46,199,*7A
$GPGSV,3,2,12,17,43,318,32,01,40,048,20,11,23,082,22,19,23,308,*73
$GPGSV,3,3,12,06,16,262,25,04,11,138,21,08,10,117,16,30,01,221,*7D
$GPRMC,030308.700,A,3525.6940,N,13851.8299,E,22.83,104.68,051200,,,A*59
$GPGGA,030308.800,3525.6936,N,13851.8306,E,1,8,1.21,995.7,M,39.1,M,,*57
$GPGSA,A,3,03,11,28,17,04,08,01,06,,,,,1.99,1.21,1.57*06
$GPGSV,3,1,12,03,68,086,21,28,61,259,18,22,49,056,,50,46,199,*7A
$GPGSV,3,2,12,17,43,318,32,01,40,048,20,11,23,082,22,19,23,308,*73
$GPGSV,3,3,12,06,16,262,25,04,11,138,20,08,10,117,16,30,01,221,*7C
$GPRMC,030308.800,A,3525.6936,N,13851.8306,E,22.83,104.64,051200,,,A*5C
$GPGGA,030308.900,3525.6934,N,13851.8313,E,1,8,1.21,995.7,M,39.1,M,,*50
$GPGSA,A,3,03,11,28,17,04,08,01,06,,,,,1.99,1.21,1.57*06
$GPGSV,3,1,12,03,68,086,21,28,61,259,18,22,49,056,,50,46,199,*7A
$GPGSV,3,2,12,17,43,318,32,01,40,048,20,11,23,082,22,19,23,308,*73
$GPGSV,3,3,12,06,16,262,25,04,11,138,19,08,10,117,16,30,01,221,*76
$GPRMC,030308.900,A,3525.6934,N,13851.8313,E,22.77,104.41,051200,,,A*57
$GPGGA,030309.000,3525.6932,N,13851.8320,E,1,8,1.21,995.6,M,39.1,M,,*5F
$GPGSA,A,3,03,11,28,17,04,08,01,06,,,,,1.99,1.21,1.57*06
$GPGSV,3,1,12,03,68,086,21,28,61,259,18,22,49,056,,50,46,199,*7A
$GPGSV,3,2,12,17,43,318,31,01,40,048,17,11,23,082,21,19,23,308,*77
$GPGSV,3,3,12,06,16,262,25,04,11,138,18,08,10,117,17,30,01,221,*76
$GPRMC,030309.000,A,3525.6932,N,13851.8320,E,22.67,104.11,051200,,,A*5D
$GPGGA,030309.100,3525.6931,N,13851.8328,E,1,8,1.21,995.6,M,39.1,M,,*55
$GPGSA,A,3,03,11,28,17,04,08,01,06,,,,,1.99,1.21,1.57*06
$GPGSV,3,1,12,03,68,086,21,28,61,259,18,22,49,056,,50,46,199,*7A
$GPGSV,3,2,12,17,43,318,31,01,40,048,17,11,23,082,21,19,23,308,*77
$GPGSV,3,3,12,06,16,262,24,04,11,138,18,08,10,117,18,30,01,221,*78
$GPRMC,030309.100,A,3525.6931,N,13851.8328,E,22.50,103.72,051200,,,A*51
$GPGGA,030309.200,3525.6930,N,13851.8335,E,1,8,1.21,995.6,M,39.1,M,,*5B
$GPGSA,A,3,03,11,28,17,04,08,01,06,,,,,1.98,1.21,1.57*07
$GPGSV,3,1,12,03,68,086,21,28,61,259,18,22,49,056,,50,46,199,*7A
$GPGSV,3,2,12,17,43,318,31,01,40,048,17,11,23,082,21,19,23,308,*77
$GPGSV,3,3,12,06,16,262,24,04,11,138,18,08,10,117,18,30,01,221,*78
$GPRMC,030309.200,A,3525.6930,N,13851.8335,E,22.34,103.40,051200,,,A*5C
$GPGGA,030309.300,3525.6929,N,13851.8342,E,1,8,1.21,995.5,M,39.1,M,,*51
$GPGSA,A,3,03,11,28,17,04,08,01,06,,,,,1.99,1.21,1.57*06
$GPGSV,3,1,12,03,68,086,19,28,61,259,18,22,49,056,,50,46,199,*71
$GPGSV,3,2,12,17,43,318,31,01,40,048,17,11,23,082,21,19,23,308,*77
$GPGSV,3,3,12,06,16,262,24,04,11,138,18,08,10,117,18,30,01,221,*78
$GPRMC,030309.300,A,3525.6929,N,13851.8342,E,22.16,103.23,051200,,,A*50
$GPGGA,030309.400,3525.6928,N,13851.8349,E,1,8,1.21,995.5,M,39.1,M,,*5C
$GPGSA,A,3,03,11,28,17,04,08,01,06,,,,,1.99,1.21,1.57*06
$GPGSV,3,1,12,03,68,086,19,28,61,259,18,22,49,056,,50,46,199,*71
$GPGSV,3,2,12,17,43,318,31,01,40,048,17,11,23,082,21,19,23,308,*77
$GPGSV,3,3,12,06,16,262,24,04,11,138,18,08,10,117,18,30,01,221,*78
$GPRMC,030309.400,A,3525.6928,N,13851.8349,E,22.08,103.02,051200,,,A*51
$GPGGA,030309.500,3525.6926,N,13851.8356,E,1,9,1.18,995.4,M,39.1,M,,*57
$GPGSA,A,3,03,11,28,17,04,08,01,22,06,,,,1.96,1.18,1.56*02
$GPGSV,3,1,12,03,68,086,19,28,61,259,18,22,49,056,23,50,46,199,*70
$GPGSV,3,2,12,17,43,318,23,01,40,048,17,11,23,082,21,19,23,308,*74
$GPGSV,3,3,12,06,16,262,24,04,11,138,18,08,10,117,18,30,01,221,*78
$GPRMC,030309.500,A,3525.6926,N,13851.8356,E,22.12,102.84,051200,,,A*54
$GPGGA,030309.600,3525.6925,N,13851.8364,E,1,9,1.18,995.4,M,39.1,M,,*56
$GPGSA,A,3,03,11,28,17,04,08,01,22,06,,,,1.96,1.18,1.56*02
$GPGSV,3,1,12,03,68,086,19,28,61,259,18,22,49,056,23,50,46,199,*70
$GPGSV,3,2,12,17,43,318,23,01,40,048,17,11,23,082,21,19,23,308,*74
$GPGSV,3,3,12,06,16,262,24,04,11,138,18,08,10,117,18,30,01,221,*78
$GPRMC,030309.600,A,3525.6925,N,13851.8364,E,22.26,102.61,051200,,,A*59
$GPGGA,030309.700,3525.6924,N,13851.8371,E,1,9,1.18,995.3,M,39.1,M,,*55
$GPGSA,A,3,03,11,28,17,04,08,01,22,06,,,,1.96,1.18,1.56*02
$GPGSV,3,1,12,03,68,086,19,28,61,259,18,22,49,056,23,50,46,199,*70
$GPGSV,3,2,12,17,43,318,23,01,40,048,17,11,23,082,21,19,23,308,*74
$GPGSV,3,3,12,06,16,262,24,04,11,138,18,08,10,117,18,30,01,221,*78
$GPRMC,030309.700,A,3525.6924,N,13851.8371,E,22.34,102.30,051200,,,A*5A
$GPGGA,030309.800,3525.6922,N,13851.8379,E,1,9,1.18,995.3,M,39.1,M,,*54
$GPGSA,A,3,03,11,28,17,04,08,01,22,06,,,,1.95,1.18,1.56*01
$GPGSV,3,1,12,03,68,086,19,28,61,259,17,22,49,056,23,50,46,199,*7F
$GPGSV,3,2,12,17,43,318,23,01,40,048,17,11,23,082,21,19,23,308,*74
$GPGSV,3,3,12,06,16,262,23,04,11,138,18,08,10,117,18,30,01,221,*7F
$GPRMC,030309.800,A,3525.6922,N,13851.8379,E,22.32,102.10,051200,,,A*5F
$GPGGA,030309.900,3525.6921,N,13851.8386,E,1,9,1.18,995.2,M,39.1,M,,*57
$GPGSA,A,3,03,11,28,17,04,08,01,22,06,,,,1.96,1.18,1.56*02
$GPGSV,3,1,12,03,68,086,19,28,61,259,17,22,49,056,23,50,46,199,*7F
$GPGSV,3,2,12,17,43,318,23,01,40,048,17,11,23,082,21,19,23,308,*74
$GPGSV,3,3,12,06,16,262,23,04,11,138,18,08,10,117,18,30,01,221,*7F
$GPRMC,030309.900,A,3525.6921,N,13851.8386,E,22.31,101.87,051200,,,A*53
$GPGGA,030310.000,3525.6920,N,13851.8394,E,1,9,1.18,995.1,M,39.1,M,,*57
$GPGSA,A,3,03,11,28,17,04,08,01,22,06,,,,1.96,1.18,1.56*02
$GPGSV,3,1,12,03,68,086,21,28,61,259,17,22,49,056,23,50,46,199,*74
$GPGSV,3,2,12,17,43,318,23,01,40,048,17,11,23,082,17,19,23,308,*71
$GPGSV,3,3,12,06,16,262,23,04,11,138,18,08,10,117,18,30,01,221,*7F
$GPRMC,030310.000,A,3525.6920,N,13851.8394,E,22.35,101.55,051200,,,A*5B
$GPGGA,030310.100,3525.6919,N,13851.8401,E,1,10,1.03,995.1,M,39.1,M,,*65
$GPGSA,A,3,03,11,28,17,04,08,01,22,19,06,,,1.70,1.03,1.36*0E
$GPGSV,3,1,12,03,68,086,21,28,61,259,17,22,49,056,23,50,46,199,*74
$GPGSV,3,2,12,17,43,318,23,01,40,048,17,11,23,082,17,19,23,308,20*73
$GPGSV,3,3,12,06,16,262,23,04,11,138,18,08,10,117,18,30,01,221,*7F
$GPRMC,030310.100,A,3525.6919,N,13851.8401,E,22.34,101.26,051200,,,A*5E
$GPGGA,030310.200,3525.6918,N,13851.8409,E,1,10,1.03,995.0,M,39.1,M,,*6E
$GPGSA,A,3,03,11,28,17,04,08,01,22,19,06,,,1.71,1.03,1.36*0F
$GPGSV,3,1,12,03,68,086,21,28,61,259,17,22,49,056,23,50,46,199,*74
$GPGSV,3,2,12,17,43,318,22,01,40,048,17,11,23,082,17,19,23,308,20*72
$GPGSV,3,3,12,06,16,262,23,04,11,138,18,08,10,117,18,30,01,221,*7F
$GPRMC,030310.200,A,3525.6918,N,13851.8409,E,22.37,101.10,051200,,,A*52
$GPGGA,030310.300,3525.6917,N,13851.8416,E,1,10,1.03,995.0,M,39.1,M,,*6E
$GPGSA,A,3,03,11,28,17,04,08,01,22,19,06,,,1.70,1.03,1.36*0E
$GPGSV,3,1,12,03,68,086,21,28,61,259,17,22,49,056,23,50,46,199,*74
$GPGSV,3,2,12,17,43,318,21,01,40,048,17,11,23,082,17,19,23,308,20*71
$GPGSV,3,3,12,06,16,262,24,04,11,138,18,08,10,117,18,30,01,221,*78
$GPRMC,030310.300,A,3525.6917,N,13851.8416,E,22.46,100.86,051200,,,A*5A
$GPGGA,030310.400,3525.6916,N,13851.8424,E,1,10,1.03,994.9,M,39.1,M,,*61
$GPGSA,A,3,03,11,28,17,04,08,01,22,19,06,,,1.70,1.03,1.36*0E
$GPGSV,3,1,12,03,68,086,21,28,61,259,17,22,49,056,23,50,46,199,*74
$GPGSV,3,2,12,17,43,318,20,01,40,048,17,11,23,082,17,19,23,308,20*70
$GPGSV,3,3,12,06,16,262,25,04,11,138,18,08,10,117,18,30,01,221,*79
$GPRMC,030310.400,A,3525.6916,N,13851.8424,E,22.55,100.69,051200,,,A*5E
$GPGGA,030310.500,3525.6915,N,13851.8432,E,1,10,1.03,994.9,M,39.1,M,,*64
$GPGSA,A,3,03,11,28,17,04,08,01,22,19,06,,,1.71,1.03,1.36*0F
$GPGSV,3,1,12,03,68,086,21,28,61,259,17,22,49,056,26,50,46,199,*71
$GPGSV,3,2,12,17,43,318,20,01,40,048,17,11,23,082,17,19,23,308,20*70
$GPGSV,3,3,12,06,16,262,25,04,11,138,18,08,10,117,18,30,01,221,*79
$GPRMC,030310.500,A,3525.6915,N,13851.8432,E,22.67,100.56,051200,,,A*56
$GPGGA,030310.600,3525.6914,N,13851.8439,E,1,10,1.03,994.8,M,39.1,M,,*6C
$GPGSA,A,3,03,11,28,17,04,08,01,22,19,06,,,1.70,1.03,1.36*0E
$GPGSV,3,1,12,03,68,086,24,28,61,259,17,22,49,056,26,50,46,199,*74
$GPGSV,3,2,12,17,43,318,20,01,40,048,17,11,23,082,17,19,23,308,20*70
$GPGSV,3,3,12,06,16,262,25,04,11,138,18,08,10,117,18,30,01,221,*79
$GPRMC,030310.600,A,3525.6914,N,13851.8439,E,22.75,100.44,051200,,,A*5F
$GPGGA,030310.700,3525.6913,N,13851.8447,E,1,10,1.03,994.7,M,39.1,M,,*6C
$GPGSA,A,3,03,11,28,17,04,08,01,22,19,06,,,1.70,1.03,1.36*0E
$GPGSV,3,1,12,03,68,086,24,28,61,259,17,22,49,056,26,50,46,199,*74
$GPGSV,3,2,12,17,43,318,20,01,40,048,17,11,23,082,17,19,23,308,20*70
$GPGSV,3,3,12,06,16,262,25,04,11,138,18,08,10,117,18,30,01,221,*79
$GPRMC,030310.700,A,3525.6913,N,13851.8447,E,23.03,100.29,051200,,,A*5B
$GPGGA,030310.800,3525.6911,N,13851.8455,E,1,10,1.03,994.6,M,39.1,M,,*63
$GPGSA,A,3,03,11,28,17,04,08,01,22,19,06,,,1.70,1.03,1.36*0E
$GPGSV,3,1,12,03,68,086,24,28,61,259,17,22,49,056,26,50,46,199,*74
$GPGSV,3,2,12,17,43,318,21,01,40,048,17,11,23,082,17,19,23,308,16*74
$GPGSV,3,3,12,06,16,262,25,04,11,138,18,08,10,117,18,30,01,221,*79
$GPRMC,030310.800,A,3525.6911,N,13851.8455,E,23.11,100.32,051200,,,A*5C
$GPGGA,030310.900,3525.6910,N,13851.8462,E,1,10,1.03,994.5,M,39.1,M,,*64
$GPGSA,A,3,03,11,28,17,04,08,01,22,19,06,,,1.70,1.03,1.36*0E
$GPGSV,3,1,12,03,68,086,24,28,61,259,17,22,49,056,26,50,46,199,*74
$GPGSV,3,2,12,17,43,318,22,01,40,048,17,11,23,082,17,19,23,308,16*77
$GPGSV,3,3,12,06,16,262,25,04,11,138,18,08,10,117,18,30,01,221,*79
$GPRMC,030310.900,A,3525.6910,N,13851.8462,E,23.05,100.46,051200,,,A*5E
$GPGGA,030311.000,3525.6908,N,13851.8470,E,1,10,1.03,994.4,M,39.1,M,,*67
$GPGSA,A,3,03,11,28,17,04,08,01,22,19,06,,,1.70,1.03,1.36*0E
$GPGSV,3,1,12,03,68,086,24,28,61,259,17,22,49,056,26,50,46,199,*74
$GPGSV,3,2,12,17,43,318,23,01,40,048,17,11,23,082,17,19,23,308,16*76
$GPGSV,3,3,12,06,16,262,24,04,11,138,18,08,10,117,18,30,01,221,*78
$GPRMC,030311.000,A,3525.6908,N,13851.8470,E,23.07,100.84,051200,,,A*50
$GPGGA,030311.100,3525.6907,N,13851.8477,E,1,10,1.03,994.3,M,39.1,M,,*69
$GPGSA,A,3,03,11,28,17,04,08,01,22,19,06,,,1.70,1.03,1.36*0E
$GPGSV,3,1,12,03,68,086,24,28,61,259,19,22,49,056,26,50,46,199,*7A
$GPGSV,3,2,12,17,43,318,23,01,40,048,17,11,23,082,17,19,23,308,16*76
$GPGSV,3,3,12,06,16,262,23,04,11,138,18,08,10,117,18,30,01,221,*7F
$GPRMC,030311.100,A,3525.6907,N,13851.8477,E,23.07,101.14,051200,,,A*51
$GPGGA,030311.200,3525.6905,N,13851.8484,E,1,10,1.03,994.1,M,39.1,M,,*66
$GPGSA,A,3,03,11,28,17,04,08,01,22,19,06,,,1.70,1.03,1.36*0E
$GPGSV,3,1,12,03,68,086,24,28,61,259,20,22,49,056,26,50,46,199,*70
$GPGSV,3,2,12,17,43,318,23,01,40,048,17,11,23,082,17,19,23,308,16*76
$GPGSV,3,3,12,06,16,262,23,04,11,138,19,08,10,117,18,30,01,221,*7E
$GPRMC,030311.200,A,3525.6905,N,13851.8484,E,23.04,101.48,051200,,,A*56
$GPGGA,030311.300,3525.6904,N,13851.8492,E,1,10,1.03,994.0,M,39.1,M,,*60
$GPGSA,A,3,03,11,28,17,04,08,01,22,19,06,,,1.70,1.03,1.36*0E
$GPGSV,3,1,12,03,68,086,20,28,61,259,21,22,49,056,26,50,46,199,*75
$GPGSV,3,2,12,17,43,318,23,01,40,048,17,11,23,082,13,19,23,308,16*72
$GPGSV,3,3,12,06,16,262,23,04,11,138,20,08,10,117,18,30,01,221,*74
$GPRMC,030311.300,A,3525.6904,N,13851.8492,E,23.04,101.54,051200,,,A*5C
$GPGGA,030311.400,3525.6903,N,13851.8499,E,1,10,1.03,993.9,M,39.1,M,,*65
$GPGSA,A,3,03,11,28,17,04,08,01,22,19,06,,,1.71,1.03,1.36*0F
$GPGSV,3,1,12,03,68,086,20,28,61,259,22,22,49,056,26,50,46,199,*76
$GPGSV,3,2,12,17,43,318,23,01,40,048,17,11,23,082,13,19,23,308,16*72
$GPGSV,3,3,12,06,16,262,23,04,11,138,20,08,10,117,18,30,01,221,*74
$GPRMC,030311.400,A,3525.6903,N,13851.8499,E,23.02,101.37,051200,,,A*54
$GPGGA,030311.500,3525.6901,N,13851.8506,E,1,10,1.03,993.8,M,39.1,M,,*60
$GPGSA,A,3,03,11,28,17,04,08,01,22,19,06,,,1.70,1.03,1.36*0E
$GPGSV,3,1,12,03,68,086,20,28,61,259,22,22,49,056,20,50,46,199,*70
$GPGSV,3,2,12,17,43,318,23,01,40,048,17,11,23,082,13,19,23,308,16*72
$GPGSV,3,3,12,06,16,262,23,04,11,138,20,08,10,117,18,30,01,221,*74
$GPRMC,030311.500,A,3525.6901,N,13851.8506,E,22.96,101.32,051200,,,A*59
$GPGGA,030311.600,3525.6900,N,13851.8514,E,1,10,1.03,993.7,M,39.1,M,,*6E
$GPGSA,A,3,03,11,28,17,04,08,01,22,19,06,,,1.70,1.03,1.36*0E
$GPGSV,3,1,12,03,68,086,20,28,61,259,22,22,49,056,20,50,46,199,*70
$GPGSV,3,2,12,17,43,318,23,01,40,048,17,11,23,082,13,19,23,308,16*72
$GPGSV,3,3,12,06,16,262,23,04,11,138,20,08,10,117,18,30,01,221,*74
$GPRMC,030311.600,A,3525.6900,N,13851.8514,E,22.83,100.96,051200,,,A*53
$GPGGA,030311.700,3525.6899,N,13851.8521,E,1,10,1.03,993.6,M,39.1,M,,*69
$GPGSA,A,3,03,11,28,17,04,08,01,22,19,06,,,1.70,1.03,1.36*0E
$GPGSV,3,1,12,03,68,086,20,28,61,259,21,22,49,056,20,50,46,199,*73
$GPGSV,3,2,12,17,43,318,23,01,40,048,17,11,23,082,13,19,23,308,16*72
$GPGSV,3,3,12,06,16,262,23,04,11,138,20,08,10,117,18,30,01,221,*74
$GPRMC,030311.700,A,3525.6899,N,13851.8521,E,22.64,100.49,051200,,,A*5E
$GPGGA,030311.800,3525.6897,N,13851.8528,E,1,10,1.03,993.5,M,39.1,M,,*62
$GPGSA,A,3,03,11,28,17,04,08,01,22,19,06,,,1.71,1.03,1.36*0F
$GPGSV,3,1,12,03,68,086,20,28,61,259,20,22,49,056,20,50,46,199,*72
$GPGSV,3,2,12,17,43,318,34,01,40,048,17,11,23,082,13,19,23,308,16*74
$GPGSV,3,3,12,06,16,262,23,04,11,138,20,08,10,117,18,30,01,221,*74
$GPRMC,030311.800,A,3525.6897,N,13851.8528,E,22.14,98.57,051200,,,A*6E
$GPGGA,030311.900,3525.6896,N,13851.8535,E,1,10,1.03,993.3,M,39.1,M,,*68
$GPGSA,A,3,03,11,28,17,04,08,01,22,19,06,,,1.70,1.03,1.36*0E
$GPGSV,3,1,12,03,68,086,20,28,61,259,20,22,49,056,20,50,46,199,*72
$GPGSV,3,2,12,17,43,318,34,01,40,048,17,11,23,082,13,19,23,308,16*74
$GPGSV,3,3,12,06,16,262,23,04,11,138,21,08,10,117,18,30,01,221,*75
$GPRMC,030311.900,A,3525.6896,N,13851.8535,E,22.07,98.14,051200,,,A*67
$GPGGA,030312.000,3525.6890,N,13851.8542,E,1,10,1.03,993.2,M,39.1,M,,*65
$GPGSA,A,3,03,11,28,17,04,08,01,22,19,06,,,1.70,1.03,1.36*0E
$GPGSV,3,1,12,03,68,086,18,28,61,259,20,22,49,056,20,50,46,199,*79
$GPGSV,3,2,12,17,43,318,34,01,40,048,17,11,23,082,13,19,23,308,16*74
$GPGSV,3,3,12,06,16,262,23,04,11,138,22,08,10,117,18,30,01,221,*76
$GPRMC,030312.000,A,3525.6890,N,13851.8542,E,21.81,97.51,051200,,,A*68
$GPGGA,030312.100,3525.6886,N,13851.8549,E,1,10,1.03,993.2,M,39.1,M,,*68
$GPGSA,A,3,03,11,28,17,04,08,01,22,19,06,,,1.71,1.03,1.36*0F
$GPGSV,3,1,12,03,68,086,18,28,61,259,20,22,49,056,20,50,46,199,*79
$GPGSV,3,2,12,17,43,318,34,01,40,048,17,11,23,082,13,19,23,308,23*72
$GPGSV,3,3,12,06,16,262,23,04,11,138,22,08,10,117,18,30,01,221,*76
$GPRMC,030312.100,A,3525.6886,N,13851.8549,E,21.67,97.47,051200,,,A*6A
$GPGGA,030312.200,3525.6880,N,13851.8556,E,1,10,1.03,993.1,M,39.1,M,,*60
$GPGSA,A,3,03,11,28,17,04,08,01,22,19,06,,,1.70,1.03,1.36*0E
$GPGSV,3,1,12,03,68,086,18,28,61,259,20,22,49,056,16,50,46,199,*7C
$GPGSV,3,2,12,17,43,318,34,01,40,048,17,11,23,082,13,19,23,308,23*72
$GPGSV,3,3,12,06,16,262,23,04,11,138,22,08,10,117,18,30,01,221,*76
$GPRMC,030312.200,A,3525.6880,N,13851.8556,E,21.46,97.09,051200,,,A*68
$GPGGA,030312.300,3525.6874,N,13851.8562,E,1,10,1.03,993.0,M,39.1,M,,*6C
$GPGSA,A,3,03,11,28,17,04,08,01,22,19,06,,,1.71,1.03,1.36*0F
$GPGSV,3,1,12,03,68,086,18,28,61,259,20,22,49,056,16,50,46,199,*7C
$GPGSV,3,2,12,17,43,318,34,01,40,048,17,11,23,082,13,19,23,308,23*72
$GPGSV,3,3,12,06,16,262,23,04,11,138,22,08,10,117,18,30,01,221,*76
$GPRMC,030312.300,A,3525.6874,N,13851.8562,E,21.34,96.98,051200,,,A*69
$GPGGA,030312.400,3525.6870,N,13851.8569,E,1,10,1.03,992.9,M,39.1,M,,*6C
$GPGSA,A,3,03,11,28,17,04,08,01,22,19,06,,,1.71,1.03,1.36*0F
$GPGSV,3,1,12,03,68,086,18,28,61,259,19,22,49,056,16,50,46,199,*76
$GPGSV,3,2,12,17,43,318,33,01,40,048,17,11,23,082,13,19,23,308,23*75
$GPGSV,3,3,12,06,16,262,23,04,11,138,22,08,10,117,18,30,01,221,*76
$GPRMC,030312.400,A,3525.6870,N,13851.8569,E,21.14,96.79,051200,,,A*6C
$GPGGA,030312.500,3525.6868,N,13851.8576,E,1,10,1.03,992.9,M,39.1,M,,*6A
$GPGSA,A,3,03,11,28,17,04,08,01,22,19,06,,,1.70,1.03,1.36*0E
$GPGSV,3,1,12,03,68,086,18,28,61,259,18,22,49,056,16,50,46,199,*77
$GPGSV,3,2,12,17,43,318,32,01,40,048,17,11,23,082,13,19,23,308,23*74
$GPGSV,3,3,12,06,16,262,23,04,11,138,22,08,10,117,18,30,01,221,*76
$GPRMC,030312.500,A,3525.6868,N,13851.8576,E,21.00,96.60,051200,,,A*67
$GPGGA,030312.600,3525.6866,N,13851.8583,E,1,10,1.03,992.8,M,39.1,M,,*6C
$GPGSA,A,3,03,11,28,17,04,08,01,22,19,06,,,1.70,1.03,1.36*0E
$GPGSV,3,1,12,03,68,086,18,28,61,259,18,22,49,056,16,50,46,199,*77
$GPGSV,3,2,12,17,43,318,32,01,40,048,17,11,23,082,15,19,23,308,23*72
$GPGSV,3,3,12,06,16,262,22,04,11,138,22,08,10,117,18,30,01,221,*77
$GPRMC,030312.600,A,3525.6866,N,13851.8583,E,20.80,96.65,051200,,,A*6C
$GPGGA,030312.700,3525.6862,N,13851.8589,E,1,10,1.03,992.7,M,39.1,M,,*6C
$GPGSA,A,3,03,11,28,17,04,08,01,22,19,06,,,1.70,1.03,1.36*0E
$GPGSV,3,1,12,03,68,086,18,28,61,259,18,22,49,056,16,50,46,199,*77
$GPGSV,3,2,12,17,43,318,32,01,40,048,17,11,23,082,15,19,23,308,23*72
$GPGSV,3,3,12,06,16,262,22,04,11,138,22,08,10,117,18,30,01,221,*77
$GPRMC,030312.700,A,3525.6862,N,13851.8589,E,20.64,96.79,051200,,,A*64
$GPGGA,030312.800,3525.6859,N,13851.8596,E,1,10,1.03,992.6,M,39.1,M,,*64
$GPGSA,A,3,03,11,28,17,04,08,01,22,19,06,,,1.70,1.03,1.36*0E
$GPGSV,3,1,12,03,68,086,18,28,61,259,18,22,49,056,16,50,46,199,*77
$GPGSV,3,2,12,17,43,318,32,01,40,048,16,11,23,082,15,19,23,308,30*71
$GPGSV,3,3,12,06,16,262,22,04,11,138,22,08,10,117,18,30,01,221,*77
$GPRMC,030312.800,A,3525.6859,N,13851.8596,E,20.67,96.75,051200,,,A*62
$GPGGA,030312.900,3525.6857,N,13851.8603,E,1,10,1.03,992.6,M,39.1,M,,*64
$GPGSA,A,3,03,11,28,17,04,08,01,22,19,06,,,1.70,1.03,1.36*0E
$GPGSV,3,1,12,03,68,085,18,28,61,259,18,22,49,056,16,50,46,199,*74
$GPGSV,3,2,12,17,43,318,32,01,40,048,16,11,23,082,15,19,23,308,30*71
$GPGSV,3,3,12,06,16,262,22,04,11,138,21,08,10,117,20,30,01,221,*7F
$GPRMC,030312.900,A,3525.6857,N,13851.8603,E,20.72,96.81,051200,,,A*6D
$GPGGA,030313.000,3525.6856,N,13851.8611,E,1,10,1.03,992.6,M,39.1,M,,*6E
$GPGSA,A,3,03,11,28,17,04,08,01,22,19,06,,,1.70,1.03,1.36*0E
$GPGSV,3,1,12,03,68,085,18,28,61,259,18,22,49,056,16,50,46,199,*74
$GPGSV,3,2,12,17,43,318,32,01,40,048,16,11,23,082,15,19,23,308,30*71
$GPGSV,3,3,12,06,16,262,22,04,11,138,20,08,10,117,21,30,01,221,*7F
$GPRMC,030313.000,A,3525.6856,N,13851.8611,E,20.83,96.64,051200,,,A*62
$GPGGA,030313.100,3525.6854,N,13851.8618,E,1,10,1.03,992.5,M,39.1,M,,*67
$GPGSA,A,3,03,11,28,17,04,08,01,22,19,06,,,1.70,1.03,1.36*0E
$GPGSV,3,1,12,03,68,085,18,28,61,259,18,22,49,056,16,50,46,199,*74
$GPGSV,3,2,12,17,43,318,32,01,40,048,16,11,23,082,15,19,23,308,30*71
$GPGSV,3,3,12,06,16,262,22,04,11,138,19,08,10,117,22,30,01,221,*76
$GPRMC,030313.100,A,3525.6854,N,13851.8618,E,20.96,96.51,051200,,,A*6A
$GPGGA,030313.200,3525.6853,N,13851.8626,E,1,10,1.03,992.4,M,39.1,M,,*6F
$GPGSA,A,3,03,11,28,17,04,08,01,22,19,06,,,1.70,1.03,1.36*0E
$GPGSV,3,1,12,03,68,085,18,28,61,259,18,22,49,056,16,50,46,199,*74
$GPGSV,3,2,12,17,43,318,23,01,40,048,16,11,23,082,15,19,23,308,30*71
$GPGSV,3,3,12,06,16,262,22,04,11,138,19,08,10,117,22,30,01,221,*76
$GPRMC,030313.200,A,3525.6853,N,13851.8626,E,21.09,96.39,051200,,,A*6A
$GPGGA,030313.300,3525.6853,N,13851.8633,E,1,10,1.03,992.3,M,39.1,M,,*6D
$GPGSA,A,3,03,11,28,17,04,08,01,22,19,06,,,1.71,1.03,1.36*0F
$GPGSV,3,1,12,03,68,085,18,28,61,259,18,22,49,056,16,50,46,199,*74
$GPGSV,3,2,12,17,43,318,23,01,40,048,16,11,23,082,15,19,23,308,30*71
$GPGSV,3,3,12,06,16,262,22,04,11,138,19,08,10,117,22,30,01,221,*76
$GPRMC,030313.300,A,3525.6853,N,13851.8633,E,21.13,96.26,051200,,,A*6A
$GPGGA,030313.400,3525.6851,N,13851.8640,E,1,10,1.03,992.2,M,39.1,M,,*6D
$GPGSA,A,3,03,11,28,17,04,08,01,22,19,06,,,1.70,1.03,1.36*0E
$GPGSV,3,1,12,03,68,085,18,28,61,259,18,22,49,056,16,50,46,199,*74
$GPGSV,3,2,12,17,43,318,23,01,40,048,16,11,23,082,15,19,23,308,30*71
$GPGSV,3,3,12,06,16,262,22,04,11,138,19,08,10,117,22,30,01,221,*76
$GPRMC,030313.400,A,3525.6851,N,13851.8640,E,21.20,96.17,051200,,,A*69
$GPGGA,030313.500,3525.6850,N,13851.8648,E,1,10,1.03,992.3,M,39.1,M,,*64
$GPGSA,A,3,03,11,28,17,04,08,01,22,19,06,,,1.70,1.03,1.36*0E
$GPGSV,3,1,12,03,68,085,18,28,61,259,18,22,49,056,15,50,46,199,*77
$GPGSV,3,2,12,17,43,318,23,01,40,048,16,11,23,082,15,19,23,308,30*71
$GPGSV,3,3,12,06,16,262,22,04,11,138,20,08,10,117,22,30,01,221,*7C
$GPRMC,030313.500,A,3525.6850,N,13851.8648,E,21.24,96.06,051200,,,A*65
$GPGGA,030313.600,3525.6847,N,13851.8655,E,1,10,1.03,992.4,M,39.1,M,,*6A
$GPGSA,A,3,03,11,28,17,04,08,01,22,19,06,,,1.70,1.03,1.36*0E
$GPGSV,3,1,12,03,68,085,18,28,61,259,18,22,49,056,15,50,46,199,*77
$GPGSV,3,2,12,17,43,318,23,01,40,048,16,11,23,082,15,19,23,308,30*71
$GPGSV,3,3,12,06,16,262,22,04,11,138,20,08,10,117,22,30,01,221,*7C
$GPRMC,030313.600,A,3525.6847,N,13851.8655,E,21.33,95.84,051200,,,A*63
$GPGGA,030313.700,3525.6845,N,13851.8663,E,1,10,1.03,992.5,M,39.1,M,,*6D
$GPGSA,A,3,03,11,28,17,04,08,01,22,19,06,,,1.70,1.03,1.36*0E
$GPGSV,3,1,12,03,68,085,18,28,61,259,18,22,49,056,15,50,46,199,*77
$GPGSV,3,2,12,17,43,318,23,01,40,048,16,11,23,082,15,19,23,308,30*71
$GPGSV,3,3,12,06,16,262,22,04,11,138,20,08,10,117,22,30,01,221,*7C
$GPRMC,030313.700,A,3525.6845,N,13851.8663,E,21.35,95.83,051200,,,A*64
$GPGGA,030313.800,3525.6843,N,13851.8670,E,1,10,1.03,992.5,M,39.1,M,,*66
$GPGSA,A,3,03,11,28,17,04,08,01,22,19,06,,,1.71,1.03,1.36*0F
$GPGSV,3,1,12,03,68,085,18,28,61,259,18,22,49,056,15,50,46,199,*77
$GPGSV,3,2,12,17,43,318,23,01,40,048,16,11,23,082,15,19,23,308,25*75
$GPGSV,3,3,12,06,16,262,23,04,11,138,20,08,10,117,22,30,01,221,*7D
$GPRMC,030313.800,A,3525.6843,N,13851.8670,E,21.37,95.94,051200,,,A*6B
$GPGGA,030313.900,3525.6842,N,13851.8677,E,1,9,1.09,992.5,M,39.1,M,,*53
$GPGSA,A,3,03,28,17,04,08,01,22,19,06,,,,1.78,1.09,1.40*0D
$GPGSV,3,1,12,03,68,085,18,28,61,259,18,22,49,056,15,50,46,199,*77
$GPGSV,3,2,12,17,43,318,21,01,40,048,16,11,23,082,,19,23,308,25*73
$GPGSV,3,3,12,06,16,262,23,04,11,138,20,08,10,117,22,30,01,221,*7D
$GPRMC,030313.900,A,3525.6842,N,13851.8677,E,21.26,95.78,051200,,,A*6E
$GPGGA,030314.000,3525.6842,N,13851.8684,E,1,9,1.09,992.4,M,39.1,M,,*50
$GPGSA,A,3,03,28,17,04,08,01,22,19,06,,,,1.78,1.09,1.41*0C
$GPGSV,3,1,12,03,68,085,18,28,61,259,18,22,49,056,15,50,46,199,*77
$GPGSV,3,2,12,17,43,318,20,01,40,048,16,11,23,082,,19,23,308,25*72
$GPGSV,3,3,12,06,16,262,23,04,11,138,20,08,10,117,22,30,01,221,*7D
$GPRMC,030314.000,A,3525.6842,N,13851.8684,E,21.20,95.49,051200,,,A*68
$GPGGA,030314.100,3525.6841,N,13851.8691,E,1,9,1.09,992.3,M,39.1,M,,*51
$GPGSA,A,3,03,28,17,04,08,01,22,19,06,,,,1.78,1.09,1.40*0D
$GPGSV,3,1,12,03,68,085,18,28,61,259,18,22,49,056,15,50,46,199,*77
$GPGSV,3,2,12,17,43,318,19,01,40,048,15,11,23,082,,19,23,308,25*7B
$GPGSV,3,3,12,06,16,262,23,04,11,138,20,08,10,117,22,30,01,221,*7D
$GPRMC,030314.100,A,3525.6841,N,13851.8691,E,21.12,95.26,051200,,,A*66
$GPGGA,030314.200,3525.6841,N,13851.8699,E,1,9,1.09,992.3,M,39.1,M,,*5A
$GPGSA,A,3,03,28,17,04,08,01,22,19,06,,,,1.78,1.09,1.41*0C
$GPGSV,3,1,12,03,68,085,18,28,61,259,18,22,49,056,15,50,46,199,*77
$GPGSV,3,2,12,17,43,318,19,01,40,048,14,11,23,082,,19,23,308,25*7A
$GPGSV,3,3,12,06,16,262,23,04,11,138,21,08,10,117,22,30,01,221,*7C
$GPRMC,030314.200,A,3525.6841,N,13851.8699,E,20.93,95.23,051200,,,A*60
$GPGGA,030314.300,3525.6840,N,13851.8706,E,1,9,1.09,992.3,M,39.1,M,,*5D
$GPGSA,A,3,03,28,17,04,08,01,22,19,06,,,,1.78,1.09,1.40*0D
$GPGSV,3,1,12,03,68,085,18,28,61,259,18,22,49,056,15,50,46,199,*77
$GPGSV,3,2,12,17,44,318,19,01,40,048,14,11,23,082,,19,23,308,25*7D
$GPGSV,3,3,12,06,16,262,24,04,11,138,21,08,10,117,22,30,01,221,*7B
$GPRMC,030314.300,A,3525.6840,N,13851.8706,E,20.77,95.31,051200,,,A*6E
$GPGGA,030314.400,3525.6840,N,13851.8713,E,1,9,1.02,992.2,M,39.1,M,,*54
$GPGSA,A,3,03,28,17,04,08,01,22,19,06,,,,1.30,1.02,0.81*06
$GPGSV,3,1,12,03,68,085,18,28,61,259,18,22,49,056,15,50,46,199,*77
$GPGSV,3,2,12,17,44,318,19,01,40,048,14,11,23,082,,19,23,308,25*7D
$GPGSV,3,3,12,06,16,262,25,04,11,138,21,08,10,117,22,30,01,221,*7A
$GPRMC,030314.400,A,3525.6840,N,13851.8713,E,20.69,95.43,051200,,,A*67
$GPGGA,030314.500,3525.6839,N,13851.8720,E,1,9,1.02,992.2,M,39.1,M,,*5B
$GPGSA,A,3,03,28,17,04,08,01,22,19,06,,,,1.30,1.02,0.81*06
$GPGSV,3,1,12,03,68,085,18,28,61,259,18,22,49,056,15,50,46,199,*77
$GPGSV,3,2,12,17,44,318,19,01,40,048,14,11,23,082,,19,23,308,25*7D
$GPGSV,3,3,12,06,16,262,25,04,11,138,21,08,10,117,22,30,01,221,*7A
$GPRMC,030314.500,A,3525.6839,N,13851.8720,E,20.65,95.59,051200,,,A*6F
$GPGGA,030314.600,3525.6839,N,13851.8728,E,1,9,1.02,992.1,M,39.1,M,,*53
$GPGSA,A,3,03,28,17,04,08,01,22,19,06,,,,1.30,1.02,0.81*06
$GPGSV,3,1,12,03,68,085,18,28,61,259,18,22,49,056,15,50,46,199,*77
$GPGSV,3,2,12,17,44,318,19,01,40,048,14,11,23,082,,19,23,308,17*7C
$GPGSV,3,3,12,06,16,262,25,04,11,138,21,08,10,117,22,30,01,221,*7A
$GPRMC,030314.600,A,3525.6839,N,13851.8728,E,20.63,95.77,051200,,,A*6E
$GPGGA,030314.700,3525.6838,N,13851.8735,E,1,9,1.02,992.1,M,39.1,M,,*5F
$GPGSA,A,3,03,28,17,04,08,01,22,19,06,,,,1.30,1.02,0.81*06
$GPGSV,3,1,12,03,68,085,18,28,61,259,18,22,49,056,14,50,46,199,*76
$GPGSV,3,2,12,17,44,318,19,01,40,048,14,11,23,082,,19,23,308,17*7C
$GPGSV,3,3,12,06,16,262,25,04,11,138,21,08,10,117,22,30,01,221,*7A
$GPRMC,030314.700,A,3525.6838,N,13851.8735,E,20.67,96.10,051200,,,A*64
$GPGGA,030314.800,3525.6837,N,13851.8742,E,1,9,1.09,992.0,M,39.1,M,,*55
$GPGSA,A,3,03,28,17,04,08,01,22,19,06,,,,1.78,1.09,1.40*0D
$GPGSV,3,1,12,03,68,085,18,28,61,259,18,22,49,056,14,50,46,199,*76
$GPGSV,3,2,12,17,44,318,19,01,40,048,14,11,23,082,,19,23,308,17*7C
$GPGSV,3,3,12,06,16,262,24,04,11,138,21,08,10,117,22,30,01,221,*7B
$GPRMC,030314.800,A,3525.6837,N,13851.8742,E,20.61,96.31,051200,,,A*61
$GPGGA,030314.900,3525.6836,N,13851.8749,E,1,9,1.09,991.9,M,39.1,M,,*54
