3,2,11,07,31,237,43,30,31,274,42,28,23,316,24,27,19,082,32*75
$GPGSV,3,3,11,10,08,037,35,17,03,279,,39,,,*71
$GPRMC,005109.400,A,3537.9428,N,13903.8378,E,0.02,125.21,051200,,,D*6A
$GPGGA,005109.500,3537.9428,N,13903.8378,E,2,9,0.97,396.4,M,39.1,M,0000,0000*5A
$GPGSA,A,3,01,11,08,22,07,30,27,10,28,,,,1.67,0.97,1.36*0B
$GPGSV,3,1,11,01,78,251,42,11,68,020,44,08,48,062,37,22,39,149,35*7D
$GPGSV,3,2,11,07,31,237,43,30,31,274,42,28,23,316,24,27,19,082,32*75
$GPGSV,3,3,11,10,08,037,35,17,03,279,,39,,,*71
$GPRMC,005109.500,A,3537.9428,N,13903.8378,E,0.02,125.21,051200,,,D*6B
$GPGGA,005109.600,3537.9428,N,13903.8377,E,2,9,0.97,396.4,M,39.1,M,0000,0000*56
$GPGSA,A,3,01,11,08,22,07,30,27,10,28,,,,1.67,0.97,1.36*0B
$GPGSV,3,1,11,01,78,251,42,11,68,020,44,08,48,062,37,22,39,149,35*7D
$GPGSV,3,2,11,07,31,237,43,30,31,274,42,28,23,316,24,27,19,082,32*75
$GPGSV,3,3,11,10,08,037,35,17,03,279,,39,,,*71
$GPRMC,005109.600,A,3537.9428,N,13903.8377,E,0.02,125.21,051200,,,D*67
$GPGGA,005109.700,3537.9428,N,13903.8377,E,2,9,0.97,396.4,M,39.1,M,0000,0000*57
$GPGSA,A,3,01,11,08,22,07,30,27,10,28,,,,1.67,0.97,1.36*0B
$GPGSV,3,1,11,01,78,252,42,11,68,020,44,08,48,062,37,22,39,149,35*7E
$GPGSV,3,2,11,07,31,237,43,30,31,274,42,28,23,316,24,27,19,082,32*75
$GPGSV,3,3,11,10,08,037,35,17,03,279,,39,,,*71
$GPRMC,005109.700,A,3537.9428,N,13903.8377,E,0.02,125.21,051200,,,D*66
$GPGGA,005109.800,3537.9429,N,13903.8377,E,2,9,0.97,396.4,M,39.1,M,0000,0000*59
$GPGSA,A,3,01,11,08,22,07,30,27,10,28,,,,1.67,0.97,1.36*0B
$GPGSV,3,1,11,01,78,252,42,11,68,020,44,08,48,062,37,22,39,149,35*7E
$GPGSV,3,2,11,07,31,237,43,30,31,274,42,28,23,316,24,27,19,082,32*75
$GPGSV,3,3,11,10,08,037,35,17,03,279,,39,,,*71
$GPRMC,005109.800,A,3537.9429,N,13903.8377,E,0.02,125.21,051200,,,D*68
$GPGGA,005109.900,3537.9429,N,13903.8376,E,2,9,0.97,396.4,M,39.1,M,0000,0000*59
$GPGSA,A,3,01,11,08,22,07,30,27,10,28,,,,1.67,0.97,1.36*0B
$GPGSV,3,1,11,01,78,252,42,11,68,020,44,08,48,062,37,22,39,149,35*7E
$GPGSV,3,2,11,07,31,237,43,30,31,274,42,28,23,316,24,27,19,082,32*75
$GPGSV,3,3,11,10,08,037,35,17,03,279,,39,,,*71
$GPRMC,005109.900,A,3537.9429,N,13903.8376,E,0.02,125.21,051200,,,D*68
$GPGGA,005110.000,3537.9429,N,13903.8376,E,2,9,0.97,396.4,M,39.1,M,0000,0000*58
$GPGSA,A,3,01,11,08,22,07,30,27,10,28,,,,1.67,0.97,1.36*0B
$GPGSV,3,1,11,01,78,252,42,11,68,020,44,08,48,062,37,22,39,149,35*7E
$GPGSV,3,2,11,07,31,237,43,30,31,274,42,28,23,316,24,27,19,082,32*75
$GPGSV,3,3,11,10,08,037,35,17,03,279,,39,,,*71
$GPRMC,005110.000,A,3537.9429,N,13903.8376,E,0.01,125.21,051200,,,D*6A
$GPGGA,005110.100,3537.9429,N,13903.8375,E,2,9,0.97,396.4,M,39.1,M,0000,0000*5A
$GPGSA,A,3,01,11,08,22,07,30,27,10,28,,,,1.67,0.97,1.36*0B
$GPGSV,3,1,11,01,78,252,42,11,68,020,44,08,48,062,37,22,39,149,35*7E
$GPGSV,3,2,11,07,31,237,43,30,31,274,42,28,23,316,25,27,19,082,32*74
$GPGSV,3,3,11,10,08,037,35,17,03,279,,39,,,*71
$GPRMC,005110.100,A,3537.9429,N,13903.8375,E,0.01,125.21,051200,,,D*68
$GPGGA,005110.200,3537.9429,N,13903.8375,E,2,9,0.97,396.4,M,39.1,M,0000,0000*59
$GPGSA,A,3,01,11,08,22,07,30,27,10,28,,,,1.67,0.97,1.36*0B
$GPGSV,3,1,11,01,78,252,42,11,68,020,44,08,48,062,37,22,39,149,35*7E
$GPGSV,3,2,11,07,31,237,43,30,31,274,42,28,23,316,25,27,19,082,32*74
$GPGSV,3,3,11,10,08,037,35,17,03,279,,39,,,*71
$GPRMC,005110.200,A,3537.9429,N,13903.8375,E,0.02,125.21,051200,,,D*68
$GPGGA,005110.300,3537.9429,N,13903.8375,E,2,9,0.97,396.3,M,39.1,M,0000,0000*5F
$GPGSA,A,3,01,11,08,22,07,30,27,10,28,,,,1.67,0.97,1.36*0B
$GPGSV,3,1,11,01,78,252,42,11,68,020,44,08,48,062,37,22,39,149,35*7E
$GPGSV,3,2,11,07,31,237,43,30,31,274,42,28,23,316,25,27,19,082,32*74
$GPGSV,3,3,11,10,08,037,35,17,03,279,,39,,,*71
$GPRMC,005110.300,A,3537.9429,N,13903.8375,E,0.01,125.21,051200,,,D*6A
$GPGGA,024047.900,,,,,0,1,,,M,,M,,*45
$GPGSA,A,1,,,,,,,,,,,,,,,*1E
$GPGSV,3,1,09,28,61,282,,22,56,067,,01,48,040,28,17,35,312,22*76
$GPGSV,3,2,09,11,30,074,,08,17,110,30,19,15,302,25,30,06,228,*7B
$GPGSV,3,3,09,04,04,145,*40
$GPRMC,024047.900,V,,,,,0.00,88.47,051200,,,N*74
$GPGGA,024048.000,,,,,0,1,,,M,,M,,*43
$GPGSA,A,1,,,,,,,,,,,,,,,*1E
$GPGSV,3,1,09,28,61,282,,22,56,067,,01,48,040,27,17,35,312,22*79
$GPGSV,3,2,09,11,30,074,,08,17,110,21,19,15,302,26,30,06,228,*78
$GPGSV,3,3,09,04,04,145,*40
$GPRMC,024048.000,V,,,,,0.01,88.47,051200,,,N*73
$GPGGA,024048.100,,,,,0,1,,,M,,M,,*42
$GPGSA,A,1,,,,,,,,,,,,,,,*1E
$GPGSV,3,1,09,28,61,282,,22,56,067,,01,48,040,26,17,35,312,22*78
$GPGSV,3,2,09,11,30,074,,08,17,110,21,19,15,302,27,30,06,228,*79
$GPGSV,3,3,09,04,04,145,*40
$GPRMC,024048.100,V,,,,,0.00,88.47,051200,,,N*73
$GPGGA,024048.200,,,,,0,1,,,M,,M,,*41
$GPGSA,A,1,,,,,,,,,,,,,,,*1E
$GPGSV,3,1,09,28,61,282,,22,56,067,,01,48,040,26,17,35,312,22*78
$GPGSV,3,2,09,11,30,074,,08,17,110,21,19,15,302,27,30,06,228,*79
$GPGSV,3,3,09,04,04,145,*40
$GPRMC,024048.200,V,,,,,0.00,88.47,051200,,,N*70
$GPGGA,024048.300,,,,,0,1,,,M,,M,,*40
$GPGSA,A,1,,,,,,,,,,,,,,,*1E
$GPGSV,3,1,09,28,61,282,,22,56,067,,01,48,040,26,17,35,312,22*78
$GPGSV,3,2,09,11,30,074,,08,17,110,21,19,15,302,27,30,06,228,*79
$GPGSV,3,3,09,04,04,145,*40
$GPRMC,024048.300,V,,,,,0.00,88.47,051200,,,N*71
$GPGGA,024048.400,,,,,0,1,,,M,,M,,*47
$GPGSA,A,1,,,,,,,,,,,,,,,*1E
$GPGSV,3,1,09,28,61,282,,22,56,067,,01,48,040,26,17,35,312,22*78
$GPGSV,3,2,09,11,30,074,,08,17,110,21,19,15,302,28,30,06,228,*76
$GPGSV,3,3,09,04,04,145,*40
$GPRMC,024048.400,V,,,,,0.00,88.47,051200,,,N*76
$GPGGA,024048.500,,,,,0,1,,,M,,M,,*46
$GPGSA,A,1,,,,,,,,,,,,,,,*1E
$GPGSV,3,1,09,28,61,282,,22,56,067,,01,48,040,26,17,35,312,23*79
$GPGSV,3,2,09,11,30,074,,08,17,110,21,19,15,302,28,30,06,228,*76
$GPGSV,3,3,09,04,04,145,*40
$GPRMC,024048.500,V,,,,,0.00,88.47,051200,,,N*77
$GPGGA,024048.600,,,,,0,1,,,M,,M,,*45
$GPGSA,A,1,,,,,,,,,,,,,,,*1E
$GPGSV,3,1,09,28,61,282,,22,56,067,,01,48,040,26,17,35,312,23*79
$GPGSV,3,2,09,11,30,074,,08,17,110,21,19,15,302,28,30,06,228,*76
$GPGSV,3,3,09,04,04,145,*40
$GPRMC,024048.600,V,,,,,0.00,88.47,051200,,,N*74
$GPGGA,024048.700,,,,,0,1,,,M,,M,,*44
$GPGSA,A,1,,,,,,,,,,,,,,,*1E
$GPGSV,3,1,09,28,61,282,,22,56,067,,01,48,040,26,17,35,312,23*79
$GPGSV,3,2,09,11,30,074,,08,17,110,21,19,15,302,28,30,06,228,*76
$GPGSV,3,3,09,04,04,145,*40
$GPRMC,024048.700,V,,,,,0.00,88.47,051200,,,N*75
$GPGGA,024048.800,,,,,0,1,,,M,,M,,*4B
$GPGSA,A,1,,,,,,,,,,,,,,,*1E
$GPGSV,3,1,09,28,61,282,,22,56,067,,01,48,040,26,17,35,312,23*79
$GPGSV,3,2,09,11,30,074,,08,17,110,21,19,15,302,28,30,06,228,*76
$GPGSV,3,3,09,04,04,145,*40
$GPRMC,024048.800,V,,,,,0.00,88.47,051200,,,N*7A
$GPGGA,024048.900,,,,,0,1,,,M,,M,,*4A
$GPGSA,A,1,,,,,,,,,,,,,,,*1E
$GPGSV,3,1,09,28,61,282,,22,56,067,,01,48,040,26,17,35,312,23*79
$GPGSV,3,2,09,11,30,074,,08,17,110,21,19,15,302,28,30,06,228,*76
$GPGSV,3,3,09,04,04,145,*40
$GPRMC,024048.900,V,,,,,0.00,88.47,051200,,,N*7B
$GPGGA,024049.000,,,,,0,1,,,M,,M,,*42
$GPGSA,A,1,,,,,,,,,,,,,,,*1E
$GPGSV,3,1,09,28,61,282,,22,56,067,,01,48,040,26,17,35,312,25*7F
$GPGSV,3,2,09,11,30,074,,08,17,110,21,19,15,302,28,30,06,228,*76
$GPGSV,3,3,09,04,04,145,*40
$GPRMC,024049.000,V,,,,,0.00,88.47,051200,,,N*73
$GPGGA,024049.100,,,,,0,1,,,M,,M,,*43
$GPGSA,A,1,,,,,,,,,,,,,,,*1E
$GPGSV,3,1,09,28,61,281,,22,56,067,,01,48,040,26,17,35,312,26*7F
$GPGSV,3,2,09,11,30,074,,08,17,110,21,19,15,302,28,30,06,228,*76
$GPGSV,3,3,09,04,04,145,*40
$GPRMC,024049.100,V,,,,,0.00,88.47,051200,,,N*72
$GPGGA,024049.200,,,,,0,2,,,M,,M,,*43
$GPGSA,A,1,,,,,,,,,,,,,,,*1E
$GPGSV,3,1,09,28,61,281,,22,56,067,,01,48,040,27,17,35,312,27*7F
$GPGSV,3,2,09,11,30,074,,08,17,110,21,19,15,302,28,30,06,228,*76
$GPGSV,3,3,09,04,04,145,*40
$GPRMC,024049.200,V,,,,,2.77,331.13,051200,,,N*43
$GPGGA,024049.300,,,,,0,2,,,M,,M,,*42
$GPGSA,A,1,,,,,,,,,,,,,,,*1E
$GPGSV,3,1,09,28,61,281,,22,56,067,23,01,48,040,28,17,35,312,27*71
$GPGSV,3,2,09,11,30,074,,08,17,110,28,19,15,302,28,30,06,228,*7F
$GPGSV,3,3,09,04,04,145,*40
$GPRMC,024049.300,V,,,,,1.32,330.66,051200,,,N*43
$GPGGA,024049.400,,,,,0,4,,,M,,M,,*43
$GPGSA,A,1,,,,,,,,,,,,,,,*1E
$GPGSV,3,1,10,28,61,281,,22,56,067,23,01,48,040,28,42,48,177,*77
$GPGSV,3,2,10,17,35,312,27,11,30,074,25,08,17,110,28,19,15,302,28*78
$GPGSV,3,3,10,30,06,228,,04,04,145,*75
$GPRMC,024049.400,V,,,,,7.17,326.85,051200,,,N*4F
$GPGGA,024049.500,,,,,0,6,,,M,,M,,*40
$GPGSA,A,1,,,,,,,,,,,,,,,*1E
$GPGSV,3,1,10,28,61,281,,22,56,067,23,01,48,040,28,42,48,177,*77
$GPGSV,3,2,10,17,35,312,27,11,30,074,25,08,17,110,28,19,15,302,28*78
$GPGSV,3,3,10,30,06,228,,04,04,145,*75
$GPRMC,024049.500,V,,,,,25.13,287.18,051200,,,N*74
$GPGGA,024049.600,,,,,0,6,,,M,,M,,*43
$GPGSA,A,1,,,,,,,,,,,,,,,*1E
$GPGSV,3,1,10,28,61,281,,22,56,067,38,01,48,040,28,42,48,177,*7D
$GPGSV,3,2,10,17,35,312,27,11,30,074,25,08,17,110,28,19,15,302,28*78
$GPGSV,3,3,10,30,06,228,,04,04,145,*75
$GPRMC,024049.600,V,,,,,25.36,285.75,051200,,,N*79
$GPGGA,024049.700,,,,,0,6,,,M,,M,,*42
$GPGSA,A,1,,,,,,,,,,,,,,,*1E
$GPGSV,3,1,10,28,61,281,,22,56,067,38,01,48,040,30,42,48,177,*74
$GPGSV,3,2,10,17,35,312,27,11,30,074,37,08,17,110,28,19,15,302,28*7B
$GPGSV,3,3,10,30,06,228,,04,04,145,*75
$GPRMC,024049.700,V,,,,,25.48,285.32,051200,,,N*72
$GPGGA,024049.800,,,,,0,6,,,M,,M,,*4D
$GPGSA,A,1,,,,,,,,,,,,,,,*1E
$GPGSV,3,1,10,28,61,281,,22,56,067,38,01,48,040,31,42,48,177,*75
$GPGSV,3,2,10,17,35,312,27,11,30,074,37,08,17,110,35,19,15,302,28*77
$GPGSV,3,3,10,30,06,228,,04,04,145,*75
$GPRMC,024049.800,V,,,,,25.50,285.15,051200,,,N*71
$GPGGA,024049.900,,,,,0,6,,,M,,M,,*4C
$GPGSA,A,1,,,,,,,,,,,,,,,*1E
$GPGSV,3,1,10,28,61,281,,22,56,067,38,01,48,040,32,42,48,177,*76
$GPGSV,3,2,10,17,35,312,27,11,30,074,37,08,17,110,35,19,15,302,28*77
$GPGSV,3,3,10,30,06,228,,04,04,145,*75
$GPRMC,024049.900,V,,,,,25.31,284.71,051200,,,N*74
$GPGGA,024050.000,,,,,0,6,,,M,,M,,*4D
$GPGSA,A,1,,,,,,,,,,,,,,,*1E
$GPGSV,3,1,10,28,61,281,,22,56,067,35,01,48,040,33,42,48,177,*7A
$GPGSV,3,2,10,17,35,312,27,11,30,074,37,08,17,110,35,19,15,302,28*77
$GPGSV,3,3,10,30,06,228,,04,04,145,*75
$GPRMC,024050.000,V,,,,,25.42,285.41,051200,,,N*73
$GPGGA,024050.100,,,,,0,6,,,M,,M,,*4C
$GPGSA,A,1,,,,,,,,,,,,,,,*1E
$GPGSV,3,1,10,28,61,281,,22,56,067,35,01,48,040,34,42,48,177,*7D
$GPGSV,3,2,10,17,35,312,27,11,30,074,37,08,17,110,35,19,15,302,28*77
$GPGSV,3,3,10,30,06,228,,04,04,145,*75
$GPRMC,024050.100,V,,,,,25.50,285.42,051200,,,N*72
$GPGGA,024050.200,,,,,0,6,,,M,,M,,*4F
$GPGSA,A,1,,,,,,,,,,,,,,,*1E
$GPGSV,3,1,10,28,61,281,,22,56,067,35,01,48,040,35,42,48,177,*7C
$GPGSV,3,2,10,17,35,312,27,11,30,074,31,08,17,110,35,19,15,302,28*71
$GPGSV,3,3,10,30,06,228,,04,04,145,*75
$GPRMC,024050.200,V,,,,,23.99,282.02,051200,,,N*71
$GPGGA,024050.300,3524.4419,N,13852.3830,E,1,6,2.18,1024.4,M,39.1,M,,*64
$GPGSA,A,3,01,08,22,17,19,11,,,,,,,2.37,2.18,0.94*05
$GPGSV,3,1,10,28,61,281,,22,56,067,35,01,48,040,35,42,48,177,*7C
$GPGSV,3,2,10,17,35,312,27,11,30,074,31,08,17,110,35,19,15,302,28*71
$GPGSV,3,3,10,30,06,228,,04,04,145,*75
$GPRMC,024050.300,A,3524.4419,N,13852.3830,E,24.04,281.62,051200,,,A*58
$GPGGA,024050.400,3524.4424,N,13852.3817,E,1,6,2.18,1023.2,M,39.1,M,,*69
$GPGSA,A,3,01,08,22,17,19,11,,,,,,,2.38,2.18,0.94*0A
$GPGSV,3,1,10,28,61,281,,22,56,067,35,01,48,040,35,42,48,177,*7C
$GPGSV,3,2,10,17,35,312,27,11,30,074,31,08,17,110,26,19,15,302,28*73
$GPGSV,3,3,10,30,06,228,,04,04,145,*75
$GPRMC,024050.400,A,3524.4424,N,13852.3817,E,24.20,283.03,051200,,,A*57
$GPGGA,024050.500,3524.4423,N,13852.3811,E,1,6,2.18,1025.0,M,39.1,M,,*6D
$GPGSA,A,3,01,08,22,17,19,11,,,,,,,2.38,2.18,0.94*0A
$GPGSV,3,1,10,28,61,281,,22,56,067,35,01,48,040,35,42,48,177,*7C
$GPGSV,3,2,10,17,35,312,27,11,30,074,31,08,17,110,26,19,15,302,28*73
$GPGSV,3,3,10,30,06,228,,04,04,145,*75
$GPRMC,024050.500,A,3524.4423,N,13852.3811,E,24.35,284.03,051200,,,A*54
$GPGGA,024050.600,3524.4420,N,13852.3790,E,1,6,2.18,1024.6,M,39.1,M,,*6C
$GPGSA,A,3,01,08,22,17,19,11,,,,,,,2.38,2.18,0.94*0A
$GPGSV,3,1,10,28,61,281,,22,56,067,35,01,48,040,35,42,48,177,*7C
$GPGSV,3,2,10,17,35,312,27,11,30,074,31,08,17,110,26,19,15,302,28*73
$GPGSV,3,3,10,30,06,228,,04,04,145,*75
$GPRMC,024050.600,A,3524.4420,N,13852.3790,E,24.64,284.07,051200,,,A*52
$GPGGA,024050.700,3524.4418,N,13852.3770,E,1,6,2.18,1024.3,M,39.1,M,,*6D
$GPGSA,A,3,01,08,22,17,19,11,,,,,,,2.38,2.18,0.94*0A
$GPGSV,3,1,10,28,61,281,,22,56,067,35,01,48,040,35,42,48,177,*7C
$GPGSV,3,2,10,17,35,312,27,11,30,074,31,08,17,110,26,19,15,302,28*73
$GPGSV,3,3,10,30,06,228,,04,04,145,*75
$GPRMC,024050.700,A,3524.4418,N,13852.3770,E,24.89,284.16,051200,,,A*55
$GPGGA,024050.800,3524.4415,N,13852.3748,E,1,6,2.90,1024.0,M,39.1,M,,*67
$GPGSA,A,3,01,08,22,17,19,11,,,,,,,4.03,2.90,2.80*03
$GPGSV,3,1,10,28,61,281,,22,56,067,35,01,48,040,35,42,48,177,*7C
$GPGSV,3,2,10,17,35,312,27,11,30,074,32,08,17,110,26,19,15,302,28*70
$GPGSV,3,3,10,30,06,228,,04,04,145,*75
$GPRMC,024050.800,A,3524.4415,N,13852.3748,E,25.15,284.05,051200,,,A*5A
$GPGGA,024050.900,3524.4415,N,13852.3722,E,1,6,2.90,1022.1,M,39.1,M,,*6D
$GPGSA,A,3,01,08,22,17,19,11,,,,,,,4.03,2.90,2.80*03
$GPGSV,3,1,10,28,61,281,,22,56,067,37,01,48,040,35,42,48,177,*7E
$GPGSV,3,2,10,17,35,312,27,11,30,074,32,08,17,110,26,19,15,302,28*70
$GPGSV,3,3,10,30,06,228,,04,04,145,*75
$GPRMC,024050.900,A,3524.4415,N,13852.3722,E,25.38,283.95,051200,,,A*56
$GPGGA,024051.000,3524.4411,N,13852.3696,E,1,6,2.18,1021.4,M,39.1,M,,*69
$GPGSA,A,3,01,08,22,17,19,11,,,,,,,2.38,2.18,0.94*0A
$GPGSV,3,1,10,28,61,281,,22,56,067,37,01,48,040,35,42,48,177,*7E
$GPGSV,3,2,10,17,35,312,27,11,30,074,32,08,17,110,26,19,15,302,28*70
$GPGSV,3,3,10,30,06,228,,04,04,145,*75
$GPRMC,024051.000,A,3524.4411,N,13852.3696,E,25.65,283.95,051200,,,A*5C
$GPGGA,024051.100,3524.4407,N,13852.3674,E,1,6,2.18,1020.8,M,39.1,M,,*6E
$GPGSA,A,3,01,08,22,17,19,11,,,,,,,2.37,2.18,0.94*05
$GPGSV,3,1,10,28,61,281,,22,56,067,37,01,48,040,35,42,48,177,*7E
$GPGSV,3,2,10,17,35,312,27,11,30,074,32,08,17,110,26,19,15,302,27*7F
$GPGSV,3,3,10,30,06,228,,04,04,145,*75
$GPRMC,024051.100,A,3524.4407,N,13852.3674,E,25.87,283.69,051200,,,A*59
$GPGGA,024051.200,3524.4405,N,13852.3650,E,1,6,2.18,1019.7,M,39.1,M,,*6C
$GPGSA,A,3,01,08,22,17,19,11,,,,,,,2.38,2.18,0.94*0A
$GPGSV,3,1,10,28,61,281,,22,56,067,37,01,48,040,33,42,48,177,*78
$GPGSV,3,2,10,17,35,312,27,11,30,074,32,08,17,110,26,19,15,302,26*7E
$GPGSV,3,3,10,30,06,228,,04,04,145,*75
$GPRMC,024051.200,A,3524.4405,N,13852.3650,E,25.97,283.83,051200,,,A*5B
$GPGGA,024051.300,3524.4403,N,13852.3634,E,1,6,2.18,1019.9,M,39.1,M,,*67
$GPGSA,A,3,01,08,22,17,19,11,,,,,,,2.38,2.18,0.94*0A
$GPGSV,3,1,10,28,61,281,,22,56,067,37,01,48,040,32,42,48,177,*79
$GPGSV,3,2,10,17,35,312,27,11,30,074,35,08,17,110,26,19,15,302,26*79
$GPGSV,3,3,10,30,06,228,,04,04,145,*75
$GPRMC,024051.300,A,3524.4403,N,13852.3634,E,26.07,284.00,051200,,,A*58
$GPGGA,024051.400,3524.4402,N,13852.3612,E,1,6,2.18,1019.2,M,39.1,M,,*6E
$GPGSA,A,3,01,08,22,17,19,11,,,,,,,2.37,2.18,0.94*05
$GPGSV,3,1,10,28,61,281,,22,56,067,34,01,48,040,31,42,48,177,*79
$GPGSV,3,2,10,17,35,312,27,11,30,074,35,08,17,110,26,19,15,302,26*79
$GPGSV,3,3,10,30,06,228,,04,04,145,*75
$GPRMC,024051.400,A,3524.4402,N,13852.3612,E,26.15,284.10,051200,,,A*58
$GPGGA,024051.500,3524.4402,N,13852.3598,E,1,6,2.18,1019.2,M,39.1,M,,*6E
$GPGSA,A,3,01,08,22,17,19,11,,,,,,,2.37,2.18,0.94*05
$GPGSV,3,1,10,28,61,281,,22,56,067,34,01,48,040,31,42,48,177,*79
$GPGSV,3,2,10,17,35,312,27,11,30,074,35,08,17,110,26,19,15,302,26*79
$GPGSV,3,3,10,30,06,228,,04,04,145,*75
$GPRMC,024051.500,A,3524.4402,N,13852.3598,E,26.08,284.04,051200,,,A*51
$GPGGA,024051.600,3524.4401,N,13852.3587,E,1,6,2.18,1020.2,M,39.1,M,,*6A
$GPGSA,A,3,01,08,22,17,19,11,,,,,,,2.37,2.18,0.94*05
$GPGSV,3,1,10,28,61,281,,22,56,067,34,01,48,040,31,42,48,177,*79
$GPGSV,3,2,10,17,35,312,29,11,30,074,35,08,17,110,26,19,15,302,26*77
$GPGSV,3,3,10,30,06,228,,04,04,145,*75
$GPRMC,024051.600,A,3524.4401,N,13852.3587,E,26.13,284.06,051200,,,A*57
$GPGGA,024051.700,3524.4398,N,13852.3577,E,1,6,2.18,1021.6,M,39.1,M,,*66
$GPGSA,A,3,01,08,22,17,19,11,,,,,,,2.37,2.18,0.94*05
$GPGSV,3,1,10,28,61,281,,22,56,067,34,01,48,040,31,42,48,177,*79
$GPGSV,3,2,10,17,35,312,30,11,30,074,35,08,17,110,26,19,15,302,25*7C
$GPGSV,3,3,10,30,06,228,,04,04,145,*75
$GPRMC,024051.700,A,3524.4398,N,13852.3577,E,26.26,283.94,051200,,,A*54
$GPGGA,024051.800,3524.4400,N,13852.3556,E,1,7,1.72,1020.0,M,39.1,M,,*65
$GPGSA,A,3,01,08,22,17,19,28,11,,,,,,1.92,1.72,0.86*0F
$GPGSV,3,1,10,28,61,281,27,22,56,067,36,01,48,040,31,42,48,177,*7E
$GPGSV,3,2,10,17,35,312,31,11,30,074,31,08,17,110,26,19,15,302,24*78
$GPGSV,3,3,10,30,06,228,,04,04,145,*75
$GPRMC,024051.800,A,3524.4400,N,13852.3556,E,26.30,284.08,051200,,,A*5B
$GPGGA,024051.900,3524.4401,N,13852.3539,E,1,7,1.74,1019.7,M,39.1,M,,*67
$GPGSA,A,3,01,08,22,17,19,28,11,,,,,,2.42,1.74,1.68*06
$GPGSV,3,1,10,28,61,281,27,22,56,067,36,01,48,040,31,42,48,177,*7E
$GPGSV,3,2,10,17,35,312,32,11,30,074,31,08,17,110,26,19,15,302,24*7B
$GPGSV,3,3,10,30,06,228,,04,04,145,*75
$GPRMC,024051.900,A,3524.4401,N,13852.3539,E,26.39,284.48,051200,,,A*5F
$GPGGA,024052.000,3524.4400,N,13852.3512,E,1,7,1.74,1018.1,M,39.1,M,,*62
$GPGSA,A,3,01,08,22,17,19,28,11,,,,,,2.42,1.74,1.68*06
$GPGSV,3,1,10,28,61,281,27,22,56,067,36,01,48,040,31,42,48,177,*7E
$GPGSV,3,2,10,17,35,312,32,11,30,074,31,08,17,110,26,19,15,302,24*7B
$GPGSV,3,3,10,30,06,228,,04,04,145,*75
$GPRMC,024052.000,A,3524.4400,N,13852.3512,E,26.37,284.85,051200,,,A*52
$GPGGA,024052.100,3524.4396,N,13852.3473,E,1,7,1.74,1016.0,M,39.1,M,,*62
$GPGSA,A,3,01,08,22,17,19,28,11,,,,,,2.42,1.74,1.68*06
$GPGSV,3,1,10,28,61,281,27,22,56,067,36,01,48,040,31,42,48,177,*7E
$GPGSV,3,2,10,17,35,312,32,11,30,074,31,08,17,110,26,19,15,302,24*7B
$GPGSV,3,3,10,30,06,228,,04,04,145,*75
$GPRMC,024052.100,A,3524.4396,N,13852.3473,E,26.43,284.86,051200,,,A*5D
$GPGGA,024052.200,3524.4395,N,13852.3452,E,1,7,1.74,1015.0,M,39.1,M,,*62
$GPGSA,A,3,01,08,22,17,19,28,11,,,,,,2.42,1.74,1.68*06
$GPGSV,3,1,10,28,61,281,27,22,56,067,37,01,48,040,30,42,48,177,*7E
$GPGSV,3,2,10,17,35,312,31,11,30,074,31,08,17,110,26,19,15,302,24*78
$GPGSV,3,3,10,30,06,228,,04,04,145,*75
$GPRMC,024052.200,A,3524.4395,N,13852.3452,E,26.44,284.72,051200,,,A*52
$GPGGA,024052.300,3524.4396,N,13852.3436,E,1,7,1.74,1014.4,M,39.1,M,,*67
$GPGSA,A,3,01,08,22,17,19,28,11,,,,,,2.42,1.74,1.68*06
$GPGSV,3,1,10,28,61,282,27,22,56,067,37,01,48,040,29,42,48,177,*75
$GPGSV,3,2,10,17,35,312,31,11,30,074,31,08,17,110,26,19,15,302,24*78
$GPGSV,3,3,10,30,06,228,,04,04,145,*75
$GPRMC,024052.300,A,3524.4396,N,13852.3436,E,26.54,284.14,051200,,,A*53
$GPGGA,024052.400,3524.4398,N,13852.3424,E,1,7,1.72,1014.1,M,39.1,M,,*6E
$GPGSA,A,3,01,08,22,17,19,28,11,,,,,,1.92,1.72,0.86*0F
$GPGSV,3,1,10,28,61,282,29,22,56,067,37,01,48,040,28,42,48,177,*7A
$GPGSV,3,2,10,17,35,312,31,11,30,074,33,08,17,110,26,19,15,302,24*7A
$GPGSV,3,3,10,30,06,228,,04,04,145,*75
$GPRMC,024052.400,A,3524.4398,N,13852.3424,E,26.58,283.84,051200,,,A*5B
$GPGGA,024052.500,3524.4401,N,13852.3415,E,1,7,1.72,1014.1,M,39.1,M,,*6A
$GPGSA,A,3,01,08,22,17,19,28,11,,,,,,1.92,1.72,0.86*0F
$GPGSV,3,1,10,28,61,282,29,22,56,067,38,01,48,040,28,42,48,177,*75
$GPGSV,3,2,10,17,35,312,31,11,30,074,33,08,17,110,26,19,15,302,24*7A
$GPGSV,3,3,10,30,06,228,,04,04,145,*75
$GPRMC,024052.500,A,3524.4401,N,13852.3415,E,26.64,283.24,051200,,,A*5A
$GPGGA,024052.600,3524.4403,N,13852.3408,E,1,7,1.74,1014.0,M,39.1,M,,*60
$GPGSA,A,3,01,08,22,17,19,28,11,,,,,,2.42,1.74,1.68*06
$GPGSV,3,1,10,28,61,282,29,22,56,067,38,01,48,040,28,42,48,177,*75
$GPGSV,3,2,10,17,35,312,31,11,30,074,33,08,17,110,25,19,15,302,24*79
$GPGSV,3,3,10,30,06,228,,04,04,145,*75
$GPRMC,024052.600,A,3524.4403,N,13852.3408,E,26.56,282.70,051200,,,A*56
$GPGGA,024052.700,3524.4405,N,13852.3400,E,1,7,1.74,1014.2,M,39.1,M,,*6D
$GPGSA,A,3,01,08,22,17,19,28,11,,,,,,2.42,1.74,1.68*06
$GPGSV,3,1,10,28,61,282,29,22,56,067,38,01,48,040,28,42,48,177,*75
$GPGSV,3,2,10,17,35,312,31,11,30,074,33,08,17,110,24,19,15,302,24*78
$GPGSV,3,3,10,30,06,228,,04,04,145,*75
$GPRMC,024052.700,A,3524.4405,N,13852.3400,E,26.32,282.75,051200,,,A*5E
$GPGGA,024052.800,3524.4409,N,13852.3393,E,1,7,1.74,1014.4,M,39.1,M,,*65
$GPGSA,A,3,01,08,22,17,19,28,11,,,,,,2.42,1.74,1.68*06
$GPGSV,3,1,10,28,61,282,29,22,56,067,39,01,48,040,29,42,48,177,*75
$GPGSV,3,2,10,17,35,312,22,11,30,074,33,08,17,110,24,19,15,302,24*7A
$GPGSV,3,3,10,30,06,228,,04,04,145,*75
$GPRMC,024052.800,A,3524.4409,N,13852.3393,E,26.40,283.30,051200,,,A*55
$GPGGA,024052.900,3524.4412,N,13852.3386,E,1,7,1.74,1014.5,M,39.1,M,,*6B
$GPGSA,A,3,01,08,22,17,19,28,11,,,,,,2.42,1.74,1.68*06
$GPGSV,3,1,10,28,61,282,29,22,56,067,39,01,48,040,30,42,48,177,*7D
$GPGSV,3,2,10,17,35,312,22,11,30,074,33,08,17,110,24,19,15,302,24*7A
$GPGSV,3,3,10,30,06,228,,04,04,145,*75
$GPRMC,024052.900,A,3524.4412,N,13852.3386,E,26.65,283.90,051200,,,A*57
$GPGGA,024053.000,3524.4414,N,13852.3378,E,1,7,1.74,1014.6,M,39.1,M,,*67
$GPGSA,A,3,01,08,22,17,19,28,11,,,,,,2.42,1.74,1.68*06
$GPGSV,3,1,10,28,61,282,29,22,56,067,39,01,48,040,31,42,48,177,*7C
$GPGSV,3,2,10,17,35,312,22,11,30,074,29,08,17,110,24,19,15,302,24*71
$GPGSV,3,3,10,30,06,228,,04,04,145,*75
$GPRMC,024053.000,A,3524.4414,N,13852.3378,E,26.57,284.82,051200,,,A*5D
$GPGGA,024053.100,3524.4417,N,13852.3372,E,1,7,1.74,1014.9,M,39.1,M,,*60
$GPGSA,A,3,01,08,22,17,19,28,11,,,,,,2.42,1.74,1.68*06
$GPGSV,3,1,10,28,61,282,29,22,56,067,37,01,48,040,31,42,48,177,*72
$GPGSV,3,2,10,17,35,312,22,11,30,074,29,08,17,110,25,19,15,302,24*70
$GPGSV,3,3,10,30,06,228,,04,04,145,*75
$GPRMC,024053.100,A,3524.4417,N,13852.3372,E,26.57,285.54,051200,,,A*5F
$GPGGA,024053.200,3524.4421,N,13852.3364,E,1,7,1.74,1015.0,M,39.1,M,,*69
$GPGSA,A,3,01,08,22,17,19,28,11,,,,,,2.42,1.74,1.68*06
$GPGSV,3,1,10,28,61,282,29,22,56,067,37,01,48,040,31,42,48,177,*72
$GPGSV,3,2,10,17,35,312,22,11,30,074,29,08,17,110,26,19,15,302,24*73
$GPGSV,3,3,10,30,06,228,,04,04,145,*75
$GPRMC,024053.200,A,3524.4421,N,13852.3364,E,26.39,285.80,051200,,,A*5F
$GPGGA,024053.300,3524.4424,N,13852.3356,E,1,7,1.74,1014.9,M,39.1,M,,*64
$GPGSA,A,3,01,08,22,17,19,28,11,,,,,,2.42,1.74,1.68*06
$GPGSV,3,1,11,28,61,282,29,22,56,067,40,01,48,040,31,42,48,177,*73
$GPGSV,3,2,11,17,35,312,24,11,30,074,29,08,17,110,27,19,15,302,24*75
$GPGSV,3,3,11,30,06,228,,04,04,145,,03,,,30*74
$GPRMC,024053.300,A,3524.4424,N,13852.3356,E,26.81,285.02,051200,,,A*53
$GPGGA,024053.400,3524.4427,N,13852.3348,E,1,7,1.74,1014.8,M,39.1,M,,*6E
$GPGSA,A,3,01,08,22,17,19,28,11,,,,,,2.42,1.74,1.68*06
$GPGSV,3,1,11,28,61,282,29,22,56,067,40,01,48,040,30,42,48,177,*72
$GPGSV,3,2,11,17,35,312,25,11,30,074,29,08,17,110,27,19,15,302,17*74
$GPGSV,3,3,11,30,06,228,,04,04,145,,03,,,30*74
$GPRMC,024053.400,A,3524.4427,N,13852.3348,E,26.73,285.67,051200,,,A*56
$GPGGA,024053.500,3524.4431,N,13852.3339,E,1,7,1.74,1014.5,M,39.1,M,,*63
$GPGSA,A,3,01,08,22,17,19,28,11,,,,,,2.42,1.74,1.68*06
$GPGSV,3,1,11,28,61,282,31,22,56,067,40,01,48,040,30,42,48,177,*7B
$GPGSV,3,2,11,17,35,312,26,11,30,074,29,08,17,110,27,19,15,302,17*77
$GPGSV,3,3,11,30,06,228,,04,04,145,,03,,,30*74
$GPRMC,024053.500,A,3524.4431,N,13852.3339,E,26.90,285.59,051200,,,A*56
$GPGGA,024053.600,3524.4435,N,13852.3333,E,1,7,1.74,1014.5,M,39.1,M,,*6E
$GPGSA,A,3,01,08,22,17,19,28,11,,,,,,2.42,1.74,1.68*06
$GPGSV,3,1,11,28,61,282,31,22,56,067,39,01,48,040,30,42,48,177,*75
$GPGSV,3,2,11,17,35,312,26,11,30,074,32,08,17,110,27,19,15,302,17*7D
$GPGSV,3,3,11,30,06,228,,04,04,145,,03,,,30*74
$GPRMC,024053.600,A,3524.4435,N,13852.3333,E,26.97,285.40,051200,,,A*54
$GPGGA,024053.700,3524.4437,N,13852.3327,E,1,7,1.74,1015.3,M,39.1,M,,*6F
$GPGSA,A,3,01,08,22,17,19,28,11,,,,,,2.42,1.74,1.68*06
$GPGSV,3,1,11,28,61,282,31,22,56,067,39,01,48,040,30,42,48,177,*75
$GPGSV,3,2,11,17,35,312,26,11,30,074,32,08,17,110,28,19,15,302,17*72
$GPGSV,3,3,11,30,06,228,,04,04,145,,03,,,31*75
$GPRMC,024053.700,A,3524.4437,N,13852.3327,E,26.80,286.24,051200,,,A*55
$GPGGA,024053.800,3524.4440,N,13852.3319,E,1,7,1.74,1015.4,M,39.1,M,,*6A
$GPGSA,A,3,01,08,22,17,19,28,11,,,,,,2.42,1.74,1.68*06
$GPGSV,3,1,11,28,61,282,31,22,56,067,39,01,48,040,30,42,48,177,*75
$GPGSV,3,2,11,17,35,312,26,11,30,074,32,08,17,110,29,19,15,302,17*73
$GPGSV,3,3,11,30,06,228,,04,04,145,,03,,,31*75
$GPRMC,024053.800,A,3524.4440,N,13852.3319,E,26.91,285.85,051200,,,A*5F
$GPGGA,024053.900,3524.4442,N,13852.3307,E,1,7,1.72,1015.3,M,39.1,M,,*67
$GPGSA,A,3,01,08,22,17,19,28,11,,,,,,1.92,1.72,0.86*0F
$GPGSV,3,1,11,28,61,282,31,22,56,067,39,01,48,040,28,42,48,177,*7C
$GPGSV,3,2,11,17,35,312,28,11,30,074,32,08,17,110,30,19,15,302,17*75
$GPGSV,3,3,11,30,06,228,,04,04,145,,03,,,31*75
$GPRMC,024053.900,A,3524.4442,N,13852.3307,E,26.72,286.05,051200,,,A*55
$GPGGA,024054.000,3524.4444,N,13852.3297,E,1,7,1.72,1015.7,M,39.1,M,,*63
$GPGSA,A,3,01,08,22,17,19,28,11,,,,,,1.92,1.72,0.86*0F
$GPGSV,3,1,11,28,61,282,31,22,56,067,39,01,48,040,27,42,48,177,*73
$GPGSV,3,2,11,17,35,312,29,11,30,074,32,08,17,110,30,19,15,302,17*74
$GPGSV,3,3,11,30,06,228,,04,04,145,,03,,,31*75
$GPRMC,024054.000,A,3524.4444,N,13852.3297,E,26.92,285.21,051200,,,A*5E
$GPGGA,024054.100,3524.4447,N,13852.3288,E,1,7,1.72,1016.0,M,39.1,M,,*6B
$GPGSA,A,3,01,08,22,17,19,28,11,,,,,,1.92,1.72,0.86*0F
$GPGSV,3,1,11,28,61,282,27,22,56,067,40,01,48,040,26,42,48,177,*7B
$GPGSV,3,2,11,17,35,312,30,11,30,074,34,08,17,110,30,19,15,302,17*7A
$GPGSV,3,3,11,30,06,228,,04,04,145,,03,,,31*75
$GPRMC,024054.100,A,3524.4447,N,13852.3288,E,27.09,284.91,051200,,,A*5B
$GPGGA,024054.200,3524.4449,N,13852.3278,E,1,7,1.72,1016.4,M,39.1,M,,*6D
$GPGSA,A,3,01,08,22,17,19,28,11,,,,,,1.92,1.72,0.86*0F
$GPGSV,3,1,11,28,61,282,27,22,56,067,40,01,48,040,26,42,48,177,*7B
$GPGSV,3,2,11,17,35,312,30,11,30,074,34,08,17,110,31,19,15,302,17*7B
$GPGSV,3,3,11,30,06,228,,04,04,145,,03,,,34*70
$GPRMC,024054.200,A,3524.4449,N,13852.3278,E,27.09,284.03,051200,,,A*52
$GPGGA,024054.300,3524.4450,N,13852.3269,E,1,7,1.74,1016.7,M,39.1,M,,*61
$GPGSA,A,3,01,08,22,17,19,28,11,,,,,,2.42,1.74,1.68*06
$GPGSV,3,1,11,28,61,282,27,22,56,067,40,01,48,040,26,42,48,177,*7B
$GPGSV,3,2,11,17,35,312,30,11,30,074,34,08,17,110,32,19,15,302,17*78
$GPGSV,3,3,11,30,06,228,,04,04,145,,03,,,34*70
$GPRMC,024054.300,A,3524.4450,N,13852.3269,E,27.12,284.17,051200,,,A*54
$GPGGA,024054.400,3524.4452,N,13852.3259,E,1,7,1.74,1016.7,M,39.1,M,,*67
$GPGSA,A,3,01,08,22,17,19,28,11,,,,,,2.42,1.74,1.68*06
$GPGSV,3,1,11,28,61,282,27,22,56,067,40,01,48,040,27,42,48,177,*7A
$GPGSV,3,2,11,17,35,312,30,11,30,074,34,08,17,110,32,19,15,302,17*78
$GPGSV,3,3,11,30,06,228,,04,04,145,,03,,,34*70
$GPRMC,024054.400,A,3524.4452,N,13852.3259,E,27.39,283.20,051200,,,A*58
$GPGGA,024054.500,3524.4453,N,13852.3249,E,1,7,1.74,1016.5,M,39.1,M,,*64
$GPGSA,A,3,01,08,22,17,19,28,11,,,,,,2.42,1.74,1.68*06
$GPGSV,3,1,11,28,61,282,27,22,56,067,37,01,48,040,28,42,48,177,*75
$GPGSV,3,2,11,17,35,312,30,11,30,074,34,08,17,110,32,19,15,302,17*78
$GPGSV,3,3,11,30,06,228,,04,04,145,,03,,,34*70
$GPRMC,024054.500,A,3524.4453,N,13852.3249,E,27.17,283.13,051200,,,A*55
$GPGGA,024054.600,3524.4456,N,13852.3240,E,1,7,1.74,1016.5,M,39.1,M,,*6B
$GPGSA,A,3,01,08,22,17,19,28,11,,,,,,2.42,1.74,1.68*06
$GPGSV,3,1,11,28,61,282,26,22,56,067,37,01,48,040,28,42,48,177,*74
$GPGSV,3,2,11,17,35,312,30,11,30,074,33,08,17,110,32,19,15,302,18*70
$GPGSV,3,3,11,30,06,228,,04,04,145,,03,,,34*70
$GPRMC,024054.600,A,3524.4456,N,13852.3240,E,27.13,283.51,051200,,,A*58
$GPGGA,024054.700,3524.4460,N,13852.3231,E,1,7,1.74,1016.4,M,39.1,M,,*68
$GPGSA,A,3,01,08,22,17,19,28,11,,,,,,2.42,1.74,1.68*06
$GPGSV,3,1,11,28,61,282,26,22,56,067,37,01,48,040,28,42,48,177,*74
$GPGSV,3,2,11,17,35,312,30,11,30,074,33,08,17,110,32,19,15,302,19*71
$GPGSV,3,3,11,30,06,228,,04,04,145,,03,,,34*70
$GPRMC,024054.700,A,3524.4460,N,13852.3231,E,27.34,283.19,051200,,,A*53
$GPGGA,024054.800,3524.4463,N,13852.3221,E,1,7,1.74,1016.3,M,39.1,M,,*62
$GPGSA,A,3,01,08,22,17,19,28,11,,,,,,2.42,1.74,1.68*06
$GPGSV,3,1,11,28,61,282,26,22,56,067,37,01,48,040,28,42,48,177,*74
$GPGSV,3,2,11,17,35,312,30,11,30,074,33,08,17,110,32,19,15,302,20*7B
$GPGSV,3,3,11,30,06,228,,04,04,145,,03,,,29*7C
$GPRMC,024054.800,A,3524.4463,N,13852.3221,E,27.19,283.62,051200,,,A*5D
$GPGGA,024054.900,3524.4466,N,13852.3212,E,1,7,1.74,1016.3,M,39.1,M,,*66
$GPGSA,A,3,01,08,22,17,19,28,11,,,,,,2.42,1.74,1.68*06
$GPGSV,3,1,11,28,61,282,26,22,56,067,37,01,48,040,28,42,48,177,*74
$GPGSV,3,2,11,17,35,312,29,11,30,074,33,08,17,110,32,19,15,302,20*73
$GPGSV,3,3,11,30,06,228,,04,04,145,,03,,,29*7C
$GPRMC,024054.900,A,3524.4466,N,13852.3212,E,27.17,283.58,051200,,,A*5E
$GPGGA,024055.000,3524.4470,N,13852.3203,E,1,7,1.74,1015.9,M,39.1,M,,*60
$GPGSA,A,3,01,08,22,17,19,28,11,,,,,,2.42,1.74,1.68*06
$GPGSV,3,1,11,28,61,282,26,22,56,067,37,01,48,040,29,42,48,177,*75
$GPGSV,3,2,11,17,35,312,28,11,30,074,35,08,17,110,32,19,15,302,20*74
$GPGSV,3,3,11,30,06,228,,04,04,145,,03,,,29*7C
$GPRMC,024055.000,A,3524.4470,N,13852.3203,E,27.40,283.73,051200,,,A*5A
$GPGGA,024055.100,3524.4474,N,13852.3193,E,1,7,1.74,1015.6,M,39.1,M,,*60
$GPGSA,A,3,01,08,22,17,19,28,11,,,,,,2.42,1.74,1.68*06
$GPGSV,3,1,11,28,61,282,27,22,56,067,37,01,48,040,29,42,48,177,*74
$GPGSV,3,2,11,17,35,312,27,11,30,074,35,08,17,110,32,19,15,302,20*7B
$GPGSV,3,3,11,30,06,228,,04,04,145,,03,,,29*7C
$GPRMC,024055.100,A,3524.4474,N,13852.3193,E,27.58,283.69,051200,,,A*57
$GPGGA,024055.200,3524.4477,N,13852.3183,E,1,7,1.74,1015.5,M,39.1,M,,*62
$GPGSA,A,3,01,08,22,17,19,28,11,,,,,,2.42,1.74,1.68*06
$GPGSV,3,1,11,28,61,282,27,22,56,067,37,01,48,040,29,42,48,177,*74
$GPGSV,3,2,11,17,35,312,27,11,30,074,35,08,17,110,32,19,15,302,20*7B
$GPGSV,3,3,11,30,06,228,,04,04,145,,03,,,29*7C
$GPRMC,024055.200,A,3524.4477,N,13852.3183,E,27.48,283.71,051200,,,A*5E
$GPGGA,024055.300,3524.4479,N,13852.3174,E,1,7,1.74,1015.7,M,39.1,M,,*67
$GPGSA,A,3,01,08,22,17,19,28,11,,,,,,2.42,1.74,1.68*06
$GPGSV,3,1,11,28,61,282,27,22,56,067,37,01,48,040,29,42,48,177,*74
$GPGSV,3,2,11,17,35,312,27,11,30,074,35,08,17,110,31,19,15,302,20*78
$GPGSV,3,3,11,30,06,228,,04,04,145,,03,,,32*76
$GPRMC,024055.300,A,3524.4479,N,13852.3174,E,27.56,283.73,051200,,,A*54
$GPGGA,024055.400,3524.4483,N,13852.3165,E,1,7,1.74,1015.6,M,39.1,M,,*64
$GPGSA,A,3,01,08,22,17,19,28,11,,,,,,2.42,1.74,1.68*06
$GPGSV,3,1,11,28,61,282,27,22,56,067,37,01,48,040,29,42,48,177,*74
$GPGSV,3,2,11,17,35,312,27,11,30,074,35,08,17,110,31,19,15,302,20*78
$GPGSV,3,3,11,30,06,228,,04,04,145,,03,,,32*76
$GPRMC,024055.400,A,3524.4483,N,13852.3165,E,27.53,283.93,051200,,,A*5D
$GPGGA,024055.500,3524.4484,N,13852.3155,E,1,7,1.74,1016.0,M,39.1,M,,*64
$GPGSA,A,3,01,08,22,17,19,28,11,,,,,,2.42,1.74,1.68*06
$GPGSV,3,1,11,28,61,282,27,22,56,067,37,01,48,040,29,42,48,177,*74
$GPGSV,3,2,11,17,35,312,27,11,30,074,35,08,17,110,31,19,15,302,20*78
$GPGSV,3,3,11,30,06,228,,04,04,145,,03,,,32*76
$GPRMC,024055.500,A,3524.4484,N,13852.3155,E,27.56,284.23,051200,,,A*51
$GPGGA,024055.600,3524.4484,N,13852.3147,E,1,7,1.74,1016.6,M,39.1,M,,*62
$GPGSA,A,3,01,08,22,17,19,28,11,,,,,,2.42,1.74,1.68*06
$GPGSV,3,1,11,28,61,282,27,22,56,067,36,01,48,040,29,42,48,177,*75
$GPGSV,3,2,11,17,35,312,27,11,30,074,35,08,17,110,31,19,15,302,20*78
$GPGSV,3,3,11,30,06,228,,04,04,145,,03,,,32*76
$GPRMC,024055.600,A,3524.4484,N,13852.3147,E,27.72,284.06,051200,,,A*50
$GPGGA,024055.700,3524.4485,N,13852.3139,E,1,7,1.74,1017.6,M,39.1,M,,*6A
$GPGSA,A,3,01,08,22,17,19,28,11,,,,,,2.42,1.74,1.68*06
$GPGSV,3,1,11,28,61,282,29,22,56,067,36,01,48,040,29,42,48,177,*7B
$GPGSV,3,2,11,17,35,312,27,11,30,074,35,08,17,110,31,19,15,302,20*78
$GPGSV,3,3,11,30,06,228,,04,04,145,,03,,,32*76
$GPRMC,024055.700,A,3524.4485,N,13852.3139,E,27.70,284.31,051200,,,A*5F
$GPGGA,024055.800,3524.4484,N,13852.3132,E,1,7,1.74,1019.0,M,39.1,M,,*67
$GPGSA,A,3,01,08,22,17,19,28,11,,,,,,2.42,1.74,1.68*06
$GPGSV,3,1,11,28,61,282,29,22,56,067,36,01,48,040,29,42,48,177,*7B
$GPGSV,3,2,11,17,35,312,27,11,30,074,35,08,17,110,32,19,15,302,20*7B
$GPGSV,3,3,11,30,06,228,,04,04,145,,03,,,32*76
$GPRMC,024055.800,A,3524.4484,N,13852.3132,E,27.69,284.43,051200,,,A*57
$GPGGA,024055.900,3524.4484,N,13852.3123,E,1,7,1.72,1019.8,M,39.1,M,,*68
$GPGSA,A,3,01,08,22,17,19,28,11,,,,,,1.92,1.72,0.86*0F
$GPGSV,3,1,11,28,61,282,29,22,56,067,36,01,48,040,29,42,48,177,*7B
$GPGSV,3,2,11,17,35,312,27,11,30,074,35,08,17,110,33,19,15,302,20*7A
$GPGSV,3,3,11,30,06,228,,04,04,145,,03,,,31*75
$GPRMC,024055.900,A,3524.4484,N,13852.3123,E,28.23,283.95,051200,,,A*5B
$GPGGA,024056.000,3524.4485,N,13852.3114,E,1,7,1.72,1020.2,M,39.1,M,,*67
$GPGSA,A,3,01,08,22,17,19,28,11,,,,,,1.92,1.72,0.86*0F
$GPGSV,3,1,11,28,61,282,29,22,56,067,36,01,48,040,29,42,48,177,*7B
$GPGSV,3,2,11,17,35,312,27,11,30,074,35,08,17,110,33,19,15,302,20*7A
$GPGSV,3,3,11,30,06,228,,04,04,145,,03,,,31*75
$GPRMC,024056.000,A,3524.4485,N,13852.3114,E,28.16,284.40,051200,,,A*5D
$GPGGA,024056.100,3524.4487,N,13852.3104,E,1,7,1.74,1020.5,M,39.1,M,,*64
$GPGSA,A,3,01,08,22,17,19,28,11,,,,,,2.42,1.74,1.68*06
$GPGSV,3,1,11,28,61,282,29,22,56,067,36,01,48,040,29,42,48,177,*7B
$GPGSV,3,2,11,17,35,312,27,11,30,074,35,08,17,110,33,19,15,302,20*7A
$GPGSV,3,3,11,30,06,228,,04,04,145,,03,,,31*75
$GPRMC,024056.100,A,3524.4487,N,13852.3104,E,28.14,283.38,051200,,,A*55
$GPGGA,024056.200,3524.4490,N,13852.3093,E,1,7,1.74,1020.3,M,39.1,M,,*68
$GPGSA,A,3,01,08,22,17,19,28,11,,,,,,2.42,1.74,1.68*06
$GPGSV,3,1,11,28,61,282,29,22,56,067,36,01,48,040,29,42,48,177,*7B
$GPGSV,3,2,11,17,35,312,27,11,30,074,35,08,17,110,33,19,15,302,20*7A
$GPGSV,3,3,11,30,06,228,,04,04,145,,03,,,31*75
$GPRMC,024056.200,A,3524.4490,N,13852.3093,E,28.24,283.18,051200,,,A*5E
$GPGGA,024056.300,3524.4492,N,13852.3082,E,1,7,1.74,1019.9,M,39.1,M,,*6B
$GPGSA,A,3,01,08,22,17,19,28,11,,,,,,2.42,1.74,1.68*06
$GPGSV,3,1,11,28,61,282,29,22,56,067,36,01,48,040,29,42,48,177,*7B
$GPGSV,3,2,11,17,35,312,27,11,30,074,35,08,17,110,26,19,15,302,20*7E
$GPGSV,3,3,11,30,06,228,,04,04,145,,03,,,34*70
$GPRMC,024056.300,A,3524.4492,N,13852.3082,E,28.15,283.21,051200,,,A*55
$GPGGA,024056.400,3524.4494,N,13852.3070,E,1,7,1.74,1019.6,M,39.1,M,,*68
$GPGSA,A,3,01,08,22,17,19,28,11,,,,,,2.42,1.74,1.68*06
$GPGSV,3,1,11,28,61,282,29,22,56,067,36,01,48,040,29,42,48,177,*7B
$GPGSV,3,2,11,17,35,312,27,11,30,074,35,08,17,110,26,19,15,302,20*7E
$GPGSV,3,3,11,30,06,228,,04,04,145,,03,,,34*70
$GPRMC,024056.400,A,3524.4494,N,13852.3070,E,28.21,283.00,051200,,,A*5D
$GPGGA,024056.500,3524.4496,N,13852.3058,E,1,7,1.74,1019.4,M,39.1,M,,*63
$GPGSA,A,3,01,08,22,17,19,28,11,,,,,,2.42,1.74,1.68*06
$GPGSV,3,1,11,28,61,282,29,22,56,067,36,01,48,040,29,42,48,177,*7B
$GPGSV,3,2,11,17,35,312,27,11,30,074,34,08,17,110,26,19,15,302,20*7F
$GPGSV,3,3,11,30,06,228,,04,04,145,,03,,,34*70
$GPRMC,024056.500,A,3524.4496,N,13852.3058,E,28.52,282.96,051200,,,A*5E
$GPGGA,024056.600,3524.4499,N,13852.3047,E,1,7,1.74,1018.9,M,39.1,M,,*6D
$GPGSA,A,3,01,08,22,17,19,28,11,,,,,,2.42,1.74,1.68*06
$GPGSV,3,1,11,28,61,282,29,22,56,067,36,01,48,040,28,42,48,177,*7A
$GPGSV,3,2,11,17,35,312,27,11,30,074,33,08,17,110,26,19,15,302,21*79
$GPGSV,3,3,11,30,06,228,,04,04,145,,03,,,34*70
$GPRMC,024056.600,A,3524.4499,N,13852.3047,E,28.69,283.11,051200,,,A*5A
$GPGGA,024056.700,3524.4502,N,13852.3037,E,1,7,1.74,1018.7,M,39.1,M,,*66
$GPGSA,A,3,01,08,22,17,19,28,11,,,,,,2.42,1.74,1.68*06
$GPGSV,3,1,11,28,61,282,29,22,56,067,36,01,48,040,28,42,48,177,*7A
$GPGSV,3,2,11,17,35,312,26,11,30,074,33,08,17,110,26,19,15,302,22*7B
$GPGSV,3,3,11,30,06,228,,04,04,145,,03,,,34*70
$GPRMC,024056.700,A,3524.4502,N,13852.3037,E,28.77,282.97,051200,,,A*5F
$GPGGA,024056.800,3524.4505,N,13852.3027,E,1,7,1.74,1018.3,M,39.1,M,,*6B
$GPGSA,A,3,01,08,22,17,19,28,11,,,,,,2.42,1.74,1.68*06
$GPGSV,3,1,11,28,61,282,29,22,56,067,36,01,48,040,28,42,48,177,*7A
$GPGSV,3,2,11,17,35,312,25,11,30,074,33,08,17,110,26,19,15,302,22*78
$GPGSV,3,3,11,30,06,228,,04,04,145,,03,,,33*77
$GPRMC,024056.800,A,3524.4505,N,13852.3027,E,28.83,282.69,051200,,,A*5C
$GPGGA,024056.900,3524.4508,N,13852.3018,E,1,7,1.74,1017.9,M,39.1,M,,*6E
$GPGSA,A,3,01,08,22,17,19,28,11,,,,,,2.42,1.74,1.68*06
$GPGSV,3,1,11,28,61,282,29,22,56,067,36,01,48,040,28,42,48,177,*7A
$GPGSV,3,2,11,17,35,312,25,11,30,074,33,08,17,110,26,19,15,302,22*78
$GPGSV,3,3,11,30,06,228,,04,04,145,,03,,,33*77
$GPRMC,024056.900,A,3524.4508,N,13852.3018,E,28.70,283.06,051200,,,A*58
$GPGGA,024057.000,3524.4512,N,13852.3008,E,1,7,1.74,1017.3,M,39.1,M,,*66
$GPGSA,A,3,01,08,22,17,19,28,11,,,,,,2.42,1.74,1.68*06
$GPGSV,3,1,11,28,61,282,28,22,56,067,36,01,48,040,28,42,48,177,*7B
$GPGSV,3,2,11,17,35,312,25,11,30,074,33,08,17,110,26,19,15,302,22*78
$GPGSV,3,3,11,30,06,228,,04,04,145,,03,,,33*77
$GPRMC,024057.000,A,3524.4512,N,13852.3008,E,28.62,283.25,051200,,,A*58
$GPGGA,024057.100,3524.4515,N,13852.2997,E,1,7,1.74,1016.8,M,39.1,M,,*64
$GPGSA,A,3,01,08,22,17,19,28,11,,,,,,2.42,1.74,1.68*06
$GPGSV,3,1,11,28,61,282,28,22,56,067,36,01,48,040,27,42,48,177,*74
$GPGSV,3,2,11,17,35,312,25,11,30,074,32,08,17,110,26,19,15,302,22*79
$GPGSV,3,3,11,30,06,228,,04,04,145,,03,,,33*77
$GPRMC,024057.100,A,3524.4515,N,13852.2997,E,28.62,283.06,051200,,,A*51
$GPGGA,024057.200,3524.4518,N,13852.2987,E,1,7,1.74,1016.3,M,39.1,M,,*60
$GPGSA,A,3,01,08,22,17,19,28,11,,,,,,2.42,1.74,1.68*06
$GPGSV,3,1,11,28,61,282,28,22,56,067,36,01,48,040,26,42,48,177,*75
$GPGSV,3,2,11,17,35,312,25,11,30,074,31,08,17,110,26,19,15,302,21*79
$GPGSV,3,3,11,30,06,228,,04,04,145,,03,,,33*77
$GPRMC,024057.200,A,3524.4518,N,13852.2987,E,28.83,282.33,051200,,,A*56
$GPGGA,024057.300,3524.4520,N,13852.2977,E,1,7,1.74,1016.0,M,39.1,M,,*66
$GPGSA,A,3,01,08,22,17,19,28,11,,,,,,2.42,1.74,1.68*06
$GPGSV,3,1,11,28,61,282,28,22,56,067,36,01,48,040,26,42,48,177,*75
$GPGSV,3,2,11,17,35,312,25,11,30,074,31,08,17,110,26,19,15,302,21*79
$GPGSV,3,3,11,30,06,228,,04,04,145,,03,,,33*77
$GPRMC,024057.300,A,3524.4520,N,13852.2977,E,28.77,282.09,051200,,,A*51
$GPGGA,024057.400,3524.4522,N,13852.2965,E,1,7,1.74,1015.4,M,39.1,M,,*67
$GPGSA,A,3,01,08,22,17,19,28,11,,,,,,2.42,1.74,1.68*06
$GPGSV,3,1,11,28,61,282,28,22,56,067,36,01,48,040,26,42,48,177,*75
$GPGSV,3,2,11,17,35,312,25,11,30,074,31,08,17,110,26,19,15,302,21*79
$GPGSV,3,3,11,30,06,228,,04,04,145,,03,,,33*77
$GPRMC,024057.400,A,3524.4522,N,13852.2965,E,28.39,282.32,051200,,,A*55
$GPGGA,024057.500,3524.4524,N,13852.2955,E,1,7,1.74,1014.9,M,39.1,M,,*6F
$GPGSA,A,3,01,08,22,17,19,28,11,,,,,,2.42,1.74,1.68*06
$GPGSV,3,1,11,28,61,282,28,22,56,067,36,01,48,040,26,42,48,177,*75
$GPGSV,3,2,11,17,35,312,25,11,30,074,31,08,17,110,26,19,15,302,21*79
$GPGSV,3,3,11,30,06,228,,04,04,145,,03,,,33*77
$GPRMC,024057.500,A,3524.4524,N,13852.2955,E,28.43,281.81,051200,,,A*57
$GPGGA,024057.600,3524.4527,N,13852.2944,E,1,7,1.74,1014.2,M,39.1,M,,*64
$GPGSA,A,3,01,08,22,17,19,28,11,,,,,,2.42,1.74,1.68*06
$GPGSV,3,1,11,28,61,282,28,22,56,067,36,01,48,040,25,42,48,177,*76
$GPGSV,3,2,11,17,35,313,24,11,30,074,31,08,17,110,26,19,15,302,21*79
$GPGSV,3,3,11,30,06,228,,04,04,145,,03,,,33*77
$GPRMC,024057.600,A,3524.4527,N,13852.2944,E,28.28,281.55,051200,,,A*53
$GPGGA,024057.700,3524.4530,N,13852.2933,E,1,7,1.74,1013.9,M,39.1,M,,*6F
$GPGSA,A,3,01,08,22,17,19,28,11,,,,,,2.42,1.74,1.68*06
$GPGSV,3,1,11,28,61,282,28,22,56,067,36,01,48,040,25,42,48,177,*76
$GPGSV,3,2,11,17,35,313,24,11,30,074,31,08,17,110,25,19,15,302,21*7A
$GPGSV,3,3,11,30,06,228,,04,04,145,,03,,,33*77
$GPRMC,024057.700,A,3524.4530,N,13852.2933,E,27.60,283.03,051200,,,A*56
$GPGGA,024057.800,3524.4531,N,13852.2924,E,1,7,1.74,1014.0,M,39.1,M,,*69
$GPGSA,A,3,01,08,22,17,19,28,11,,,,,,2.42,1.74,1.68*06
$GPGSV,3,1,11,28,61,282,28,22,56,067,36,01,48,040,25,42,48,177,*76
$GPGSV,3,2,11,17,35,313,24,11,30,074,31,08,17,110,25,19,15,302,21*7A
$GPGSV,3,3,11,30,06,228,,04,04,145,,03,,,29*7C
$GPRMC,024057.800,A,3524.4531,N,13852.2924,E,27.80,282.73,051200,,,A*56
$GPGGA,024057.900,3524.4533,N,13852.2914,E,1,7,1.74,1013.9,M,39.1,M,,*67
$GPGSA,A,3,01,08,22,17,19,28,11,,,,,,2.42,1.74,1.68*06
$GPGSV,3,1,11,28,61,282,28,22,56,067,36,01,48,040,25,42,48,177,*76
$GPGSV,3,2,11,17,35,313,24,11,30,074,31,08,17,110,25,19,15,302,20*7B
$GPGSV,3,3,11,30,06,228,,04,04,145,,03,,,29*7C
$GPRMC,024057.900,A,3524.4533,N,13852.2914,E,28.93,280.77,051200,,,A*5D
$GPGGA,024058.000,3524.4536,N,13852.2904,E,1,7,1.74,1013.9,M,39.1,M,,*65
$GPGSA,A,3,01,08,22,17,19,28,11,,,,,,2.42,1.74,1.68*06
$GPGSV,3,1,11,28,61,282,27,22,56,067,36,01,48,040,25,42,48,177,*79
$GPGSV,3,2,11,17,35,313,24,11,30,074,31,08,17,110,25,19,15,302,19*71
$GPGSV,3,3,11,30,06,228,,04,04,145,,03,,,29*7C
$GPRMC,024058.000,A,3524.4536,N,13852.2904,E,28.30,282.59,051200,,,A*58
$GPGGA,024058.100,3524.4538,N,13852.2895,E,1,7,1.74,1013.6,M,39.1,M,,*6C
$GPGSA,A,3,01,08,22,17,19,28,11,,,,,,2.42,1.74,1.68*06
$GPGSV,3,1,11,28,61,282,26,22,56,067,36,01,48,040,25,42,48,177,*78
$GPGSV,3,2,11,17,35,313,23,11,30,074,31,08,17,110,25,19,15,302,19*76
$GPGSV,3,3,11,30,06,228,,04,04,145,,03,,,29*7C
$GPRMC,024058.100,A,3524.4538,N,13852.2895,E,29.82,280.01,051200,,,A*59
$GPGGA,024058.200,3524.4541,N,13852.2886,E,1,7,1.74,1013.6,M,39.1,M,,*63
$GPGSA,A,3,01,08,22,17,19,28,11,,,,,,2.42,1.74,1.68*06
$GPGSV,3,1,11,28,61,282,26,22,56,067,34,01,48,040,26,42,48,177,*79
$GPGSV,3,2,11,17,35,313,22,11,30,074,31,08,17,110,25,19,15,302,19*77
$GPGSV,3,3,11,30,06,228,,04,04,145,,03,,,29*7C
$GPRMC,024058.200,A,3524.4541,N,13852.2886,E,28.39,285.26,051200,,,A*57
$GPGGA,024058.300,3524.4544,N,13852.2877,E,1,7,1.74,1013.5,M,39.1,M,,*6A
$GPGSA,A,3,01,08,22,17,19,28,11,,,,,,2.42,1.74,1.68*06
$GPGSV,3,1,11,28,61,282,26,22,56,067,33,01,48,040,26,42,48,177,*7E
$GPGSV,3,2,11,17,35,313,22,11,30,074,31,08,17,110,27,19,15,302,19*75
$GPGSV,3,3,11,30,06,228,,04,04,145,,03,,,29*7C
$GPRMC,024058.300,A,3524.4544,N,13852.2877,E,28.58,283.91,051200,,,A*50
$GPGGA,024058.400,3524.4546,N,13852.2868,E,1,7,1.74,1013.6,M,39.1,M,,*62
$GPGSA,A,3,01,08,22,17,19,28,11,,,,,,2.42,1.74,1.68*06
$GPGSV,3,1,11,28,61,282,26,22,56,067,32,01,48,040,26,50,48,169,*73
$GPGSV,3,2,11,17,35,313,22,11,30,074,23,08,17,110,28,19,15,302,19*79
$GPGSV,3,3,11,30,06,228,,04,04,145,,03,,,32*76
$GPRMC,024058.400,A,3524.4546,N,13852.2868,E,28.42,283.82,051200,,,A*52
$GPGGA,024058.500,3524.4549,N,13852.2858,E,1,7,1.74,1013.5,M,39.1,M,,*6C
$GPGSA,A,3,01,08,22,17,19,28,11,,,,,,2.42,1.74,1.68*06
$GPGSV,3,1,11,28,61,282,26,22,56,067,31,01,48,040,26,50,48,169,*70
$GPGSV,3,2,11,17,35,313,22,11,30,074,23,08,17,110,29,19,15,302,20*72
$GPGSV,3,3,11,30,06,228,,04,04,145,,03,,,32*76
$GPRMC,024058.500,A,3524.4549,N,13852.2858,E,28.02,283.71,051200,,,A*57
$GPGGA,024058.600,3524.4552,N,13852.2850,E,1,7,1.74,1013.6,M,39.1,M,,*6E
$GPGSA,A,3,01,08,22,17,19,28,11,,,,,,2.42,1.74,1.68*06
$GPGSV,3,1,11,28,61,282,19,22,56,067,31,01,48,040,35,50,48,169,*7E
$GPGSV,3,2,11,17,35,313,22,11,30,074,23,08,17,110,30,19,15,302,20*7A
$GPGSV,3,3,11,30,06,228,,04,04,145,,03,,,32*76
$GPRMC,024058.600,A,3524.4552,N,13852.2850,E,27.59,285.20,051200,,,A*55
$GPGGA,024058.700,3524.4554,N,13852.2842,E,1,7,1.74,1013.9,M,39.1,M,,*65
$GPGSA,A,3,01,08,22,17,19,28,11,,,,,,2.42,1.74,1.68*06
$GPGSV,3,1,11,28,61,282,19,22,56,067,30,01,48,040,35,50,48,169,*7F
$GPGSV,3,2,11,17,35,313,22,11,30,074,23,08,17,110,30,19,15,302,20*7A
$GPGSV,3,3,11,30,06,228,,04,04,145,,03,,,32*76
$GPRMC,024058.700,A,3524.4554,N,13852.2842,E,27.21,286.31,051200,,,A*5D
$GPGGA,024058.800,3524.4557,N,13852.2833,E,1,7,1.74,1014.0,M,39.1,M,,*61
$GPGSA,A,3,01,08,22,17,19,28,11,,,,,,2.42,1.74,1.68*06
$GPGSV,3,1,11,28,61,282,19,22,56,067,29,01,48,040,35,50,48,169,*77
$GPGSV,3,2,11,17,35,313,21,11,30,074,23,08,17,110,30,19,15,302,20*79
$GPGSV,3,3,11,30,06,228,,04,04,145,,03,,,32*76
$GPRMC,024058.800,A,3524.4557,N,13852.2833,E,26.98,286.67,051200,,,A*57
$GPGGA,024058.900,3524.4558,N,13852.2825,E,1,7,1.74,1014.2,M,39.1,M,,*6A
$GPGSA,A,3,01,08,22,17,19,28,11,,,,,,2.42,1.74,1.68*06
$GPGSV,3,1,11,28,61,282,19,22,56,067,28,01,48,040,35,50,48,169,*76
$GPGSV,3,2,11,17,35,313,21,11,30,074,23,08,17,110,30,19,15,302,20*79
$GPGSV,3,3,11,30,06,228,,04,04,145,,03,,,32*76
$GPRMC,024058.900,A,3524.4558,N,13852.2825,E,26.83,286.78,051200,,,A*5A
$GPGGA,024059.000,3524.4558,N,13852.2817,E,1,7,1.74,1014.4,M,39.1,M,,*65
$GPGSA,A,3,01,08,22,17,19,28,11,,,,,,2.42,1.74,1.68*06
$GPGSV,3,1,11,28,61,282,19,22,56,067,28,01,48,040,35,50,48,169,*76
$GPGSV,3,2,11,17,35,313,21,11,30,074,23,08,17,110,30,19,15,302,20*79
$GPGSV,3,3,11,30,06,228,,04,04,145,,03,,,32*76
$GPRMC,024059.000,A,3524.4558,N,13852.2817,E,26.76,285.80,051200,,,A*5D
$GPGGA,024059.100,3524.4559,N,13852.2809,E,1,7,1.74,1014.7,M,39.1,M,,*69
$GPGSA,A,3,01,08,22,17,19,28,11,,,,,,2.42,1.74,1.68*06
$GPGSV,3,1,11,28,61,282,19,22,56,067,28,01,48,040,35,50,48,169,*76
$GPGSV,3,2,11,17,35,313,21,11,30,074,23,08,17,110,30,19,15,302,20*79
$GPGSV,3,3,11,30,06,228,,04,04,145,,03,,,32*76
$GPRMC,024059.100,A,3524.4559,N,13852.2809,E,26.69,286.81,051200,,,A*5E
$GPGGA,024059.200,3524.4561,N,13852.2800,E,1,7,1.74,1014.8,M,39.1,M,,*67
$GPGSA,A,3,01,08,22,17,19,28,11,,,,,,2.42,1.74,1.68*06
$GPGSV,3,1,11,28,61,282,19,22,56,067,28,01,48,040,34,50,48,169,*77
$GPGSV,3,2,11,17,35,313,21,11,30,074,23,08,17,110,30,19,15,302,19*73
$GPGSV,3,3,11,30,06,228,,04,04,145,,03,,,32*76
$GPRMC,024059.200,A,3524.4561,N,13852.2800,E,26.75,286.70,051200,,,A*5C
$GPGGA,024059.300,3524.4562,N,13852.2791,E,1,7,1.74,1014.8,M,39.1,M,,*62
$GPGSA,A,3,01,08,22,17,19,28,11,,,,,,2.42,1.74,1.68*06
$GPGSV,3,1,11,28,61,282,19,22,56,067,29,01,48,040,33,50,48,169,*71
$GPGSV,3,2,11,17,35,313,21,11,30,074,23,08,17,110,28,19,15,302,19*7A
$GPGSV,3,3,11,30,06,228,,04,04,145,,03,,,32*76
$GPRMC,024059.300,A,3524.4562,N,13852.2791,E,26.74,286.42,051200,,,A*59
$GPGGA,024059.400,3524.4563,N,13852.2782,E,1,7,1.74,1014.7,M,39.1,M,,*69
$GPGSA,A,3,01,08,22,17,19,28,11,,,,,,2.42,1.74,1.68*06
$GPGSV,3,1,11,28,61,282,19,22,56,067,30,01,48,040,33,50,48,169,*79
$GPGSV,3,2,11,17,35,313,21,11,30,074,23,08,17,110,27,19,15,302,19*75
$GPGSV,3,3,11,30,06,228,,04,04,145,,03,,,32*76
$GPRMC,024059.400,A,3524.4563,N,13852.2782,E,26.67,286.48,051200,,,A*55
$GPGGA,024059.500,3524.4565,N,13852.2772,E,1,7,1.74,1014.4,M,39.1,M,,*62
$GPGSA,A,3,01,08,22,17,19,28,11,,,,,,2.42,1.74,1.68*06
$GPGSV,3,1,11,28,61,282,19,22,56,067,30,01,48,040,33,50,48,169,*79
$GPGSV,3,2,11,17,35,313,21,11,30,074,24,08,17,110,26,19,15,302,19*73
$GPGSV,3,3,11,30,06,228,,04,04,145,,03,,,32*76
$GPRMC,024059.500,A,3524.4565,N,13852.2772,E,26.68,286.59,051200,,,A*52
$GPGGA,024059.600,3524.4566,N,13852.2762,E,1,7,1.74,1014.2,M,39.1,M,,*65
$GPGSA,A,3,01,08,22,17,19,28,11,,,,,,2.42,1.74,1.68*06
$GPGSV,3,1,11,28,61,282,19,22,56,067,30,01,48,040,33,50,48,169,*79
$GPGSV,3,2,11,17,35,313,21,11,30,074,25,08,17,110,26,19,15,302,19*72
$GPGSV,3,3,11,30,06,228,,04,04,145,,03,,,30*74
$GPRMC,024059.600,A,3524.4566,N,13852.2762,E,26.66,286.24,051200,,,A*57
$GPGGA,024059.700,3524.4569,N,13852.2752,E,1,7,1.74,1013.5,M,39.1,M,,*68
$GPGSA,A,3,01,08,22,17,19,28,11,,,,,,2.42,1.74,1.68*06
$GPGSV,3,1,11,28,61,282,19,22,56,067,30,01,48,040,26,50,48,169,*7D
$GPGSV,3,2,11,17,35,313,21,11,30,074,25,08,17,110,26,19,15,302,19*72
$GPGSV,3,3,11,30,06,228,,04,04,145,,03,,,29*7C
$GPRMC,024059.700,A,3524.4569,N,13852.2752,E,26.63,285.88,051200,,,A*5A
$GPGGA,024059.800,3524.4572,N,13852.2742,E,1,7,1.74,1012.9,M,39.1,M,,*61
$GPGSA,A,3,01,08,22,17,19,28,11,,,,,,2.42,1.74,1.68*06
$GPGSV,3,1,11,28,61,282,21,22,56,067,30,01,48,040,26,50,48,169,*76
$GPGSV,3,2,11,17,35,313,21,11,30,074,25,08,17,110,24,19,15,302,19*70
$GPGSV,3,3,11,30,06,228,,04,04,145,,03,,,28*7D
$GPRMC,024059.800,A,3524.4572,N,13852.2742,E,26.66,285.59,051200,,,A*57
$GPGGA,024059.900,3524.4575,N,13852.2731,E,1,7,1.74,1012.4,M,39.1,M,,*6E
$GPGSA,A,3,01,08,22,17,19,28,11,,,,,,2.42,1.74,1.68*06
$GPGSV,3,1,11,28,61,282,22,22,56,067,30,01,48,040,26,50,48,169,*75
$GPGSV,3,2,11,17,35,313,23,11,30,074,25,08,17,110,23,19,15,302,19*75
$GPGSV,3,3,11,30,06,228,,04,04,145,,03,,,28*7D
$GPRMC,024059.900,A,3524.4575,N,13852.2731,E,26.77,285.62,051200,,,A*5D
$GPGGA,024100.000,3524.4578,N,13852.2721,E,1,7,1.74,1011.9,M,39.1,M,,*68
$GPGSA,A,3,01,08,22,17,19,28,11,,,,,,2.42,1.74,1.68*06
$GPGSV,3,1,11,28,61,282,23,22,56,067,30,01,48,040,26,50,48,169,*74
$GPGSV,3,2,11,17,35,313,24,11,30,074,25,08,17,110,22,19,15,302,19*73
$GPGSV,3,3,11,30,06,228,,04,04,145,,03,,,28*7D
$GPRMC,024100.000,A,3524.4578,N,13852.2721,E,26.65,285.77,051200,,,A*52
$GPGGA,024100.100,3524.4581,N,13852.2711,E,1,7,1.74,1011.3,M,39.1,M,,*66
$GPGSA,A,3,01,08,22,17,19,28,11,,,,,,2.42,1.74,1.68*06
$GPGSV,3,1,11,28,61,282,23,22,56,067,30,01,48,040,26,50,48,169,*74
$GPGSV,3,2,11,17,35,313,25,11,30,074,26,08,17,110,21,19,15,302,19*72
$GPGSV,3,3,11,30,06,228,,04,04,145,,03,,,28*7D
$GPRMC,024100.100,A,3524.4581,N,13852.2711,E,26.47,285.54,051200,,,A*57
$GPGGA,024100.200,3524.4584,N,13852.2702,E,1,7,1.74,1010.7,M,39.1,M,,*67
$GPGSA,A,3,01,08,22,17,19,28,11,,,,,,2.42,1.74,1.68*06
$GPGSV,3,1,11,28,61,282,23,22,56,067,30,01,48,040,26,50,48,169,*74
$GPGSV,3,2,11,17,35,313,25,11,30,074,27,08,17,110,21,19,15,302,19*73
$GPGSV,3,3,11,30,06,228,,04,04,145,,03,,,28*7D
$GPRMC,024100.200,A,3524.4584,N,13852.2702,E,26.32,285.59,051200,,,A*5C
$GPGGA,024100.300,3524.4588,N,13852.2693,E,1,7,1.74,1010.3,M,39.1,M,,*67
$GPGSA,A,3,01,08,22,17,19,28,11,,,,,,2.42,1.74,1.68*06
$GPGSV,3,1,11,28,61,282,21,22,56,067,30,01,48,040,26,50,48,169,*76
$GPGSV,3,2,11,17,35,313,25,11,30,074,28,08,17,110,21,19,15,302,19*7C
$GPGSV,3,3,11,30,06,228,,04,04,145,,03,,,28*7D
$GPRMC,024100.300,A,3524.4588,N,13852.2693,E,26.36,285.82,051200,,,A*5A
$GPGGA,024100.400,3524.4591,N,13852.2685,E,1,7,1.74,1009.8,M,39.1,M,,*6C
$GPGSA,A,3,01,08,22,17,19,28,11,,,,,,2.42,1.74,1.68*06
$GPGSV,3,1,11,28,61,282,20,22,56,067,30,01,48,040,26,50,48,169,*77
$GPGSV,3,2,11,17,35,313,25,11,30,074,28,08,17,110,21,19,15,302,19*7C
$GPGSV,3,3,11,30,06,228,,04,04,145,,03,,,28*7D
$GPRMC,024100.400,A,3524.4591,N,13852.2685,E,26.31,286.09,051200,,,A*55
$GPGGA,024100.500,3524.4595,N,13852.2677,E,1,7,1.74,1009.3,M,39.1,M,,*6F
$GPGSA,A,3,01,08,22,17,19,28,11,,,,,,2.42,1.74,1.68*06
$GPGSV,3,1,11,28,61,282,19,22,56,067,30,01,48,040,26,50,48,169,*7D
$GPGSV,3,2,11,17,35,313,25,11,30,074,28,08,17,110,21,19,15,302,19*7C
$GPGSV,3,3,11,30,06,228,,04,04,145,,03,,,28*7D
$GPRMC,024100.500,A,3524.4595,N,13852.2677,E,26.06,285.94,051200,,,A*5E
$GPGGA,024100.600,3524.4597,N,13852.2668,E,1,7,1.74,1009.0,M,39.1,M,,*63
$GPGSA,A,3,01,08,22,17,19,28,11,,,,,,2.42,1.74,1.68*06
$GPGSV,3,1,11,28,61,282,19,22,56,067,30,01,48,040,26,50,48,169,*7D
$GPGSV,3,2,11,17,35,313,25,11,30,074,28,08,17,110,21,19,15,302,19*7C
$GPGSV,3,3,11,30,06,228,,04,04,145,,03,,,28*7D
$GPRMC,024100.600,A,3524.4597,N,13852.2668,E,25.81,285.51,051200,,,A*54
$GPGGA,024100.700,3524.4599,N,13852.2659,E,1,7,1.74,1008.7,M,39.1,M,,*68
$GPGSA,A,3,01,08,22,17,19,28,11,,,,,,2.42,1.74,1.68*06
$GPGSV,3,1,11,28,61,282,19,22,56,067,30,01,48,040,26,50,48,169,*7D
$GPGSV,3,2,11,17,35,313,25,11,30,074,28,08,17,110,21,19,15,302,19*7C
$GPGSV,3,3,11,30,06,228,,04,04,145,,03,,,29*7C
$GPRMC,024100.700,A,3524.4599,N,13852.2659,E,25.70,284.85,051200,,,A*5F
$GPGGA,024100.800,3524.4601,N,13852.2650,E,1,7,1.74,1008.3,M,39.1,M,,*68
$GPGSA,A,3,01,08,22,17,19,28,11,,,,,,2.42,1.74,1.68*06
$GPGSV,3,1,11,28,61,282,19,22,56,067,30,01,48,040,26,50,48,169,*7D
$GPGSV,3,2,11,17,35,313,25,11,30,074,28,08,17,110,21,19,15,302,19*7C
$GPGSV,3,3,11,30,06,228,,04,04,145,,03,,,30*74
$GPRMC,024100.800,A,3524.4601,N,13852.2650,E,25.62,284.21,051200,,,A*56
$GPGGA,024100.900,3524.4603,N,13852.2641,E,1,7,1.74,1007.8,M,39.1,M,,*6F
$GPGSA,A,3,01,08,22,17,19,28,11,,,,,,2.42,1.74,1.68*06
$GPGSV,3,1,11,28,61,282,19,22,56,067,30,01,48,040,26,50,48,169,*7D
$GPGSV,3,2,11,17,35,313,25,11,30,074,27,08,17,110,21,19,15,302,19*73
$GPGSV,3,3,11,30,06,228,,04,04,145,,03,,,30*74
$GPRMC,024100.900,A,3524.4603,N,13852.2641,E,25.72,283.60,051200,,,A*56
$GPGGA,024101.000,3524.4606,N,13852.2631,E,1,7,1.74,1007.1,M,39.1,M,,*6C
$GPGSA,A,3,01,08,22,17,19,28,11,,,,,,2.42,1.74,1.68*06
$GPGSV,3,1,11,28,61,282,19,22,56,067,31,01,48,040,26,50,48,169,*7C
$GPGSV,3,2,11,17,35,313,25,11,30,074,27,08,17,110,21,19,15,302,19*73
$GPGSV,3,3,11,30,06,228,,04,04,145,,03,,,30*74
$GPRMC,024101.000,A,3524.4606,N,13852.2631,E,25.81,283.01,051200,,,A*57
$GPGGA,024101.100,3524.4608,N,13852.2621,E,1,7,1.74,1006.5,M,39.1,M,,*67
$GPGSA,A,3,01,08,22,17,19,28,11,,,,,,2.42,1.74,1.68*06
$GPGSV,3,1,11,28,61,282,19,22,56,067,31,01,48,040,26,50,48,169,*7C
$GPGSV,3,2,11,17,35,313,24,11,30,074,27,08,17,110,21,19,15,302,20*78
$GPGSV,3,3,11,30,06,228,,04,04,145,,03,,,30*74
$GPRMC,024101.100,A,3524.4608,N,13852.2621,E,25.86,282.69,051200,,,A*51
$GPGGA,024101.200,3524.4611,N,13852.2612,E,1,7,1.74,1006.1,M,39.1,M,,*68
$GPGSA,A,3,01,08,22,17,19,28,11,,,,,,2.42,1.74,1.68*06
$GPGSV,3,1,11,28,61,282,19,22,56,067,31,01,48,040,26,50,48,169,*7C
$GPGSV,3,2,11,17,35,313,24,11,30,074,27,08,17,110,21,19,15,302,21*79
$GPGSV,3,3,11,30,06,228,,04,04,145,,03,,,32*76
$GPRMC,024101.200,A,3524.4611,N,13852.2612,E,25.90,282.59,051200,,,A*5E
$GPGGA,024101.300,3524.4613,N,13852.2603,E,1,7,1.74,1005.8,M,39.1,M,,*61
$GPGSA,A,3,01,08,22,17,19,28,11,,,,,,2.42,1.74,1.68*06
$GPGSV,3,1,11,28,61,282,19,22,56,067,31,01,48,040,26,50,48,169,*7C
$GPGSV,3,2,11,17,35,313,24,11,30,074,27,08,17,110,22,19,15,302,22*79
$GPGSV,3,3,11,30,06,228,,04,04,145,,03,,,33*77
$GPRMC,024101.300,A,3524.4613,N,13852.2603,E,25.92,282.64,051200,,,A*51
$GPGGA,024101.400,3524.4616,N,13852.2594,E,1,7,1.74,1005.5,M,39.1,M,,*63
$GPGSA,A,3,01,08,22,17,19,28,11,,,,,,2.42,1.74,1.68*06
$GPGSV,3,1,11,28,61,282,19,22,56,067,31,01,48,040,26,50,48,169,*7C
$GPGSV,3,2,11,17,35,313,24,11,30,074,27,08,17,110,23,19,15,302,22*78
$GPGSV,3,3,11,30,06,228,,04,04,145,,03,,,34*70
$GPRMC,024101.400,A,3524.4616,N,13852.2594,E,25.89,282.42,051200,,,A*50
$GPGGA,024101.500,3524.4618,N,13852.2585,E,1,7,1.74,1005.1,M,39.1,M,,*68
$GPGSA,A,3,01,08,22,17,19,28,11,,,,,,2.42,1.74,1.68*06
$GPGSV,3,1,11,28,61,282,19,22,56,067,32,01,48,040,26,50,48,169,*7F
$GPGSV,3,2,11,17,35,313,24,11,30,074,27,08,17,110,24,19,15,302,22*7F
$GPGSV,3,3,11,30,06,228,,04,04,145,,03,,,34*70
$GPRMC,024101.500,A,3524.4618,N,13852.2585,E,25.94,282.65,051200,,,A*56
$GPGGA,024101.600,3524.4621,N,13852.2576,E,1,7,1.74,1004.9,M,39.1,M,,*64
$GPGSA,A,3,01,08,22,17,19,28,11,,,,,,2.42,1.74,1.68*06
$GPGSV,3,1,11,28,61,282,20,22,56,067,33,01,48,040,26,50,48,169,*74
$GPGSV,3,2,11,17,35,313,24,11,30,074,27,08,17,110,24,19,15,302,22*7F
$GPGSV,3,3,11,30,06,228,,04,04,145,,03,,,34*70
$GPRMC,024101.600,A,3524.4621,N,13852.2576,E,25.86,282.98,051200,,,A*52
$GPGGA,024101.700,3524.4622,N,13852.2567,E,1,7,1.74,1004.7,M,39.1,M,,*68
$GPGSA,A,3,01,08,22,17,19,28,11,,,,,,2.42,1.74,1.68*06
$GPGSV,3,1,11,28,61,282,21,22,56,067,33,01,48,040,28,50,48,169,*7B
$GPGSV,3,2,11,17,35,313,24,11,30,074,27,08,17,110,24,19,15,302,22*7F
$GPGSV,3,3,11,30,06,228,,04,04,145,,03,,,32*76
$GPRMC,024101.700,A,3524.4622,N,13852.2567,E,25.79,281.99,051200,,,A*52
$GPGGA,024101.800,3524.4623,N,13852.2558,E,1,7,1.74,1004.6,M,39.1,M,,*6B
$GPGSA,A,3,01,08,22,17,19,28,11,,,,,,2.42,1.74,1.68*06
$GPGSV,3,1,11,28,61,282,22,22,56,067,33,01,48,040,29,50,48,169,*79
$GPGSV,3,2,11,17,35,313,24,11,30,074,27,08,17,110,22,19,15,302,23*78
$GPGSV,3,3,11,30,06,228,,04,04,145,,03,,,31*75
$GPRMC,024101.800,A,3524.4623,N,13852.2558,E,25.90,281.49,051200,,,A*5A
$GPGGA,024101.900,3524.4625,N,13852.2550,E,1,7,1.74,1004.5,M,39.1,M,,*67
$GPGSA,A,3,01,08,22,17,19,28,11,,,,,,2.42,1.74,1.68*06
$GPGSV,3,1,11,28,61,282,22,22,56,067,33,01,48,040,30,50,48,169,*71
$GPGSV,3,2,11,17,35,313,24,11,30,074,27,08,17,110,21,19,15,302,24*7C
$GPGSV,3,3,11,30,06,228,,04,04,145,,03,,,30*74
$GPRMC,024101.900,A,3524.4625,N,13852.2550,E,25.89,281.46,051200,,,A*52
$GPGGA,024102.000,3524.4626,N,13852.2541,E,1,7,1.74,1004.4,M,39.1,M,,*6F
$GPGSA,A,3,01,08,22,17,19,28,11,,,,,,2.42,1.74,1.68*06
$GPGSV,3,1,11,28,61,282,22,22,56,067,33,01,48,040,30,50,48,169,*71
$GPGSV,3,2,11,17,35,313,24,11,30,074,27,08,17,110,20,19,15,302,24*7D
$GPGSV,3,3,11,30,06,228,,04,04,145,,03,,,30*74
$GPRMC,024102.000,A,3524.4626,N,13852.2541,E,25.85,281.20,051200,,,A*57
$GPGGA,024102.100,3524.4628,N,13852.2533,E,1,7,1.74,1004.4,M,39.1,M,,*65
$GPGSA,A,3,01,08,22,17,19,28,11,,,,,,2.42,1.74,1.68*06
$GPGSV,3,1,11,28,61,282,22,22,56,067,33,01,48,040,30,50,48,169,*71
$GPGSV,3,2,11,17,35,313,24,11,30,074,27,08,17,110,20,19,15,302,24*7D
$GPGSV,3,3,11,30,06,228,,04,04,145,,03,,,30*74
$GPRMC,024102.100,A,3524.4628,N,13852.2533,E,25.81,281.26,051200,,,A*5F
$GPGGA,024102.200,3524.4629,N,13852.2524,E,1,7,1.74,1004.4,M,39.1,M,,*61
$GPGSA,A,3,01,08,22,17,19,28,11,,,,,,2.42,1.74,1.68*06
$GPGSV,3,1,11,28,61,282,23,22,56,067,33,01,48,040,30,50,48,169,*70
$GPGSV,3,2,11,17,35,313,24,11,30,074,27,08,17,110,20,19,15,302,24*7D
$GPGSV,3,3,11,30,06,228,,04,04,145,,03,,,30*74
$GPRMC,024102.200,A,3524.4629,N,13852.2524,E,25.83,281.31,051200,,,A*5F
$GPGGA,024102.300,3524.4629,N,13852.2515,E,1,7,1.74,1004.4,M,39.1,M,,*62
$GPGSA,A,3,01,08,22,17,19,28,11,,,,,,2.42,1.74,1.68*06
$GPGSV,3,1,11,28,61,282,24,22,56,067,33,01,48,040,31,50,48,169,*76
$GPGSV,3,2,11,17,35,313,24,11,30,074,27,08,17,110,20,19,15,302,24*7D
$GPGSV,3,3,11,30,06,228,,04,04,145,,03,,,29*7C
$GPRMC,024102.300,A,3524.4629,N,13852.2515,E,25.86,280.31,051200,,,A*58
$GPGGA,024102.400,3524.4629,N,13852.2507,E,1,7,1.74,1004.6,M,39.1,M,,*64
$GPGSA,A,3,01,08,22,17,19,28,11,,,,,,2.42,1.74,1.68*06
$GPGSV,3,1,11,28,61,282,24,22,56,067,33,01,48,040,31,50,48,169,*76
$GPGSV,3,2,11,17,35,313,24,11,30,074,27,08,17,110,20,19,15,302,25*7C
$GPGSV,3,3,11,30,06,228,,04,04,145,,03,,,28*7D
$GPRMC,024102.400,A,3524.4629,N,13852.2507,E,25.94,279.40,051200,,,A*5F
$GPGGA,024102.500,3524.4629,N,13852.2498,E,1,7,1.74,1004.7,M,39.1,M,,*63
$GPGSA,A,3,01,08,22,17,19,28,11,,,,,,2.42,1.74,1.68*06
$GPGSV,3,1,11,28,61,282,24,22,56,067,33,01,48,040,31,50,48,169,*76
$GPGSV,3,2,11,17,35,313,24,11,30,074,27,08,17,110,19,19,15,302,26*75
$GPGSV,3,3,11,30,06,228,,04,04,145,,03,,,28*7D
$GPRMC,024102.500,A,3524.4629,N,13852.2498,E,26.04,278.64,051200,,,A*54
$GPGGA,024102.600,3524.4629,N,13852.2490,E,1,7,1.74,1005.0,M,39.1,M,,*6E
$GPGSA,A,3,01,08,22,17,19,28,11,,,,,,2.42,1.74,1.68*06
$GPGSV,3,1,11,28,61,282,24,22,56,067,32,01,48,040,31,50,48,169,*77
$GPGSV,3,2,11,17,35,313,24,11,30,074,27,08,17,110,19,19,15,302,26*75
$GPGSV,3,3,11,30,06,228,,04,04,145,,03,,,28*7D
$GPRMC,024102.600,A,3524.4629,N,13852.2490,E,26.13,277.97,051200,,,A*5A
$GPGGA,024102.700,3524.4628,N,13852.2481,E,1,7,1.74,1005.2,M,39.1,M,,*6C
$GPGSA,A,3,01,08,22,17,19,28,11,,,,,,2.42,1.74,1.68*06
$GPGSV,3,1,11,28,61,282,24,22,56,067,32,01,48,040,31,50,48,169,*77
$GPGSV,3,2,11,17,35,313,25,11,30,074,26,08,17,110,19,19,15,302,26*75
$GPGSV,3,3,11,30,06,228,,04,04,145,,03,,,28*7D
$GPRMC,024102.700,A,3524.4628,N,13852.2481,E,26.16,277.47,051200,,,A*52
$GPGGA,024102.800,3524.4629,N,13852.2473,E,1,7,1.74,1005.3,M,39.1,M,,*6E
$GPGSA,A,3,01,08,22,17,19,28,11,,,,,,2.42,1.74,1.68*06
$GPGSV,3,1,11,28,61,282,24,22,56,067,32,01,48,040,29,50,48,169,*7E
$GPGSV,3,2,11,17,35,313,26,11,30,074,26,08,17,110,19,19,15,302,26*76
$GPGSV,3,3,11,30,06,228,,04,04,145,,03,,,28*7D
$GPRMC,024102.800,A,3524.4629,N,13852.2473,E,26.13,277.11,051200,,,A*57
$GPGGA,024102.900,3524.4629,N,13852.2464,E,1,7,1.74,1005.5,M,39.1,M,,*6F
$GPGSA,A,3,01,08,22,17,19,28,11,,,,,,2.42,1.74,1.68*06
$GPGSV,3,1,11,28,61,282,25,22,56,067,32,01,48,040,28,50,48,169,*7E
$GPGSV,3,2,11,17,35,313,27,11,30,074,26,08,17,110,19,19,15,302,26*77
$GPGSV,3,3,11,30,06,228,,04,04,145,,03,,,28*7D
$GPRMC,024102.900,A,3524.4629,N,13852.2464,E,26.13,276.56,051200,,,A*52
$GPGGA,024103.000,3524.4628,N,13852.2456,E,1,7,1.74,1005.7,M,39.1,M,,*65
$GPGSA,A,3,01,08,22,17,19,28,11,,,,,,2.42,1.74,1.68*06
$GPGSV,3,1,11,28,61,282,25,22,56,067,32,01,48,040,27,50,48,169,*71
$GPGSV,3,2,11,17,35,313,27,11,30,074,26,08,17,110,19,19,15,302,26*77
$GPGSV,3,3,11,30,06,228,,04,04,145,,03,,,28*7D
$GPRMC,024103.000,A,3524.4628,N,13852.2456,E,26.09,276.31,051200,,,A*50
$GPGGA,024103.100,3524.4628,N,13852.2447,E,1,7,1.74,1006.0,M,39.1,M,,*60
$GPGSA,A,3,01,08,22,17,19,28,11,,,,,,2.42,1.74,1.68*06
$GPGSV,3,1,11,28,61,282,25,22,56,067,32,01,48,040,26,50,48,169,*70
$GPGSV,3,2,11,17,35,313,27,11,30,074,26,08,17,110,19,19,15,302,26*77
$GPGSV,3,3,11,30,06,228,,04,04,145,,03,,,28*7D
$GPRMC,024103.100,A,3524.4628,N,13852.2447,E,26.17,276.44,051200,,,A*5C
$GPGGA,024103.200,3524.4629,N,13852.2439,E,1,7,1.74,1006.1,M,39.1,M,,*6A
$GPGSA,A,3,01,08,22,17,19,28,11,,,,,,2.42,1.74,1.68*06
$GPGSV,3,1,11,28,61,282,25,22,56,067,32,01,48,040,26,50,48,169,*70
$GPGSV,3,2,11,17,35,313,27,11,30,074,33,08,17,110,19,19,15,302,26*73
$GPGSV,3,3,11,30,06,228,,04,04,145,,03,,,28*7D
$GPRMC,024103.200,A,3524.4629,N,13852.2439,E,26.20,276.64,051200,,,A*51
