Script started on Wed May 24 18:43:58 2017
bash-3.2$ exitscreen screen /dev/tty.G-Rays1-SPPslave
[?1h=[0m(B[1;24r[H[J[H[J[H[JÉ5)ÿ$GPRMC,094546.300,A,3541.3151,N,13944.7049,E,11.40,97.79,240517,,,D*67
$GPRMC,094546.400,A,3541.3149,N,13944.7053,E,11.40,97.87,240517,,,D*63
$GPRMC,094546.500,A,3541.3148,N,13944.7057,E,11.45,97.77,240517,,,D*6D
$GPRMC,094546.600,A,3541.3146,N,13944.7060,E,11.46,97.81,240517,,,D*6E
$GPRMC,094546.700,A,3541.3145,N,13944.7065,E,11.51,97.87,240517,,,D*69
$GPRMC,094546.800,A,3541.3143,N,13944.7068,E,11.50,97.89,240517,,,D*62
$GPRMC,094546.900,A,3541.3142,N,13944.7072,E,11.53,97.91,240517,,,D*63
$GPRMC,094547.000,A,3541.3140,N,13944.7076,E,11.56,97.98,240517,,,D*61
$GPRMC,094547.100,A,3541.3138,N,13944.7080,E,11.60,98.07,240517,,,D*6A
$GPRMC,094547.200,A,3541.3136,N,13944.7084,E,11.62,98.30,240517,,,D*65
$GPRMC,094547.300,A,3541.3134,N,13944.7088,E,11.63,98.55,240517,,,D*68
$GPRMC,094547.400,A,3541.3132,N,13944.7092,E,11.66,98.76,240517,,,D*66
$GPRMC,094547.500,A,3541.3130,N,13944.7096,E,11.67,98.94,240517,,,D*6C
$GPRMC,094547.600,A,3541.3129,N,13944.7100,E,11.63,98.93,240517,,,D*6A
$GPRMC,094547.700,A,3541.3127,N,13944.7103,E,11.59,99.10,240517,,,D*65
$GPRMC,094547.800,A,3541.3126,N,13944.7107,E,11.57,99.19,240517,,,D*68
$GPRMC,094547.900,A,3541.3124,N,13944.7111,E,11.52,99.33,240517,,,D*61
$GPRMC,094548.000,A,3541.3123,N,13944.7114,E,11.48,99.53,240517,,,D*68
$GPRMC,094548.100,A,3541.3121,N,13944.7118,E,11.41,99.77,240517,,,D*68
$GPRMC,094548.200,A,3541.3119,N,13944.7122,E,11.36,99.98,240517,,,D*68
$GPRMC,094548.300,A,3541.3117,N,13944.7125,E,11.32,100.26,240517,,,D*50
$GPRMC,094548.400,A,3541.3115,N,13944.7129,E,11.24,100.61,240517,,,D*5D
$GPRMC,094548.500,A,3541.3114,N,13944.7132,E,11.15,101.03,240517,,,D*50
$GPRMC,094548.600,A,3541.3112,N,13944.7135,E,11.03,101.50,240517,,,D*53
$GPRMC,094548.700,A,3541.3109,N,13944.7139,E,10.92,101.95,240517,,,D*54
$GPRMC,094548.800,A,3541.3107,N,13944.7142,E,10.79,102.56,240517,,,D*50
$GPRMC,094548.900,A,3541.3105,N,13944.7145,E,10.67,103.21,240517,,,D*5A
$GPRMC,094549.000,A,3541.3102,N,13944.7148,E,10.56,103.89,240517,,,D*58
$GPRMC,094549.100,A,3541.3100,N,13944.7151,E,10.43,104.77,240517,,,D*51
$GPRMC,094549.200,A,3541.3097,N,13944.7154,E,10.30,105.68,240517,,,D*53
$GPRMC,094549.300,A,3541.3094,N,13944.7157,E,10.18,106.71,240517,,,D*53
$GPRMC,094549.400,A,3541.3091,N,13944.7160,E,10.05,107.82,240517,,,D*54
$GPRMC,094549.500,A,3541.3088,N,13944.7162,E,9.93,109.14,240517,,,D*69
$GPRMC,094549.600,A,3541.3085,N,13944.7165,E,9.82,110.60,240517,,,D*6B
$GPRMC,094549.700,A,3541.3082,N,13944.7168,E,9.74,111.95,240517,,,D*62
$GPRMC,094549.800,A,3541.3078,N,13944.7171,E,9.65,113.42,240517,,,D*68
$GPRMC,094549.900,A,3541.3075,N,13944.7173,E,9.53,115.02,240517,,,D*61
$GPRMC,094550.000,A,3541.3072,N,13944.7176,E,9.39,116.73,240517,,,D*6B
$GPRMC,094550.100,A,3541.3069,N,13944.7178,E,9.28,118.44,240517,,,D*64
$GPRMC,094550.200,A,3541.3066,N,13944.7180,E,9.16,120.12,240517,,,D*6A
$GPRMC,094550.300,A,3541.3062,N,13944.7182,E,9.06,121.88,240517,,,D*6E
$GPRMC,094550.400,A,3541.3059,N,13944.7184,E,8.97,123.73,240517,,,D*68
$GPRMC,094550.500,A,3541.3055,N,13944.7186,E,8.88,125.76,240517,,,D*6A
$GPRMC,094550.600,A,3541.3052,N,13944.7188,E,8.80,127.72,240517,,,D*6E
$GPRMC,094550.700,A,3541.3048,N,13944.7189,E,8.73,129.66,240517,,,D*62
$GPRMC,094550.800,A,3541.3045,N,13944.7191,E,8.68,131.61,240517,,,D*6D
$GPRMC,094550.900,A,3541.3041,N,13944.7193,E,8.63,133.58,240517,,,D*69
$GPRMC,094551.000,A,3541.3037,N,13944.7194,E,8.57,135.63,240517,,,D*6E
$GPRMC,094551.100,A,3541.3034,N,13944.7196,E,8.54,137.80,240517,,,D*62
$GPRMC,094551.200,A,3541.3030,N,13944.7197,E,8.53,139.89,240517,,,D*64
$GPRMC,094551.300,A,3541.3026,N,13944.7198,E,8.52,141.96,240517,,,D*6D
$GPRMC,094551.400,A,3541.3023,N,13944.7199,E,8.54,144.02,240517,,,D*60
$GPRMC,094551.500,A,3541.3019,N,13944.7200,E,8.55,146.12,240517,,,D*69
$GPRMC,094551.600,A,3541.3015,N,13944.7202,E,8.57,148.21,240517,,,D*68
$GPRMC,094551.700,A,3541.3011,N,13944.7203,E,8.61,150.28,240517,,,D*69
$GPRMC,094551.800,A,3541.3007,N,13944.7203,E,8.68,152.39,240517,,,D*6A
$GPRMC,094551.900,A,3541.3003,N,13944.7204,E,8.76,154.38,240517,,,D*60
$GPRMC,094552.000,A,3541.2999,N,13944.7205,E,8.81,156.52,240517,,,D*66
$GPRMC,094552.100,A,3541.2995,N,13944.7205,E,8.82,158.67,240517,,,D*60
$GPRMC,094552.200,A,3541.2992,N,13944.7205,E,8.91,160.68,240517,,,D*62
$GPRMC,094552.300,A,3541.2988,N,13944.7205,E,8.99,162.67,240517,,,D*6D
$GPRMC,094552.400,A,3541.2985,N,13944.7205,E,9.10,164.56,240517,,,D*63
$GPRMC,094552.500,A,3541.2981,N,13944.7205,E,9.22,166.44,240517,,,D*66
$GPRMC,094552.600,A,3541.2977,N,13944.7205,E,9.35,168.26,240517,,,D*60
$GPRMC,094552.700,A,3541.2973,N,13944.7205,E,9.52,169.90,240517,,,D*68
$GPRMC,094552.800,A,3541.2969,N,13944.7205,E,9.69,171.46,240517,,,D*66
$GPRMC,094552.900,A,3541.2965,N,13944.7205,E,9.89,172.86,240517,,,D*6A
$GPRMC,094553.000,A,3541.2961,N,13944.7204,E,10.07,174.30,240517,,,D*52
$GPRMC,094553.100,A,3541.2957,N,13944.7204,E,10.29,175.79,240517,,,D*56
$GPRMC,094553.200,A,3541.2952,N,13944.7203,E,10.51,177.20,240517,,,D*56
$GPRMC,094553.300,A,3541.2948,N,13944.7203,E,10.73,178.56,240517,,,D*52
$GPRMC,094553.400,A,3541.2943,N,13944.7202,E,10.97,179.88,240517,,,D*57
$GPRMC,094553.500,A,3541.2939,N,13944.7201,E,11.20,181.16,240517,,,D*55
$GPRMC,094553.600,A,3541.2935,N,13944.7201,E,11.43,182.37,240517,,,D*5F
$GPRMC,094553.700,A,3541.2930,N,13944.7200,E,11.67,183.57,240517,,,D*5B
$GPRMC,094553.800,A,3541.2925,N,13944.7199,E,11.92,184.63,240517,,,D*59
$GPRMC,094553.900,A,3541.2920,N,13944.7198,E,12.18,185.59,240517,,,D*55
$GPRMC,094554.000,A,3541.2915,N,13944.7197,E,12.44,186.53,240517,,,D*52
$GPRMC,094554.100,A,3541.2911,N,13944.7195,E,12.61,187.79,240517,,,D*5B
$GPRMC,094554.200,A,3541.2906,N,13944.7194,E,12.87,188.61,240517,,,D*51
$GPRMC,094554.300,A,3541.2901,N,13944.7193,E,13.14,189.37,240517,,,D*59
$GPRMC,094554.400,A,3541.2896,N,13944.7192,E,13.42,190.08,240517,,,D*57
$GPRMC,094554.500,A,3541.2890,N,13944.7190,E,13.66,190.85,240517,,,D*51
$GPRMC,094554.600,A,3541.2885,N,13944.7189,E,13.91,191.47,240517,,,D*59
$GPRMC,094554.700,A,3541.2880,N,13944.7187,E,14.18,192.08,240517,,,D*5D
$GPRMC,094554.800,A,3541.2874,N,13944.7186,E,14.44,192.72,240517,,,D*5C
$GPRMC,094554.900,A,3541.2869,N,13944.7184,E,14.65,193.29,240517,,,D*5F
$GPRMC,094555.000,A,3541.2863,N,13944.7183,E,14.88,193.79,240517,,,D*5C
$GPRMC,094555.100,A,3541.2859,N,13944.7181,E,14.95,194.34,240517,,,D*54
$GPRMC,094555.200,A,3541.2854,N,13944.7179,E,15.02,194.83,240517,,,D*5E
$GPRMC,094555.300,A,3541.2849,N,13944.7177,E,15.09,195.40,240517,,,D*58
$GPRMC,094555.400,A,3541.2845,N,13944.7175,E,15.17,195.95,240517,,,D*56
$GPRMC,094555.500,A,3541.2840,N,13944.7172,E,15.25,196.47,240517,,,D*58
$GPRMC,094555.600,A,3541.2836,N,13944.7170,E,15.33,197.02,240517,,,D*5F
$GPRMC,094555.700,A,3541.2831,N,13944.7168,E,15.42,197.57,240517,,,D*56
$GPRMC,094555.800,A,3541.2827,N,13944.7165,E,15.50,198.10,240517,,,D*5C
$GPRMC,094555.900,A,3541.2822,N,13944.7163,E,15.60,198.67,240517,,,D*5D
$GPRMC,094556.000,A,3541.2817,N,13944.7160,E,15.73,199.30,240517,,,D*53
$GPRMC,094556.100,A,3541.2812,N,13944.7158,E,15.86,199.72,240517,,,D*50
$GPRMC,094556.200,A,3541.2808,N,13944.7155,E,15.99,200.07,240517,,,D*5A
$GPRMC,094556.300,A,3541.2802,N,13944.7153,E,16.15,200.12,240517,,,D*54
$GPRMC,094556.400,A,3541.2797,N,13944.7151,E,16.21,200.17,240517,,,D*50
$GPRMC,094556.500,A,3541.2792,N,13944.7149,E,16.26,200.29,240517,,,D*57
$GPRMC,094556.600,A,3541.2787,N,13944.7146,E,16.35,200.52,240517,,,D*51
$GPRMC,094556.700,A,3541.2782,N,13944.7144,E,16.42,200.62,240517,,,D*54
$GPRMC,094556.800,A,3541.2777,N,13944.7142,E,16.49,200.61,240517,,,D*5F
$GPRMC,094556.900,A,3541.2771,N,13944.7140,E,16.54,200.59,240517,,,D*5D
$GPRMC,094557.000,A,3541.2766,N,13944.7138,E,16.60,200.61,240517,,,D*50
$GPRMC,094557.100,A,3541.2761,N,13944.7136,E,16.69,200.64,240517,,,D*54
$GPRMC,094557.200,A,3541.2755,N,13944.7134,E,16.75,200.64,240517,,,D*5F
$GPRMC,094557.300,A,3541.2750,N,13944.7132,E,16.82,200.67,240517,,,D*56
$GPRMC,094557.400,A,3541.2744,N,13944.7130,E,16.90,200.65,240517,,,D*57
$GPRMC,094557.500,A,3541.2738,N,13944.7128,E,16.99,200.64,240517,,,D*5C
$GPRMC,094557.600,A,3541.2732,N,13944.7126,E,17.09,200.56,240517,,,D*52
$GPRMC,094557.700,A,3541.2726,N,13944.7124,E,17.18,200.51,240517,,,D*53
$GPRMC,094557.800,A,3541.2720,N,13944.7122,E,17.29,200.46,240517,,,D*58
$GPRMC,094557.900,A,3541.2714,N,13944.7120,E,17.40,200.45,240517,,,D*50
$GPRMC,094558.000,A,3541.2708,N,13944.7118,E,17.52,200.35,240517,,,D*54
$GPRMC,094558.100,A,3541.2702,N,13944.7115,E,17.64,200.41,240517,,,D*54
$GPRMC,094558.200,A,3541.2694,N,13944.7113,E,17.97,200.44,240517,,,D*56
$GPRMC,094558.300,A,3541.2688,N,13944.7111,E,18.05,200.31,240517,,,D*5E
$GPRMC,094558.400,A,3541.2681,N,13944.7109,E,18.16,200.24,240517,,,D*5F
$GPRMC,094558.500,A,3541.2675,N,13944.7107,E,18.32,200.22,240517,,,D*5B
$GPRMC,094558.600,A,3541.2666,N,13944.7105,E,18.66,200.11,240517,,,D*59
$GPRMC,094558.700,A,3541.2659,N,13944.7103,E,18.79,200.00,240517,,,D*5C
$GPRMC,094558.800,A,3541.2653,N,13944.7101,E,18.88,199.85,240517,,,D*5B
$GPRMC,094558.900,A,3541.2646,N,13944.7099,E,18.97,199.79,240517,,,D*53
$GPRMC,094559.000,A,3541.2639,N,13944.7097,E,19.08,199.73,240517,,,D*50
$GPRMC,094559.100,A,3541.2632,N,13944.7095,E,19.19,199.62,240517,,,D*58
$GPRMC,094559.200,A,3541.2625,N,13944.7093,E,19.34,199.58,240517,,,D*5D
$GPRMC,094559.300,A,3541.2618,N,13944.7090,E,19.52,199.58,240517,,,D*51
$GPRMC,094559.400,A,3541.2611,N,13944.7088,E,19.63,199.51,240517,,,D*5D
$GPRMC,094559.500,A,3541.2604,N,13944.7086,E,19.77,199.39,240517,,,D*5D
$GPRMC,094559.600,A,3541.2596,N,13944.7084,E,19.92,199.26,240517,,,D*51
$GPRMC,094559.700,A,3541.2587,N,13944.7082,E,20.27,199.19,240517,,,D*5E
$GPRMC,094559.800,A,3541.2580,N,13944.7080,E,20.35,199.06,240517,,,D*59
$GPRMC,094559.900,A,3541.2573,N,13944.7078,E,20.49,198.93,240517,,,D*55
$GPRMC,094600.000,A,3541.2565,N,13944.7075,E,20.65,198.81,240517,,,D*54
$GPRMC,094600.100,A,3541.2557,N,13944.7074,E,20.76,198.63,240517,,,D*5B
$GPRMC,094600.200,A,3541.2549,N,13944.7072,E,20.90,198.37,240517,,,D*58
$GPRMC,094600.300,A,3541.2541,N,13944.7070,E,21.06,198.14,240517,,,D*5C
$GPRMC,094600.400,A,3541.2532,N,13944.7068,E,21.23,197.94,240517,,,D*56
$GPRMC,094600.500,A,3541.2524,N,13944.7066,E,21.42,197.75,240517,,,D*56
$GPRMC,094600.600,A,3541.2516,N,13944.7064,E,21.61,197.59,240517,,,D*59
$GPRMC,094600.700,A,3541.2506,N,13944.7061,E,21.99,197.61,240517,,,D*50
$GPRMC,094600.800,A,3541.2496,N,13944.7059,E,22.36,197.45,240517,,,D*5C
$GPRMC,094600.900,A,3541.2488,N,13944.7056,E,22.49,197.33,240517,,,D*54
$GPRMC,094601.000,A,3541.2480,N,13944.7054,E,22.63,197.27,240517,,,D*5B
$GPRMC,094601.100,A,3541.2472,N,13944.7051,E,22.78,197.25,240517,,,D*5A
$GPRMC,094601.200,A,3541.2461,N,13944.7049,E,23.19,197.34,240517,,,D*54
$GPRMC,094601.300,A,3541.2453,N,13944.7046,E,23.35,197.30,240517,,,D*51
$GPRMC,094601.400,A,3541.2445,N,13944.7043,E,23.47,197.32,240517,,,D*53
$GPRMC,094601.500,A,3541.2435,N,13944.7041,E,23.76,197.38,240517,,,D*5F
$GPRMC,094601.600,A,3541.2427,N,13944.7038,E,23.86,197.43,240517,,,D*52
$GPRMC,094601.700,A,3541.2419,N,13944.7035,E,23.92,197.46,240517,,,D*53
$GPRMC,094601.800,A,3541.2410,N,13944.7033,E,24.07,197.40,240517,,,D*5E
$GPRMC,094601.900,A,3541.2402,N,13944.7030,E,24.18,197.37,240517,,,D*51
$GPRMC,094602.000,A,3541.2393,N,13944.7028,E,24.30,197.35,240517,,,D*55
$GPRMC,094602.100,A,3541.2385,N,13944.7025,E,24.35,197.43,240517,,,D*5A
$GPRMC,094602.200,A,3541.2377,N,13944.7022,E,24.43,197.45,240517,,,D*54
$GPRMC,094602.300,A,3541.2370,N,13944.7020,E,24.49,197.42,240517,,,D*5D
$GPRMC,094602.400,A,3541.2362,N,13944.7017,E,24.58,197.36,240517,,,D*5E
$GPRMC,094602.500,A,3541.2354,N,13944.7014,E,24.67,197.28,240517,,,D*5A
$GPRMC,094602.600,A,3541.2344,N,13944.7012,E,24.82,197.19,240517,,,D*57
$GPRMC,094602.700,A,3541.2336,N,13944.7009,E,24.93,197.21,240517,,,D*52
$GPRMC,094602.800,A,3541.2327,N,13944.7006,E,25.04,197.23,240517,,,D*5F
$GPRMC,094602.900,A,3541.2318,N,13944.7003,E,25.22,197.38,240517,,,D*59
$GPRMC,094603.000,A,3541.2308,N,13944.7000,E,25.40,197.45,240517,,,D*5D
$GPRMC,094603.100,A,3541.2299,N,13944.6997,E,25.52,197.46,240517,,,D*53
$GPRMC,094603.200,A,3541.2290,N,13944.6994,E,25.68,197.45,240517,,,D*50
$GPRMC,094603.300,A,3541.2280,N,13944.6991,E,25.80,197.38,240517,,,D*59
$GPRMC,094603.400,A,3541.2271,N,13944.6989,E,25.91,197.32,240517,,,D*53
$GPRMC,094603.500,A,3541.2262,N,13944.6986,E,26.04,197.28,240517,,,D*5B
$GPRMC,094603.600,A,3541.2253,N,13944.6983,E,26.16,197.25,240517,,,D*51
$GPRMC,094603.700,A,3541.2243,N,13944.6981,E,26.29,197.19,240517,,,D*50
$GPRMC,094603.800,A,3541.2234,N,13944.6978,E,26.42,197.10,240517,,,D*5D
$GPRMC,094603.900,A,3541.2225,N,13944.6976,E,26.51,196.95,240517,,,D*5C
$GPRMC,094604.000,A,3541.2216,N,13944.6973,E,26.62,196.76,240517,,,D*5A
$GPRMC,094604.100,A,3541.2208,N,13944.6970,E,26.66,196.69,240517,,,D*5D
$GPRMC,094604.200,A,3541.2200,N,13944.6968,E,26.72,196.63,240517,,,D*50
$GPRMC,094604.300,A,3541.2192,N,13944.6965,E,26.81,196.57,240517,,,D*5F
$GPRMC,094604.400,A,3541.2183,N,13944.6962,E,26.89,196.51,240517,,,D*51
$GPRMC,094604.500,A,3541.2176,N,13944.6959,E,26.93,196.44,240517,,,D*5D
$GPRMC,094604.600,A,3541.2168,N,13944.6956,E,26.96,196.44,240517,,,D*5B
$GPRMC,094604.700,A,3541.2160,N,13944.6953,E,26.99,196.44,240517,,,D*58
$GPRMC,094604.800,A,3541.2153,N,13944.6950,E,27.04,196.43,240517,,,D*56
$GPRMC,094604.900,A,3541.2145,N,13944.6948,E,27.08,196.41,240517,,,D*57
$GPRMC,094605.000,A,3541.2136,N,13944.6945,E,27.15,196.41,240517,,,D*5A
$GPRMC,094605.100,A,3541.2128,N,13944.6942,E,27.21,196.38,240517,,,D*5A
$GPRMC,094605.200,A,3541.2119,N,13944.6939,E,27.30,196.37,240517,,,D*58
$GPRMC,094605.300,A,3541.2110,N,13944.6936,E,27.38,196.35,240517,,,D*55
$GPRMC,094605.400,A,3541.2101,N,13944.6933,E,27.45,196.33,240517,,,D*5B
$GPRMC,094605.500,A,3541.2091,N,13944.6930,E,27.54,196.30,240517,,,D*52
$GPRMC,094605.600,A,3541.2081,N,13944.6928,E,27.65,196.26,240517,,,D*5C
$GPRMC,094605.700,A,3541.2072,N,13944.6925,E,27.74,196.20,240517,,,D*5A
$GPRMC,094605.800,A,3541.2063,N,13944.6922,E,27.82,196.15,240517,,,D*5D
$GPRMC,094605.900,A,3541.2053,N,13944.6920,E,27.91,196.08,240517,,,D*53
$GPRMC,094606.000,A,3541.2044,N,13944.6917,E,27.98,196.01,240517,,,D*5B
$GPRMC,094606.100,A,3541.2035,N,13944.6914,E,28.06,195.99,240517,,,D*55
$GPRMC,094606.200,A,3541.2026,N,13944.6912,E,28.11,195.92,240517,,,D*5F
$GPRMC,094606.300,A,3541.2016,N,13944.6909,E,28.19,195.88,240517,,,D*54
$GPRMC,094606.400,A,3541.2006,N,13944.6907,E,28.33,195.74,240517,,,D*57
$GPRMC,094606.500,A,3541.1997,N,13944.6904,E,28.38,195.74,240517,,,D*5C
$GPRMC,094606.600,A,3541.1986,N,13944.6901,E,28.55,195.76,240517,,,D*53
$GPRMC,094606.700,A,3541.1977,N,13944.6898,E,28.64,195.83,240517,,,D*55
$GPRMC,094606.800,A,3541.1968,N,13944.6895,E,28.69,195.81,240517,,,D*56
$GPRMC,094606.900,A,3541.1959,N,13944.6892,E,28.74,195.80,240517,,,D*5F
$GPRMC,094607.000,A,3541.1949,N,13944.6890,E,28.79,195.74,240517,,,D*52
$GPRMC,094607.100,A,3541.1940,N,13944.6887,E,28.86,195.70,240517,,,D*58
$GPRMC,094607.200,A,3541.1930,N,13944.6885,E,28.93,195.63,240517,,,D*58
$GPRMC,094607.300,A,3541.1921,N,13944.6882,E,28.99,195.61,240517,,,D*56
$GPRMC,094607.400,A,3541.1911,N,13944.6879,E,29.05,195.58,240517,,,D*58
$GPRMC,094607.500,A,3541.1901,N,13944.6877,E,29.13,195.54,240517,,,D*5D
$GPRMC,094607.600,A,3541.1892,N,13944.6874,E,29.19,195.59,240517,,,D*51
$GPRMC,094607.700,A,3541.1882,N,13944.6871,E,29.20,195.53,240517,,,D*54
$GPRMC,094607.800,A,3541.1873,N,13944.6868,E,29.22,195.60,240517,,,D*5F
$GPRMC,094607.900,A,3541.1864,N,13944.6866,E,29.26,195.65,240517,,,D*57
$GPRMC,094608.000,A,3541.1855,N,13944.6862,E,29.33,195.71,240517,,,D*56
$GPRMC,094608.100,A,3541.1847,N,13944.6859,E,29.35,195.76,240517,,,D*5D
$GPRMC,094608.200,A,3541.1839,N,13944.6856,E,29.34,195.81,240517,,,D*51
$GPRMC,094608.300,A,3541.1831,N,13944.6853,E,29.33,195.86,240517,,,D*5D
$GPRMC,094608.400,A,3541.1823,N,13944.6850,E,29.32,195.91,240517,,,D*5D
$GPRMC,094608.500,A,3541.1815,N,13944.6847,E,29.31,195.94,240517,,,D*59
$GPRMC,094608.600,A,3541.1807,N,13944.6844,E,29.33,195.91,240517,,,D*5D
$GPRMC,094608.700,A,3541.1798,N,13944.6841,E,29.34,195.86,240517,,,D*51
$GPRMC,094608.800,A,3541.1789,N,13944.6839,E,29.37,195.79,240517,,,D*52
$GPRMC,094608.900,A,3541.1780,N,13944.6836,E,29.41,195.71,240517,,,D*5C
$GPRMC,094609.000,A,3541.1771,N,13944.6833,E,29.47,195.66,240517,,,D*5F
$GPRMC,094609.100,A,3541.1762,N,13944.6831,E,29.51,195.59,240517,,,D*55
$GPRMC,094609.200,A,3541.1753,N,13944.6829,E,29.54,195.47,240517,,,D*57
$GPRMC,094609.300,A,3541.1744,N,13944.6826,E,29.58,195.49,240517,,,D*5D
$GPRMC,094609.400,A,3541.1734,N,13944.6823,E,29.61,195.41,240517,,,D*5A
$GPRMC,094609.500,A,3541.1725,N,13944.6821,E,29.65,195.35,240517,,,D*5E
$GPRMC,094609.600,A,3541.1715,N,13944.6818,E,29.77,195.27,240517,,,D*54
$GPRMC,094609.700,A,3541.1706,N,13944.6816,E,29.77,195.26,240517,,,D*58
$GPRMC,094609.800,A,3541.1697,N,13944.6813,E,29.81,195.27,240517,,,D*53
$GPRMC,094609.900,A,3541.1687,N,13944.6811,E,29.85,195.20,240517,,,D*52
$GPRMC,094610.000,A,3541.1678,N,13944.6808,E,29.88,195.17,240517,,,D*52
$GPRMC,094610.100,A,3541.1669,N,13944.6806,E,29.92,195.12,240517,,,D*53
$GPRMC,094610.200,A,3541.1660,N,13944.6803,E,29.95,195.06,240517,,,D*5E
$GPRMC,094610.300,A,3541.1650,N,13944.6801,E,29.99,195.03,240517,,,D*57
$GPRMC,094610.400,A,3541.1641,N,13944.6799,E,30.02,194.96,240517,,,D*59
$GPRMC,094610.500,A,3541.1632,N,13944.6796,E,30.04,194.90,240517,,,D*53
$GPRMC,094610.600,A,3541.1622,N,13944.6794,E,30.06,194.84,240517,,,D*54
$GPRMC,094610.700,A,3541.1613,N,13944.6792,E,30.08,194.76,240517,,,D*52
$GPRMC,094610.800,A,3541.1604,N,13944.6790,E,30.10,194.71,240517,,,D*57
$GPRMC,094610.900,A,3541.1595,N,13944.6787,E,30.13,194.68,240517,,,D*50
$GPRMC,094611.000,A,3541.1585,N,13944.6785,E,30.15,194.69,240517,,,D*5C
$GPRMC,094611.100,A,3541.1576,N,13944.6782,E,30.15,194.71,240517,,,D*5F
$GPRMC,094611.200,A,3541.1568,N,13944.6779,E,30.15,194.77,240517,,,D*51
$GPRMC,094611.300,A,3541.1559,N,13944.6777,E,30.15,194.77,240517,,,D*5C
$GPRMC,094611.400,A,3541.1550,N,13944.6774,E,30.14,194.79,240517,,,D*5E
$GPRMC,094611.500,A,3541.1542,N,13944.6772,E,30.13,194.81,240517,,,D*5A
$GPRMC,094611.600,A,3541.1533,N,13944.6770,E,30.12,194.72,240517,,,D*50
$GPRMC,094611.700,A,3541.1524,N,13944.6768,E,30.11,194.63,240517,,,D*5D
$GPRMC,094611.800,A,3541.1516,N,13944.6766,E,30.07,194.52,240517,,,D*58
$GPRMC,094611.900,A,3541.1508,N,13944.6764,E,30.00,194.37,240517,,,D*50
$GPRMC,094612.000,A,3541.1500,N,13944.6762,E,29.93,194.24,240517,,,D*54
$GPRMC,094612.100,A,3541.1491,N,13944.6760,E,29.96,194.14,240517,,,D*58
$GPRMC,094612.200,A,3541.1482,N,13944.6758,E,29.99,194.04,240517,,,D*5C
$GPRMC,094612.300,A,3541.1473,N,13944.6756,E,30.00,193.93,240517,,,D*5C
$GPRMC,094612.400,A,3541.1464,N,13944.6755,E,29.99,193.81,240517,,,D*55
$GPRMC,094612.500,A,3541.1456,N,13944.6753,E,29.96,193.66,240517,,,D*55
$GPRMC,094612.600,A,3541.1448,N,13944.6751,E,29.95,193.49,240517,,,D*55
$GPRMC,094612.700,A,3541.1439,N,13944.6750,E,29.94,193.30,240517,,,D*5C
$GPRMC,094612.800,A,3541.1431,N,13944.6748,E,29.90,193.19,240517,,,D*5D
$GPRMC,094612.900,A,3541.1423,N,13944.6747,E,29.85,193.09,240517,,,D*55
$GPRMC,094613.000,A,3541.1415,N,13944.6745,E,29.75,192.87,240517,,,D*52
$GPRMC,094613.100,A,3541.1407,N,13944.6744,E,29.69,192.77,240517,,,D*53
$GPRMC,094613.200,A,3541.1399,N,13944.6742,E,29.66,192.69,240517,,,D*56
$GPRMC,094613.300,A,3541.1391,N,13944.6740,E,29.60,192.63,240517,,,D*51
$GPRMC,094613.400,A,3541.1383,N,13944.6738,E,29.57,192.56,240517,,,D*58
$GPRMC,094613.500,A,3541.1374,N,13944.6737,E,29.54,192.48,240517,,,D*52
$GPRMC,094613.600,A,3541.1366,N,13944.6735,E,29.50,192.43,240517,,,D*5F
$GPRMC,094613.700,A,3541.1358,N,13944.6733,E,29.48,192.36,240517,,,D*5E
$GPRMC,094613.800,A,3541.1350,N,13944.6731,E,29.44,192.28,240517,,,D*58
$GPRMC,094613.900,A,3541.1341,N,13944.6730,E,29.41,192.18,240517,,,D*5E
$GPRMC,094614.000,A,3541.1333,N,13944.6728,E,29.39,192.02,240517,,,D*58
$GPRMC,094614.100,A,3541.1325,N,13944.6727,E,29.37,191.89,240517,,,D*5F
$GPRMC,094614.200,A,3541.1317,N,13944.6726,E,29.34,191.72,240517,,,D*5B
$GPRMC,094614.300,A,3541.1309,N,13944.6725,E,29.30,191.52,240517,,,D*50
$GPRMC,094614.400,A,3541.1301,N,13944.6723,E,29.27,191.35,240517,,,D*5E
$GPRMC,094614.500,A,3541.1293,N,13944.6721,E,29.20,191.32,240517,,,D*57
$GPRMC,094614.600,A,3541.1285,N,13944.6720,E,29.15,191.28,240517,,,D*5F
$GPRMC,094614.700,A,3541.1278,N,13944.6718,E,29.10,191.26,240517,,,D*5C
$GPRMC,094614.800,A,3541.1270,N,13944.6716,E,29.05,191.28,240517,,,D*5F
$GPRMC,094614.900,A,3541.1263,N,13944.6714,E,29.01,191.28,240517,,,D*5A
$GPRMC,094615.000,A,3541.1255,N,13944.6712,E,28.94,191.35,240517,,,D*50
$GPRMC,094615.100,A,3541.1248,N,13944.6710,E,28.87,191.34,240517,,,D*5C
$GPRMC,094615.200,A,3541.1241,N,13944.6709,E,28.81,191.28,240517,,,D*55
$GPRMC,094615.300,A,3541.1233,N,13944.6707,E,28.71,191.15,240517,,,D*5E
$GPRMC,094615.400,A,3541.1226,N,13944.6706,E,28.64,191.10,240517,,,D*5D
$GPRMC,094615.500,A,3541.1220,N,13944.6705,E,28.44,191.01,240517,,,D*5B
$GPRMC,094615.600,A,3541.1212,N,13944.6704,E,28.37,190.90,240517,,,D*55
$GPRMC,094615.700,A,3541.1205,N,13944.6702,E,28.29,190.97,240517,,,D*5C
$GPRMC,094615.800,A,3541.1198,N,13944.6701,E,28.22,190.95,240517,,,D*5E
$GPRMC,094615.900,A,3541.1191,N,13944.6700,E,28.17,190.87,240517,,,D*52
$GPRMC,094616.000,A,3541.1183,N,13944.6698,E,28.13,190.79,240517,,,D*5E
$GPRMC,094616.100,A,3541.1175,N,13944.6697,E,28.07,190.72,240517,,,D*57
$GPRMC,094616.200,A,3541.1168,N,13944.6696,E,28.00,190.62,240517,,,D*5F
$GPRMC,094616.300,A,3541.1161,N,13944.6694,E,27.94,190.49,240517,,,D*5E
$GPRMC,094616.400,A,3541.1153,N,13944.6693,E,27.87,190.37,240517,,,D*54
$GPRMC,094616.500,A,3541.1146,N,13944.6692,E,27.76,190.21,240517,,,D*59
$GPRMC,094616.600,A,3541.1140,N,13944.6691,E,27.61,190.02,240517,,,D*58
$GPRMC,094616.700,A,3541.1132,N,13944.6690,E,27.55,189.98,240517,,,D*51
$GPRMC,094616.800,A,3541.1125,N,13944.6688,E,27.50,189.98,240517,,,D*54
$GPRMC,094616.900,A,3541.1117,N,13944.6687,E,27.44,189.98,240517,,,D*5E
$GPRMC,094617.000,A,3541.1110,N,13944.6685,E,27.39,189.97,240517,,,D*56
$GPRMC,094617.100,A,3541.1103,N,13944.6683,E,27.33,189.97,240517,,,D*59
$GPRMC,094617.200,A,3541.1096,N,13944.6681,E,27.27,189.97,240517,,,D*50
$GPRMC,094617.300,A,3541.1089,N,13944.6680,E,27.22,189.93,240517,,,D*5F
$GPRMC,094617.400,A,3541.1083,N,13944.6677,E,27.16,190.13,240517,,,D*5D
$GPRMC,094617.500,A,3541.1076,N,13944.6674,E,27.10,190.36,240517,,,D*54
$GPRMC,094617.600,A,3541.1070,N,13944.6672,E,27.02,190.56,240517,,,D*52
$GPRMC,094617.700,A,3541.1064,N,13944.6669,E,26.93,190.79,240517,,,D*58
$GPRMC,094617.800,A,3541.1058,N,13944.6666,E,26.90,190.84,240517,,,D*56
$GPRMC,094617.900,A,3541.1051,N,13944.6664,E,26.87,190.89,240517,,,D*57
$GPRMC,094618.000,A,3541.1044,N,13944.6662,E,26.85,190.90,240517,,,D*59
$GPRMC,094618.100,A,3541.1037,N,13944.6660,E,26.79,190.87,240517,,,D*5B
$GPRMC,094618.200,A,3541.1031,N,13944.6658,E,26.71,190.85,240517,,,D*5F
$GPRMC,094618.300,A,3541.1025,N,13944.6656,E,26.64,190.86,240517,,,D*52
$GPRMC,094618.400,A,3541.1019,N,13944.6654,E,26.59,190.90,240517,,,D*51
$GPRMC,094618.500,A,3541.1013,N,13944.6652,E,26.52,190.93,240517,,,D*54
$GPRMC,094618.600,A,3541.1006,N,13944.6650,E,26.50,190.85,240517,,,D*54
$GPRMC,094618.700,A,3541.0999,N,13944.6649,E,26.47,190.84,240517,,,D*54
$GPRMC,094618.800,A,3541.0992,N,13944.6646,E,26.41,190.87,240517,,,D*5A
$GPRMC,094618.900,A,3541.0986,N,13944.6644,E,26.33,190.98,240517,,,D*57
$GPRMC,094619.000,A,3541.0980,N,13944.6642,E,26.24,191.06,240517,,,D*5F
$GPRMC,094619.100,A,3541.0974,N,13944.6640,E,26.16,191.11,240517,,,D*50
$GPRMC,094619.200,A,3541.0968,N,13944.6638,E,26.05,191.24,240517,,,D*55
$GPRMC,094619.300,A,3541.0963,N,13944.6636,E,25.88,191.27,240517,,,D*54
$GPRMC,094619.400,A,3541.0958,N,13944.6634,E,25.68,191.35,240517,,,D*54
$GPRMC,094619.500,A,3541.0953,N,13944.6632,E,25.52,191.48,240517,,,D*5B
$GPRMC,094619.600,A,3541.0948,N,13944.6630,E,25.39,191.54,240517,,,D*50
$GPRMC,094619.700,A,3541.0943,N,13944.6628,E,25.28,191.63,240517,,,D*57
$GPRMC,094619.800,A,3541.0938,N,13944.6625,E,25.12,191.73,240517,,,D*51
$GPRMC,094619.900,A,3541.0932,N,13944.6624,E,24.99,191.61,240517,,,D*5A
$GPRMC,094620.000,A,3541.0927,N,13944.6623,E,24.87,191.55,240517,,,D*52
$GPRMC,094620.100,A,3541.0921,N,13944.6621,E,24.78,191.47,240517,,,D*54
$GPRMC,094620.200,A,3541.0916,N,13944.6620,E,24.67,191.43,240517,,,D*58
$GPRMC,094620.300,A,3541.0910,N,13944.6618,E,24.54,191.36,240517,,,D*56
$GPRMC,094620.400,A,3541.0905,N,13944.6617,E,24.43,191.30,240517,,,D*5A
$GPRMC,094620.500,A,3541.0899,N,13944.6615,E,24.32,191.25,240517,,,D*5F
$GPRMC,094620.600,A,3541.0894,N,13944.6614,E,24.22,191.22,240517,,,D*56
$GPRMC,094620.700,A,3541.0888,N,13944.6613,E,24.09,191.04,240517,,,D*50
$GPRMC,094620.800,A,3541.0882,N,13944.6612,E,24.04,190.94,240517,,,D*51
$GPRMC,094620.900,A,3541.0876,N,13944.6611,E,23.98,190.86,240517,,,D*59
$GPRMC,094621.000,A,3541.0870,N,13944.6610,E,23.91,190.76,240517,,,D*50
$GPRMC,094621.100,A,3541.0866,N,13944.6608,E,23.75,190.81,240517,,,D*5D
$GPRMC,094621.200,A,3541.0859,N,13944.6607,E,23.73,190.77,240517,,,D*52
$GPRMC,094621.300,A,3541.0853,N,13944.6605,E,23.69,190.74,240517,,,D*53
$GPRMC,094621.400,A,3541.0847,N,13944.6603,E,23.61,190.86,240517,,,D*52
$GPRMC,094621.500,A,3541.0842,N,13944.6601,E,23.53,190.98,240517,,,D*5A
$GPRMC,094621.600,A,3541.0836,N,13944.6599,E,23.45,191.08,240517,,,D*57
$GPRMC,094621.700,A,3541.0830,N,13944.6598,E,23.40,191.07,240517,,,D*5B
$GPRMC,094621.800,A,3541.0824,N,13944.6596,E,23.33,191.11,240517,,,D*5C
$GPRMC,094621.900,A,3541.0819,N,13944.6594,E,23.24,191.19,240517,,,D*5F
$GPRMC,094622.000,A,3541.0814,N,13944.6593,E,23.15,191.27,240517,,,D*50
$GPRMC,094622.100,A,3541.0809,N,13944.6591,E,23.07,191.36,240517,,,D*5C
$GPRMC,094622.200,A,3541.0803,N,13944.6589,E,22.99,191.43,240517,,,D*58
$GPRMC,094622.300,A,3541.0798,N,13944.6587,E,22.92,191.54,240517,,,D*57
$GPRMC,094622.400,A,3541.0793,N,13944.6586,E,22.77,191.51,240517,,,D*54
$GPRMC,094622.500,A,3541.0788,N,13944.6584,E,22.69,191.58,240517,,,D*5B
$GPRMC,094622.600,A,3541.0782,N,13944.6583,E,22.65,191.46,240517,,,D*56
$GPRMC,094622.700,A,3541.0777,N,13944.6582,E,22.61,191.35,240517,,,D*5C
$GPRMC,094622.800,A,3541.0771,N,13944.6582,E,22.55,191.19,240517,,,D*5C
$GPRMC,094622.900,A,3541.0766,N,13944.6580,E,22.44,191.18,240517,,,D*58
$GPRMC,094623.000,A,3541.0762,N,13944.6579,E,22.30,191.18,240517,,,D*51
$GPRMC,094623.100,A,3541.0757,N,13944.6578,E,22.24,191.15,240517,,,D*5F
$GPRMC,094623.200,A,3541.0752,N,13944.6576,E,22.17,191.10,240517,,,D*52
$GPRMC,094623.300,A,3541.0746,N,13944.6575,E,22.10,191.04,240517,,,D*57
$GPRMC,094623.400,A,3541.0741,N,13944.6575,E,21.95,190.76,240517,,,D*5D
$GPRMC,094623.500,A,3541.0736,N,13944.6574,E,21.85,190.75,240517,,,D*5F
$GPRMC,094623.600,A,3541.0731,N,13944.6574,E,21.78,190.69,240517,,,D*54
$GPRMC,094623.700,A,3541.0726,N,13944.6573,E,21.66,190.59,240517,,,D*58
$GPRMC,094623.800,A,3541.0722,N,13944.6573,E,21.55,190.39,240517,,,D*55
$GPRMC,094623.900,A,3541.0718,N,13944.6572,E,21.41,190.31,240517,,,D*51
$GPRMC,094624.000,A,3541.0713,N,13944.6571,E,21.35,190.32,240517,,,D*57
$GPRMC,094624.100,A,3541.0709,N,13944.6571,E,21.20,190.05,240517,,,D*5D
$GPRMC,094624.200,A,3541.0704,N,13944.6570,E,21.11,190.02,240517,,,D*57
$GPRMC,094624.300,A,3541.0700,N,13944.6569,E,21.02,190.08,240517,,,D*52
$GPRMC,094624.400,A,3541.0695,N,13944.6568,E,20.94,190.09,240517,,,D*56
$GPRMC,094624.500,A,3541.0690,N,13944.6567,E,20.85,190.11,240517,,,D*54
$GPRMC,094624.600,A,3541.0686,N,13944.6566,E,20.76,190.13,240517,,,D*5F
$GPRMC,094624.700,A,3541.0682,N,13944.6564,E,20.67,190.21,240517,,,D*59
$GPRMC,094624.800,A,3541.0677,N,13944.6563,E,20.57,190.08,240517,,,D*53
$GPRMC,094624.900,A,3541.0673,N,13944.6562,E,20.44,189.99,240517,,,D*55
$GPRMC,094625.000,A,3541.0670,N,13944.6562,E,20.27,189.83,240517,,,D*50
$GPRMC,094625.100,A,3541.0666,N,13944.6561,E,20.12,189.64,240517,,,D*5A
$GPRMC,094625.200,A,3541.0662,N,13944.6560,E,19.98,189.49,240517,,,D*5B
$GPRMC,094625.300,A,3541.0658,N,13944.6559,E,19.87,189.45,240517,,,D*5B
$GPRMC,094625.400,A,3541.0654,N,13944.6558,E,19.73,189.34,240517,,,D*5C
$GPRMC,094625.500,A,3541.0650,N,13944.6558,E,19.58,189.18,240517,,,D*5E
$GPRMC,094625.600,A,3541.0647,N,13944.6557,E,19.44,189.01,240517,,,D*51
$GPRMC,094625.700,A,3541.0643,N,13944.6556,E,19.32,188.90,240517,,,D*5D
$GPRMC,094625.800,A,3541.0639,N,13944.6555,E,19.16,188.82,240517,,,D*59
$GPRMC,094625.900,A,3541.0636,N,13944.6554,E,19.03,188.77,240517,,,D*58
$GPRMC,094626.000,A,3541.0633,N,13944.6554,E,18.80,188.43,240517,,,D*5A
$GPRMC,094626.100,A,3541.0630,N,13944.6553,E,18.68,188.51,240517,,,D*5A
$GPRMC,094626.200,A,3541.0627,N,13944.6553,E,18.55,188.55,240517,,,D*55
$GPRMC,094626.300,A,3541.0624,N,13944.6552,E,18.41,188.63,240517,,,D*56
$GPRMC,094626.400,A,3541.0622,N,13944.6550,E,18.24,188.80,240517,,,D*5B
$GPRMC,094626.500,A,3541.0619,N,13944.6549,E,18.09,188.99,240517,,,D*5D
$GPRMC,094626.600,A,3541.0616,N,13944.6548,E,17.97,189.02,240517,,,D*5B
$GPRMC,094626.700,A,3541.0614,N,13944.6547,E,17.82,189.01,240517,,,D*50
$GPRMC,094626.800,A,3541.0611,N,13944.6546,E,17.67,188.84,240517,,,D*5C
$GPRMC,094626.900,A,3541.0609,N,13944.6547,E,17.37,188.38,240517,,,D*57
$GPRMC,094627.000,A,3541.0608,N,13944.6547,E,17.15,188.22,240517,,,D*55
$GPRMC,094627.100,A,3541.0605,N,13944.6547,E,16.95,187.99,240517,,,D*5F
$GPRMC,094627.200,A,3541.0602,N,13944.6547,E,16.81,187.81,240517,,,D*57
$GPRMC,094627.300,A,3541.0599,N,13944.6546,E,16.70,187.72,240517,,,D*54
$GPRMC,094627.400,A,3541.0597,N,13944.6545,E,16.52,187.95,240517,,,D*57
$GPRMC,094627.500,A,3541.0596,N,13944.6545,E,16.30,187.84,240517,,,D*53
$GPRMC,094627.600,A,3541.0593,N,13944.6545,E,16.18,187.67,240517,,,D*52
$GPRMC,094627.700,A,3541.0590,N,13944.6545,E,16.05,187.46,240517,,,D*5F
$GPRMC,094627.800,A,3541.0587,N,13944.6545,E,15.91,187.25,240517,,,D*5D
$GPRMC,094627.900,A,3541.0585,N,13944.6545,E,15.76,187.02,240517,,,D*52
$GPRMC,094628.000,A,3541.0582,N,13944.6545,E,15.57,186.71,240517,,,D*55
$GPRMC,094628.100,A,3541.0580,N,13944.6546,E,15.38,186.39,240517,,,D*50
$GPRMC,094628.200,A,3541.0578,N,13944.6546,E,15.20,186.09,240517,,,D*5E
$GPRMC,094628.300,A,3541.0576,N,13944.6546,E,15.04,185.80,240517,,,D*55
$GPRMC,094628.400,A,3541.0574,N,13944.6546,E,14.87,185.50,240517,,,D*57
$GPRMC,094628.500,A,3541.0572,N,13944.6546,E,14.70,185.12,240517,,,D*5E
$GPRMC,094628.600,A,3541.0569,N,13944.6546,E,14.53,184.80,240517,,,D*5C
$GPRMC,094628.700,A,3541.0567,N,13944.6545,E,14.41,184.59,240517,,,D*57
$GPRMC,094628.800,A,3541.0564,N,13944.6545,E,14.33,184.62,240517,,,D*56
$GPRMC,094628.900,A,3541.0562,N,13944.6544,E,14.20,184.59,240517,,,D*5A
$GPRMC,094629.000,A,3541.0559,N,13944.6544,E,14.09,184.63,240517,,,D*58
$GPRMC,094629.100,A,3541.0557,N,13944.6543,E,13.98,184.61,240517,,,D*5D
$GPRMC,094629.200,A,3541.0555,N,13944.6542,E,13.86,184.62,240517,,,D*51
$GPRMC,094629.300,A,3541.0553,N,13944.6542,E,13.75,184.66,240517,,,D*5E
$GPRMC,094629.400,A,3541.0551,N,13944.6541,E,13.65,184.67,240517,,,D*58
$GPRMC,094629.500,A,3541.0549,N,13944.6541,E,13.54,184.71,240517,,,D*55
$GPRMC,094629.600,A,3541.0547,N,13944.6541,E,13.43,184.70,240517,,,D*5F
$GPRMC,094629.700,A,3541.0545,N,13944.6541,E,13.30,184.63,240517,,,D*5A
$GPRMC,094629.800,A,3541.0543,N,13944.6540,E,13.19,184.67,240517,,,D*5D
$GPRMC,094629.900,A,3541.0541,N,13944.6540,E,13.06,184.64,240517,,,D*53
$GPRMC,094630.000,A,3541.0539,N,13944.6540,E,12.93,184.52,240517,,,D*55
$GPRMC,094630.100,A,3541.0539,N,13944.6540,E,12.67,184.20,240517,,,D*5A
$GPRMC,094630.200,A,3541.0537,N,13944.6540,E,12.55,183.95,240517,,,D*5F
$GPRMC,094630.300,A,3541.0535,N,13944.6540,E,12.43,183.83,240517,,,D*5C
$GPRMC,094630.400,A,3541.0534,N,13944.6540,E,12.29,183.73,240517,,,D*59
$GPRMC,094630.500,A,3541.0532,N,13944.6540,E,12.16,183.52,240517,,,D*51
$GPRMC,094630.600,A,3541.0531,N,13944.6540,E,12.00,183.47,240517,,,D*52
$GPRMC,094630.700,A,3541.0530,N,13944.6540,E,11.83,183.26,240517,,,D*5D
$GPRMC,094630.800,A,3541.0529,N,13944.6540,E,11.65,183.06,240517,,,D*50
$GPRMC,094630.900,A,3541.0528,N,13944.6540,E,11.50,182.87,240517,,,D*5E
$GPRMC,094631.000,A,3541.0528,N,13944.6540,E,11.34,182.58,240517,,,D*56
$GPRMC,094631.100,A,3541.0527,N,13944.6540,E,11.17,182.49,240517,,,D*59
$GPRMC,094631.200,A,3541.0528,N,13944.6539,E,10.86,182.11,240517,,,D*5F
$GPRMC,094631.300,A,3541.0528,N,13944.6539,E,10.67,182.02,240517,,,D*53
$GPRMC,094631.400,A,3541.0528,N,13944.6539,E,10.49,181.81,240517,,,D*50
$GPRMC,094631.500,A,3541.0527,N,13944.6539,E,10.31,181.70,240517,,,D*5F
$GPRMC,094631.600,A,3541.0527,N,13944.6539,E,10.12,181.55,240517,,,D*5A
$GPRMC,094631.700,A,3541.0527,N,13944.6538,E,9.91,181.33,240517,,,D*69
$GPRMC,094631.800,A,3541.0527,N,13944.6538,E,9.70,181.00,240517,,,D*69
$GPRMC,094631.900,A,3541.0528,N,13944.6538,E,9.50,180.63,240517,,,D*61
$GPRMC,094632.000,A,3541.0528,N,13944.6538,E,9.29,180.38,240517,,,D*6B
$GPRMC,094632.100,A,3541.0528,N,13944.6538,E,9.09,180.06,240517,,,D*65
$GPRMC,094632.200,A,3541.0528,N,13944.6538,E,8.86,179.71,240517,,,D*66
$GPRMC,094632.300,A,3541.0529,N,13944.6538,E,8.65,179.27,240517,,,D*68
$GPRMC,094632.400,A,3541.0529,N,13944.6538,E,8.44,178.85,240517,,,D*65
$GPRMC,094632.500,A,3541.0529,N,13944.6538,E,8.26,178.51,240517,,,D*69
$GPRMC,094632.600,A,3541.0529,N,13944.6538,E,8.06,178.26,240517,,,D*68
$GPRMC,094632.700,A,3541.0529,N,13944.6538,E,7.86,178.06,240517,,,D*6C
$GPRMC,094632.800,A,3541.0530,N,13944.6538,E,7.63,177.78,240517,,,D*66
$GPRMC,094632.900,A,3541.0531,N,13944.6537,E,7.42,177.57,240517,,,D*67
$GPRMC,094633.000,A,3541.0531,N,13944.6537,E,7.22,177.26,240517,,,D*6F
$GPRMC,094633.100,A,3541.0532,N,13944.6537,E,7.03,176.92,240517,,,D*60
$GPRMC,094633.200,A,3541.0532,N,13944.6537,E,6.85,176.62,240517,,,D*63
$GPRMC,094633.300,A,3541.0533,N,13944.6536,E,6.63,176.27,240517,,,D*6B
$GPRMC,094633.400,A,3541.0534,N,13944.6536,E,6.43,175.90,240517,,,D*66
$GPRMC,094633.500,A,3541.0535,N,13944.6536,E,6.22,175.64,240517,,,D*6A
$GPRMC,094633.600,A,3541.0536,N,13944.6535,E,6.01,175.50,240517,,,D*6F
$GPRMC,094633.700,A,3541.0537,N,13944.6535,E,5.82,175.23,240517,,,D*63
$GPRMC,094633.800,A,3541.0538,N,13944.6534,E,5.59,175.05,240517,,,D*60
$GPRMC,094633.900,A,3541.0539,N,13944.6534,E,5.36,175.01,240517,,,D*6D
$GPRMC,094634.000,A,3541.0541,N,13944.6533,E,5.14,174.92,240517,,,D*60
$GPRMC,094634.100,A,3541.0542,N,13944.6533,E,4.94,174.81,240517,,,D*69
$GPRMC,094634.200,A,3541.0543,N,13944.6532,E,4.76,174.71,240517,,,D*69
$GPRMC,094634.300,A,3541.0544,N,13944.6532,E,4.56,174.51,240517,,,D*6F
$GPRMC,094634.400,A,3541.0545,N,13944.6532,E,4.36,174.36,240517,,,D*6E
$GPRMC,094634.500,A,3541.0546,N,13944.6531,E,4.20,174.13,240517,,,D*6F
$GPRMC,094634.600,A,3541.0547,N,13944.6531,E,4.04,174.04,240517,,,D*6D
$GPRMC,094634.700,A,3541.0547,N,13944.6531,E,3.90,173.88,240517,,,D*65
$GPRMC,094634.800,A,3541.0548,N,13944.6531,E,3.75,173.82,240517,,,D*64
$GPRMC,094634.900,A,3541.0548,N,13944.6530,E,3.61,173.73,240517,,,D*6F
$GPRMC,094635.000,A,3541.0549,N,13944.6530,E,3.48,173.60,240517,,,D*6F
$GPRMC,094635.100,A,3541.0549,N,13944.6530,E,3.37,173.56,240517,,,D*63
$GPRMC,094635.200,A,3541.0550,N,13944.6530,E,3.26,173.54,240517,,,D*6A
$GPRMC,094635.300,A,3541.0550,N,13944.6530,E,3.14,173.45,240517,,,D*6A
$GPRMC,094635.400,A,3541.0550,N,13944.6530,E,3.03,173.51,240517,,,D*6E
$GPRMC,094635.500,A,3541.0551,N,13944.6530,E,2.92,173.64,240517,,,D*61
$GPRMC,094635.600,A,3541.0551,N,13944.6530,E,2.82,173.65,240517,,,D*62
$GPRMC,094635.700,A,3541.0551,N,13944.6529,E,2.73,173.99,240517,,,D*66
$GPRMC,094635.800,A,3541.0551,N,13944.6529,E,2.63,174.06,240517,,,D*69
$GPRMC,094635.900,A,3541.0552,N,13944.6529,E,2.54,174.08,240517,,,D*61
$GPRMC,094636.000,A,3541.0552,N,13944.6529,E,2.45,174.37,240517,,,D*67
$GPRMC,094636.100,A,3541.0553,N,13944.6528,E,2.30,176.94,240517,,,D*6F
$GPRMC,094636.200,A,3541.0553,N,13944.6528,E,2.23,176.98,240517,,,D*62
$GPRMC,094636.300,A,3541.0553,N,13944.6528,E,2.15,177.03,240517,,,D*65
$GPRMC,094636.400,A,3541.0553,N,13944.6528,E,2.10,177.10,240517,,,D*65
$GPRMC,094636.500,A,3541.0553,N,13944.6528,E,2.03,177.32,240517,,,D*66
$GPRMC,094636.600,A,3541.0553,N,13944.6528,E,1.97,177.52,240517,,,D*6D
$GPRMC,094636.700,A,3541.0553,N,13944.6528,E,1.91,177.54,240517,,,D*6C
$GPRMC,094636.800,A,3541.0553,N,13944.6528,E,1.84,177.59,240517,,,D*6A
$GPRMC,094636.900,A,3541.0553,N,13944.6528,E,1.79,177.66,240517,,,D*65
$GPRMC,094637.000,A,3541.0553,N,13944.6528,E,1.74,177.74,240517,,,D*63
$GPRMC,094637.100,A,3541.0553,N,13944.6528,E,1.69,177.83,240517,,,D*66
$GPRMC,094637.200,A,3541.0553,N,13944.6528,E,1.64,177.95,240517,,,D*6F
$GPRMC,094637.300,A,3541.0553,N,13944.6528,E,1.60,178.07,240517,,,D*6E
$GPRMC,094637.400,A,3541.0553,N,13944.6528,E,1.56,178.23,240517,,,D*6A
$GPRMC,094637.500,A,3541.0553,N,13944.6528,E,1.51,178.41,240517,,,D*68
$GPRMC,094637.600,A,3541.0553,N,13944.6528,E,1.48,178.61,240517,,,D*61
$GPRMC,094637.700,A,3541.0552,N,13944.6528,E,1.44,178.82,240517,,,D*60
$GPRMC,094637.800,A,3541.0552,N,13944.6528,E,1.40,179.07,240517,,,D*67
$GPRMC,094637.900,A,3541.0552,N,13944.6528,E,1.37,179.32,240517,,,D*60
$GPRMC,094638.000,A,3541.0552,N,13944.6528,E,1.34,179.58,240517,,,D*69
$GPRMC,094638.100,A,3541.0552,N,13944.6528,E,1.30,179.85,240517,,,D*6C
$GPRMC,094638.200,A,3541.0552,N,13944.6528,E,1.27,180.12,240517,,,D*61
$GPRMC,094638.300,A,3541.0552,N,13944.6528,E,1.23,180.45,240517,,,D*66
$GPRMC,094638.400,A,3541.0552,N,13944.6528,E,1.20,180.79,240517,,,D*6D
$GPRMC,094638.500,A,3541.0552,N,13944.6528,E,1.18,181.15,240517,,,D*6C
$GPRMC,094638.600,A,3541.0551,N,13944.6529,E,1.16,181.52,240517,,,D*60
$GPRMC,094638.700,A,3541.0550,N,13944.6530,E,1.13,181.96,240517,,,D*65
$GPRMC,094638.800,A,3541.0549,N,13944.6531,E,1.09,182.49,240517,,,D*69
$GPRMC,094638.900,A,3541.0548,N,13944.6531,E,1.05,182.97,240517,,,D*66
$GPRMC,094639.000,A,3541.0547,N,13944.6532,E,1.02,183.45,240517,,,D*6B
$GPRMC,094639.100,A,3541.0547,N,13944.6533,E,0.99,184.14,240517,,,D*6B
$GPRMC,094639.200,A,3541.0546,N,13944.6533,E,0.93,185.04,240517,,,D*63
$GPRMC,094639.300,A,3541.0546,N,13944.6534,E,0.88,186.14,240517,,,D*6D
$GPRMC,094639.400,A,3541.0545,N,13944.6535,E,0.82,187.34,240517,,,D*61
$GPRMC,094639.500,A,3541.0545,N,13944.6535,E,0.82,188.52,240517,,,D*6F
$GPRMC,094639.600,A,3541.0544,N,13944.6536,E,0.76,189.63,240517,,,D*66
$GPRMC,094639.700,A,3541.0544,N,13944.6536,E,0.77,190.84,240517,,,D*67
$GPRMC,094639.800,A,3541.0543,N,13944.6537,E,0.75,192.03,240517,,,D*61
$GPRMC,094639.900,A,3541.0543,N,13944.6537,E,0.77,193.05,240517,,,D*65
$GPRMC,094640.000,A,3541.0542,N,13944.6538,E,0.79,194.19,240517,,,D*68
$GPRMC,094640.100,A,3541.0542,N,13944.6538,E,0.85,195.09,240517,,,D*6A
$GPRMC,094640.200,A,3541.0541,N,13944.6539,E,0.94,195.76,240517,,,D*63
$GPRMC,094640.300,A,3541.0540,N,13944.6539,E,1.05,196.64,240517,,,D*6A
$GPRMC,094640.400,A,3541.0540,N,13944.6539,E,1.07,197.33,240517,,,D*6C
$GPRMC,094640.500,A,3541.0540,N,13944.6539,E,1.17,198.00,240517,,,D*63
$GPRMC,094640.600,A,3541.0539,N,13944.6540,E,1.27,198.59,240517,,,D*6F
$GPRMC,094640.700,A,3541.0539,N,13944.6540,E,1.42,199.14,240517,,,D*65
$GPRMC,094640.800,A,3541.0538,N,13944.6540,E,1.59,199.62,240517,,,D*60
$GPRMC,094640.900,A,3541.0537,N,13944.6540,E,1.80,200.03,240517,,,D*6E
$GPRMC,094641.000,A,3541.0536,N,13944.6540,E,1.95,204.79,240517,,,D*6A
$GPRMC,094641.100,A,3541.0535,N,13944.6541,E,2.25,201.52,240517,,,D*6D
$GPRMC,094641.200,A,3541.0535,N,13944.6541,E,2.63,203.53,240517,,,D*6F
$GPRMC,094641.300,A,3541.0533,N,13944.6540,E,2.96,205.49,240517,,,D*6E
$GPRMC,094641.400,A,3541.0532,N,13944.6540,E,3.12,203.59,240517,,,D*62
$GPRMC,094641.500,A,3541.0530,N,13944.6540,E,3.47,200.99,240517,,,D*6E
$GPRMC,094641.600,A,3541.0529,N,13944.6540,E,3.81,199.16,240517,,,D*6B
$GPRMC,094641.700,A,3541.0527,N,13944.6540,E,4.22,198.05,240517,,,D*69
$GPRMC,094641.800,A,3541.0525,N,13944.6540,E,4.54,196.83,240517,,,D*65
$GPRMC,094641.900,A,3541.0523,N,13944.6540,E,4.79,197.18,240517,,,D*6E
$GPRMC,094642.000,A,3541.0521,N,13944.6540,E,5.18,196.38,240517,,,D*63
$GPRMC,094642.100,A,3541.0519,N,13944.6540,E,5.79,200.04,240517,,,D*6D
$GPRMC,094642.200,A,3541.0517,N,13944.6539,E,6.00,197.88,240517,,,D*6A
$GPRMC,094642.300,A,3541.0515,N,13944.6539,E,6.33,196.66,240517,,,D*68
$GPRMC,094642.400,A,3541.0513,N,13944.6539,E,6.57,195.98,240517,,,D*69
$GPRMC,094642.500,A,3541.0511,N,13944.6539,E,6.81,195.01,240517,,,D*61
$GPRMC,094642.600,A,3541.0509,N,13944.6538,E,7.20,194.81,240517,,,D*69
$GPRMC,094642.700,A,3541.0506,N,13944.6538,E,7.55,193.95,240517,,,D*67
$GPRMC,094642.800,A,3541.0504,N,13944.6538,E,7.88,193.97,240517,,,D*68
$GPRMC,094642.900,A,3541.0501,N,13944.6537,E,8.22,194.54,240517,,,D*64
$GPRMC,094643.000,A,3541.0498,N,13944.6537,E,8.60,194.22,240517,,,D*6A
$GPRMC,094643.100,A,3541.0495,N,13944.6536,E,8.89,193.88,240517,,,D*67
$GPRMC,094643.200,A,3541.0492,N,13944.6536,E,9.34,194.06,240517,,,D*65
$GPRMC,094643.300,A,3541.0489,N,13944.6536,E,9.64,193.77,240517,,,D*6A
$GPRMC,094643.400,A,3541.0485,N,13944.6535,E,10.02,193.37,240517,,,D*5E
$GPRMC,094643.500,A,3541.0482,N,13944.6535,E,10.26,192.21,240517,,,D*58
$GPRMC,094643.600,A,3541.0479,N,13944.6535,E,10.34,191.85,240517,,,D*51
$GPRMC,094643.700,A,3541.0475,N,13944.6534,E,10.46,191.12,240517,,,D*56
$GPRMC,094643.800,A,3541.0472,N,13944.6534,E,10.55,190.45,240517,,,D*5F
$GPRMC,094643.900,A,3541.0468,N,13944.6534,E,10.66,190.25,240517,,,D*53
$GPRMC,094644.000,A,3541.0465,N,13944.6533,E,10.73,189.96,240517,,,D*53
$GPRMC,094644.100,A,3541.0461,N,13944.6533,E,10.91,189.31,240517,,,D*57
$GPRMC,094644.200,A,3541.0457,N,13944.6533,E,11.13,188.98,240517,,,D*58
$GPRMC,094644.300,A,3541.0454,N,13944.6533,E,11.31,188.57,240517,,,D*59
$GPRMC,094644.400,A,3541.0450,N,13944.6533,E,11.42,188.53,240517,,,D*5A
$GPRMC,094644.500,A,3541.0446,N,13944.6532,E,11.59,188.37,240517,,,D*55
$GPRMC,094644.600,A,3541.0442,N,13944.6532,E,11.72,188.50,240517,,,D*5A
$GPRMC,094644.700,A,3541.0439,N,13944.6532,E,11.89,188.54,240517,,,D*57
$GPRMC,094644.800,A,3541.0435,N,13944.6531,E,12.08,188.22,240517,,,D*5C
$GPRMC,094644.900,A,3541.0431,N,13944.6531,E,12.27,187.86,240517,,,D*55
$GPRMC,094645.000,A,3541.0427,N,13944.6531,E,12.45,187.95,240517,,,D*5C
$GPRMC,094645.100,A,3541.0424,N,13944.6530,E,12.56,188.24,240517,,,D*58
$GPRMC,094645.200,A,3541.0421,N,13944.6529,E,12.66,188.58,240517,,,D*5E
$GPRMC,094645.300,A,3541.0417,N,13944.6529,E,12.83,188.44,240517,,,D*5C
$GPRMC,094645.400,A,3541.0414,N,13944.6528,E,12.96,188.48,240517,,,D*51
$GPRMC,094645.500,A,3541.0410,N,13944.6528,E,13.16,188.48,240517,,,D*5D
$GPRMC,094645.600,A,3541.0406,N,13944.6527,E,13.40,188.17,240517,,,D*5F
$GPRMC,094645.700,A,3541.0402,N,13944.6527,E,13.62,188.12,240517,,,D*5F
$GPRMC,094645.800,A,3541.0398,N,13944.6526,E,13.90,187.94,240517,,,D*59
$GPRMC,094645.900,A,3541.0393,N,13944.6526,E,14.06,187.84,240517,,,D*5A
$GPRMC,094646.000,A,3541.0389,N,13944.6525,E,14.27,187.83,240517,,,D*5C
$GPRMC,094646.100,A,3541.0384,N,13944.6525,E,14.47,187.75,240517,,,D*5F
$GPRMC,094646.200,A,3541.0379,N,13944.6525,E,14.70,187.55,240517,,,D*58
$GPRMC,094646.300,A,3541.0375,N,13944.6524,E,14.94,187.53,240517,,,D*58
$GPRMC,094646.400,A,3541.0370,N,13944.6524,E,15.19,187.17,240517,,,D*5E
$GPRMC,094646.500,A,3541.0365,N,13944.6523,E,15.35,187.06,240517,,,D*52
$GPRMC,094646.600,A,3541.0360,N,13944.6523,E,15.62,186.82,240517,,,D*5B
$GPRMC,094646.700,A,3541.0355,N,13944.6523,E,15.84,186.69,240517,,,D*51
$GPRMC,094646.800,A,3541.0350,N,13944.6522,E,16.10,186.57,240517,,,D*59
$GPRMC,094646.900,A,3541.0345,N,13944.6522,E,16.35,186.35,240517,,,D*5F
$GPRMC,094647.000,A,3541.0340,N,13944.6521,E,16.64,186.05,240517,,,D*56
$GPRMC,094647.100,A,3541.0335,N,13944.6521,E,16.87,185.75,240517,,,D*5C
$GPRMC,094647.200,A,3541.0330,N,13944.6521,E,17.16,185.43,240517,,,D*56
$GPRMC,094647.300,A,3541.0325,N,13944.6521,E,17.36,185.14,240517,,,D*53
$GPRMC,094647.400,A,3541.0319,N,13944.6520,E,17.65,184.95,240517,,,D*54
$GPRMC,094647.500,A,3541.0314,N,13944.6520,E,17.94,184.65,240517,,,D*59
$GPRMC,094647.600,A,3541.0308,N,13944.6520,E,18.23,184.51,240517,,,D*53
$GPRMC,094647.700,A,3541.0303,N,13944.6520,E,18.44,184.25,240517,,,D*5B
$GPRMC,094647.800,A,3541.0297,N,13944.6519,E,18.80,184.11,240517,,,D*5D
$GPRMC,094647.900,A,3541.0292,N,13944.6519,E,19.10,183.92,240517,,,D*5D
$GPRMC,094648.000,A,3541.0286,N,13944.6519,E,19.36,183.85,240517,,,D*5C
$GPRMC,094648.100,A,3541.0280,N,13944.6519,E,19.77,184.07,240517,,,D*53
$GPRMC,094648.200,A,3541.0274,N,13944.6519,E,20.02,183.65,240517,,,D*50
$GPRMC,094648.300,A,3541.0268,N,13944.6518,E,20.20,183.45,240517,,,D*5F
$GPRMC,094648.400,A,3541.0262,N,13944.6518,E,20.42,183.26,240517,,,D*53
$GPRMC,094648.500,A,3541.0256,N,13944.6518,E,20.59,183.06,240517,,,D*5D
$GPRMC,094648.600,A,3541.0250,N,13944.6518,E,20.81,182.79,240517,,,D*54
$GPRMC,094648.700,A,3541.0244,N,13944.6518,E,20.66,183.36,240517,,,D*53
$GPRMC,094648.800,A,3541.0238,N,13944.6518,E,20.83,183.28,240517,,,D*53
$GPRMC,094648.900,A,3541.0232,N,13944.6518,E,20.91,183.22,240517,,,D*51
$GPRMC,094649.000,A,3541.0226,N,13944.6518,E,20.96,183.20,240517,,,D*59
$GPRMC,094649.100,A,3541.0220,N,13944.6517,E,21.14,183.28,240517,,,D*52
$GPRMC,094649.200,A,3541.0214,N,13944.6517,E,21.14,183.17,240517,,,D*5A
$GPRMC,094649.300,A,3541.0208,N,13944.6517,E,21.30,183.29,240517,,,D*5D
$GPRMC,094649.400,A,3541.0201,N,13944.6517,E,21.34,183.30,240517,,,D*5F
$GPRMC,094649.500,A,3541.0195,N,13944.6517,E,21.44,183.17,240517,,,D*52
$GPRMC,094649.600,A,3541.0189,N,13944.6517,E,21.59,183.14,240517,,,D*53
$GPRMC,094649.700,A,3541.0183,N,13944.6517,E,21.61,182.81,240517,,,D*5E
$GPRMC,094649.800,A,3541.0177,N,13944.6517,E,21.65,182.64,240517,,,D*55
$GPRMC,094649.900,A,3541.0170,N,13944.6517,E,21.74,182.39,240517,,,D*5B
$GPRMC,094650.000,A,3541.0164,N,13944.6517,E,21.74,182.05,240517,,,D*50
$GPRMC,094650.100,A,3541.0158,N,13944.6517,E,21.79,181.75,240517,,,D*57
$GPRMC,094650.200,A,3541.0152,N,13944.6517,E,21.85,181.49,240517,,,D*52
$GPRMC,094650.300,A,3541.0145,N,13944.6518,E,21.96,181.31,240517,,,D*57
$GPRMC,094650.400,A,3541.0139,N,13944.6518,E,22.05,180.94,240517,,,D*5C
$GPRMC,094650.500,A,3541.0132,N,13944.6518,E,22.10,180.68,240517,,,D*51
$GPRMC,094650.600,A,3541.0126,N,13944.6518,E,22.11,180.60,240517,,,D*5E
$GPRMC,094650.700,A,3541.0120,N,13944.6519,E,22.16,180.16,240517,,,D*5E
$GPRMC,094650.800,A,3541.0114,N,13944.6519,E,22.11,180.46,240517,,,D*54
$GPRMC,094650.900,A,3541.0107,N,13944.6519,E,22.09,180.44,240517,,,D*5C
$GPRMC,094651.000,A,3541.0101,N,13944.6519,E,22.08,180.35,240517,,,D*55
$GPRMC,094651.100,A,3541.0095,N,13944.6519,E,22.09,180.24,240517,,,D*59
$GPRMC,094651.200,A,3541.0088,N,13944.6519,E,22.12,180.23,240517,,,D*5B
$GPRMC,094651.300,A,3541.0082,N,13944.6519,E,22.17,180.49,240517,,,D*59
$GPRMC,094651.400,A,3541.0076,N,13944.6519,E,22.19,180.31,240517,,,D*54
$GPRMC,094651.500,A,3541.0070,N,13944.6519,E,22.16,179.89,240517,,,D*59
$GPRMC,094651.600,A,3541.0064,N,13944.6520,E,22.08,179.07,240517,,,D*5C
$GPRMC,094651.700,A,3541.0057,N,13944.6521,E,22.04,178.88,240517,,,D*56
$GPRMC,094651.800,A,3541.0051,N,13944.6521,E,21.96,178.37,240517,,,D*53
$GPRMC,094651.900,A,3541.0046,N,13944.6522,E,21.74,177.93,240517,,,D*5A
$GPRMC,094652.000,A,3541.0040,N,13944.6523,E,21.58,177.46,240517,,,D*51
$GPRMC,094652.100,A,3541.0035,N,13944.6524,E,21.41,176.94,240517,,,D*53
$GPRMC,094652.200,A,3541.0029,N,13944.6524,E,21.20,176.58,240517,,,D*5A
$GPRMC,094652.300,A,3541.0024,N,13944.6525,E,21.04,176.14,240517,,,D*59
$GPRMC,094652.400,A,3541.0018,N,13944.6526,E,20.92,175.74,240517,,,D*59
$GPRMC,094652.500,A,3541.0013,N,13944.6526,E,20.66,175.53,240517,,,D*5D
$GPRMC,094652.600,A,3541.0008,N,13944.6528,E,20.42,175.03,240517,,,D*59
$GPRMC,094652.700,A,3541.0003,N,13944.6529,E,20.14,174.57,240517,,,D*51
$GPRMC,094652.800,A,3540.9998,N,13944.6530,E,19.91,174.30,240517,,,D*53
$GPRMC,094652.900,A,3540.9993,N,13944.6531,E,19.73,173.88,240517,,,D*50
$GPRMC,094653.000,A,3540.9988,N,13944.6533,E,19.70,173.45,240517,,,D*52
$GPRMC,094653.100,A,3540.9982,N,13944.6534,E,19.62,173.06,240517,,,D*5A
$GPRMC,094653.200,A,3540.9977,N,13944.6535,E,19.58,172.82,240517,,,D*56
$GPRMC,094653.300,A,3540.9971,N,13944.6536,E,19.66,172.93,240517,,,D*5F
$GPRMC,094653.400,A,3540.9965,N,13944.6537,E,19.82,173.07,240517,,,D*5A
$GPRMC,094653.500,A,3540.9958,N,13944.6539,E,20.06,173.12,240517,,,D*59
$GPRMC,094653.600,A,3540.9951,N,13944.6540,E,20.43,174.05,240517,,,D*5D
$GPRMC,094653.700,A,3540.9944,N,13944.6541,E,20.57,174.60,240517,,,D*5F
$GPRMC,094653.800,A,3540.9937,N,13944.6541,E,20.73,174.94,240517,,,D*59
$GPRMC,094653.900,A,3540.9930,N,13944.6542,E,20.89,175.16,240517,,,D*52
$GPRMC,094654.000,A,3540.9923,N,13944.6543,E,21.07,175.22,240517,,,D*5F
$GPRMC,094654.100,A,3540.9914,N,13944.6545,E,21.67,175.53,240517,,,D*5C
$GPRMC,094654.200,A,3540.9906,N,13944.6547,E,21.95,174.60,240517,,,D*52
$GPRMC,094654.300,A,3540.9898,N,13944.6549,E,22.38,174.65,240517,,,D*5A
$GPRMC,094654.400,A,3540.9890,N,13944.6551,E,22.48,174.21,240517,,,D*5B
$GPRMC,094654.500,A,3540.9883,N,13944.6552,E,22.63,174.32,240517,,,D*50
$GPRMC,094654.600,A,3540.9877,N,13944.6553,E,22.71,174.53,240517,,,D*5D
$GPRMC,094654.700,A,3540.9870,N,13944.6554,E,22.70,173.97,240517,,,D*52
$GPRMC,094654.800,A,3540.9863,N,13944.6556,E,22.77,173.55,240517,,,D*54
$GPRMC,094654.900,A,3540.9855,N,13944.6558,E,23.13,173.35,240517,,,D*5B
$GPRMC,094655.000,A,3540.9848,N,13944.6559,E,23.23,173.61,240517,,,D*5C
$GPRMC,094655.100,A,3540.9840,N,13944.6560,E,23.39,173.80,240517,,,D*5B
$GPRMC,094655.200,A,3540.9832,N,13944.6562,E,23.53,173.74,240517,,,D*58
$GPRMC,094655.300,A,3540.9825,N,13944.6563,E,23.57,173.43,240517,,,D*5E
$GPRMC,094655.400,A,3540.9818,N,13944.6564,E,23.54,173.46,240517,,,D*56
$GPRMC,094655.500,A,3540.9812,N,13944.6565,E,23.52,173.37,240517,,,D*5C
$GPRMC,094655.600,A,3540.9806,N,13944.6565,E,23.45,173.41,240517,,,D*5D
$GPRMC,094655.700,A,3540.9800,N,13944.6566,E,23.41,173.11,240517,,,D*58
$GPRMC,094655.800,A,3540.9793,N,13944.6567,E,23.49,173.27,240517,,,D*5E
$GPRMC,094655.900,A,3540.9787,N,13944.6568,E,23.56,173.20,240517,,,D*5C
$GPRMC,094656.000,A,3540.9779,N,13944.6569,E,23.76,173.26,240517,,,D*52
$GPRMC,094656.100,A,3540.9771,N,13944.6571,E,23.86,173.03,240517,,,D*5A
$GPRMC,094656.200,A,3540.9764,N,13944.6572,E,23.96,172.81,240517,,,D*54
$GPRMC,094656.300,A,3540.9756,N,13944.6574,E,24.07,172.86,240517,,,D*5A
$GPRMC,094656.400,A,3540.9749,N,13944.6576,E,24.16,172.55,240517,,,D*5F
$GPRMC,094656.500,A,3540.9742,N,13944.6577,E,24.25,173.06,240517,,,D*53
$GPRMC,094656.600,A,3540.9735,N,13944.6578,E,24.36,172.95,240517,,,D*56
$GPRMC,094656.700,A,3540.9728,N,13944.6579,E,24.36,172.84,240517,,,D*5A
$GPRMC,094656.800,A,3540.9721,N,13944.6581,E,24.36,172.64,240517,,,D*55
$GPRMC,094656.900,A,3540.9714,N,13944.6582,E,24.35,172.51,240517,,,D*54
$GPRMC,094657.000,A,3540.9707,N,13944.6584,E,24.33,172.17,240517,,,D*5C
$GPRMC,094657.100,A,3540.9699,N,13944.6586,E,24.47,172.20,240517,,,D*5E
$GPRMC,094657.200,A,3540.9691,N,13944.6588,E,24.43,171.44,240517,,,D*5E
$GPRMC,094657.300,A,3540.9684,N,13944.6589,E,24.51,171.56,240517,,,D*5A
$GPRMC,094657.400,A,3540.9677,N,13944.6589,E,24.52,171.69,240517,,,D*5E
$GPRMC,094657.500,A,3540.9671,N,13944.6590,E,24.53,171.71,240517,,,D*59
$GPRMC,094657.600,A,3540.9664,N,13944.6591,E,24.59,171.79,240517,,,D*5D
$GPRMC,094657.700,A,3540.9657,N,13944.6592,E,24.68,172.06,240517,,,D*56
$GPRMC,094657.800,A,3540.9652,N,13944.6593,E,24.54,172.05,240517,,,D*51
$GPRMC,094657.900,A,3540.9645,N,13944.6594,E,24.55,172.05,240517,,,D*50
$GPRMC,094658.000,A,3540.9639,N,13944.6595,E,24.56,172.07,240517,,,D*5D
$GPRMC,094658.100,A,3540.9632,N,13944.6596,E,24.45,172.13,240517,,,D*53
$GPRMC,094658.200,A,3540.9624,N,13944.6598,E,24.52,171.92,240517,,,D*55
$GPRMC,094658.300,A,3540.9617,N,13944.6599,E,24.59,171.87,240517,,,D*5A
$GPRMC,094658.400,A,3540.9609,N,13944.6600,E,24.68,171.75,240517,,,D*5E
$GPRMC,094658.500,A,3540.9601,N,13944.6602,E,24.73,171.57,240517,,,D*5F
$GPRMC,094658.600,A,3540.9594,N,13944.6603,E,24.73,171.52,240517,,,D*57
$GPRMC,094658.700,A,3540.9585,N,13944.6605,E,25.05,171.18,240517,,,D*5E
$GPRMC,094658.800,A,3540.9577,N,13944.6607,E,25.14,171.20,240517,,,D*55
$GPRMC,094658.900,A,3540.9568,N,13944.6609,E,25.54,171.45,240517,,,D*53
$GPRMC,094659.000,A,3540.9561,N,13944.6610,E,25.57,171.37,240517,,,D*5C
$GPRMC,094659.100,A,3540.9554,N,13944.6612,E,25.57,170.79,240517,,,D*52
$GPRMC,094659.200,A,3540.9547,N,13944.6615,E,25.67,170.32,240517,,,D*58
$GPRMC,094659.300,A,3540.9539,N,13944.6617,E,25.76,169.80,240517,,,D*53
$GPRMC,094659.400,A,3540.9532,N,13944.6619,E,25.88,169.28,240517,,,D*52
$GPRMC,094659.500,A,3540.9525,N,13944.6622,E,25.88,168.82,240517,,,D*5C
$GPRMC,094659.600,A,3540.9518,N,13944.6624,E,25.79,168.38,240517,,,D*58
$GPRMC,094659.700,A,3540.9511,N,13944.6627,E,25.63,167.71,240517,,,D*5A
$GPRMC,094659.800,A,3540.9503,N,13944.6631,E,25.75,167.04,240517,,,D*54
$GPRMC,094659.900,A,3540.9497,N,13944.6633,E,25.57,167.04,240517,,,D*5B
$GPRMC,094700.000,A,3540.9490,N,13944.6636,E,25.52,166.49,240517,,,D*50
$GPRMC,094700.100,A,3540.9483,N,13944.6638,E,25.37,166.36,240517,,,D*56
$GPRMC,094700.200,A,3540.9477,N,13944.6642,E,25.21,165.64,240517,,,D*50
$GPRMC,094700.300,A,3540.9470,N,13944.6644,E,25.26,165.36,240517,,,D*50
$GPRMC,094700.400,A,3540.9462,N,13944.6647,E,25.36,165.41,240517,,,D*56
$GPRMC,094700.500,A,3540.9456,N,13944.6649,E,25.40,165.05,240517,,,D*5F
$GPRMC,094700.600,A,3540.9449,N,13944.6652,E,25.34,164.56,240517,,,D*5C
$GPRMC,094700.700,A,3540.9443,N,13944.6655,E,25.28,164.47,240517,,,D*5D
$GPRMC,094700.800,A,3540.9435,N,13944.6658,E,25.32,164.15,240517,,,D*52
$GPRMC,094700.900,A,3540.9428,N,13944.6661,E,25.39,163.44,240517,,,D*5D
$GPRMC,094701.000,A,3540.9421,N,13944.6664,E,25.47,163.16,240517,,,D*57
$GPRMC,094701.100,A,3540.9414,N,13944.6667,E,25.52,162.93,240517,,,D*5B
$GPRMC,094701.200,A,3540.9407,N,13944.6670,E,25.69,162.83,240517,,,D*55
$GPRMC,094701.300,A,3540.9400,N,13944.6673,E,25.75,162.70,240517,,,D*51
$GPRMC,094701.400,A,3540.9393,N,13944.6676,E,25.89,162.66,240517,,,D*5A
$GPRMC,094701.500,A,3540.9386,N,13944.6678,E,25.95,162.64,240517,,,D*5E
$GPRMC,094701.600,A,3540.9379,N,13944.6681,E,25.90,162.25,240517,,,D*5B
$GPRMC,094701.700,A,3540.9372,N,13944.6685,E,25.93,161.93,240517,,,D*58
$GPRMC,094701.800,A,3540.9365,N,13944.6688,E,26.03,161.98,240517,,,D*5D
$GPRMC,094701.900,A,3540.9357,N,13944.6691,E,26.14,161.97,240517,,,D*5C
$GPRMC,094702.000,A,3540.9351,N,13944.6694,E,26.13,161.77,240517,,,D*5C
$GPRMC,094702.100,A,3540.9344,N,13944.6697,E,26.10,161.53,240517,,,D*5F
$GPRMC,094702.200,A,3540.9338,N,13944.6701,E,25.93,160.88,240517,,,D*56
$GPRMC,094702.300,A,3540.9332,N,13944.6704,E,25.80,160.44,240517,,,D*5A
$GPRMC,094702.400,A,3540.9325,N,13944.6707,E,25.82,160.29,240517,,,D*51
$GPRMC,094702.500,A,3540.9318,N,13944.6711,E,25.83,160.13,240517,,,D*51
$GPRMC,094702.600,A,3540.9311,N,13944.6714,E,25.82,159.89,240517,,,D*56
$GPRMC,094702.700,A,3540.9305,N,13944.6718,E,25.82,159.58,240517,,,D*52
$GPRMC,094702.800,A,3540.9298,N,13944.6721,E,25.81,159.25,240517,,,D*5B
$GPRMC,094702.900,A,3540.9291,N,13944.6725,E,25.81,158.90,240517,,,D*58
$GPRMC,094703.000,A,3540.9285,N,13944.6729,E,25.80,158.58,240517,,,D*5C
$GPRMC,094703.100,A,3540.9279,N,13944.6732,E,25.77,158.21,240517,,,D*52
$GPRMC,094703.200,A,3540.9272,N,13944.6736,E,25.78,157.77,240517,,,D*5D
$GPRMC,094703.300,A,3540.9266,N,13944.6740,E,25.74,157.39,240517,,,D*5E
$GPRMC,094703.400,A,3540.9259,N,13944.6744,E,25.73,156.99,240517,,,D*5D
$GPRMC,094703.500,A,3540.9253,N,13944.6748,E,25.70,156.67,240517,,,D*58
$GPRMC,094703.600,A,3540.9247,N,13944.6752,E,25.66,156.40,240517,,,D*57
$GPRMC,094703.700,A,3540.9241,N,13944.6756,E,25.63,156.07,240517,,,D*52
$GPRMC,094703.800,A,3540.9235,N,13944.6760,E,25.67,155.74,240517,,,D*58
$GPRMC,094703.900,A,3540.9228,N,13944.6764,E,25.70,155.40,240517,,,D*50
$GPRMC,094704.000,A,3540.9222,N,13944.6768,E,25.94,154.99,240517,,,D*57
$GPRMC,094704.100,A,3540.9215,N,13944.6772,E,26.05,154.72,240517,,,D*57
$GPRMC,094704.200,A,3540.9209,N,13944.6777,E,26.10,154.52,240517,,,D*5A
$GPRMC,094704.300,A,3540.9202,N,13944.6781,E,26.17,154.35,240517,,,D*5F
$GPRMC,094704.400,A,3540.9196,N,13944.6785,E,26.18,154.21,240517,,,D*58
$GPRMC,094704.500,A,3540.9190,N,13944.6789,E,26.13,154.11,240517,,,D*5B
$GPRMC,094704.600,A,3540.9183,N,13944.6793,E,26.13,154.05,240517,,,D*54
$GPRMC,094704.700,A,3540.9177,N,13944.6797,E,26.11,154.04,240517,,,D*59
$GPRMC,094704.800,A,3540.9171,N,13944.6801,E,26.07,154.04,240517,,,D*57
$GPRMC,094704.900,A,3540.9165,N,13944.6804,E,25.96,154.09,240517,,,D*50
$GPRMC,094705.000,A,3540.9159,N,13944.6808,E,25.86,154.12,240517,,,D*50
$GPRMC,094705.100,A,3540.9153,N,13944.6812,E,25.80,154.16,240517,,,D*52
$GPRMC,094705.200,A,3540.9147,N,13944.6816,E,25.77,154.13,240517,,,D*5D
$GPRMC,094705.300,A,3540.9141,N,13944.6820,E,25.73,154.15,240517,,,D*5D
$GPRMC,094705.400,A,3540.9135,N,13944.6824,E,25.63,154.17,240517,,,D*5E
$GPRMC,094705.500,A,3540.9129,N,13944.6827,E,25.54,154.16,240517,,,D*54
$GPRMC,094705.600,A,3540.9123,N,13944.6831,E,25.44,154.20,240517,,,D*5E
$GPRMC,094705.700,A,3540.9117,N,13944.6835,E,25.43,154.21,240517,,,D*5A
$GPRMC,094705.800,A,3540.9111,N,13944.6839,E,25.42,154.22,240517,,,D*5D
$GPRMC,094705.900,A,3540.9104,N,13944.6842,E,25.43,154.23,240517,,,D*54
$GPRMC,094706.000,A,3540.9098,N,13944.6846,E,25.42,154.19,240517,,,D*56
$GPRMC,094706.100,A,3540.9092,N,13944.6850,E,25.47,154.14,240517,,,D*52
$GPRMC,094706.200,A,3540.9086,N,13944.6854,E,25.42,154.18,240517,,,D*59
$GPRMC,094706.300,A,3540.9080,N,13944.6858,E,25.40,154.21,240517,,,D*5A
$GPRMC,094706.400,A,3540.9074,N,13944.6862,E,25.38,154.21,240517,,,D*50
$GPRMC,094706.500,A,3540.9068,N,13944.6865,E,25.31,154.22,240517,,,D*51
$GPRMC,094706.600,A,3540.9061,N,13944.6869,E,25.43,154.14,240517,,,D*57
$GPRMC,094706.700,A,3540.9055,N,13944.6873,E,25.44,154.12,240517,,,D*5B
$GPRMC,094706.800,A,3540.9049,N,13944.6877,E,25.38,154.18,240517,,,D*5C
$GPRMC,094706.900,A,3540.9043,N,13944.6881,E,25.37,154.19,240517,,,D*50
$GPRMC,094707.000,A,3540.9036,N,13944.6885,E,25.39,154.25,240517,,,D*5F
$GPRMC,094707.100,A,3540.9030,N,13944.6889,E,25.37,154.24,240517,,,D*5B
$GPRMC,094707.200,A,3540.9024,N,13944.6893,E,25.38,154.22,240517,,,D*5F
$GPRMC,094707.300,A,3540.9018,N,13944.6897,E,25.41,154.24,240517,,,D*5D
$GPRMC,094707.400,A,3540.9011,N,13944.6901,E,25.45,154.21,240517,,,D*5C
$GPRMC,094707.500,A,3540.9005,N,13944.6905,E,25.45,154.28,240517,,,D*55
$GPRMC,094707.600,A,3540.8999,N,13944.6908,E,25.45,154.22,240517,,,D*5C
$GPRMC,094707.700,A,3540.8993,N,13944.6912,E,25.42,154.26,240517,,,D*5F
$GPRMC,094707.800,A,3540.8986,N,13944.6916,E,25.46,154.20,240517,,,D*52
$GPRMC,094707.900,A,3540.8980,N,13944.6920,E,25.44,154.07,240517,,,D*57
$GPRMC,094708.000,A,3540.8974,N,13944.6924,E,25.47,153.98,240517,,,D*5C
$GPRMC,094708.100,A,3540.8968,N,13944.6928,E,25.52,153.95,240517,,,D*55
$GPRMC,094708.200,A,3540.8961,N,13944.6932,E,25.59,153.92,240517,,,D*58
$GPRMC,094708.300,A,3540.8955,N,13944.6936,E,25.55,153.97,240517,,,D*53
$GPRMC,094708.400,A,3540.8949,N,13944.6940,E,25.60,153.87,240517,,,D*5F
